     3.04           OBSERVATION DATA    M: Mixed            RINEX VERSION / TYPE
CONVBIN demo5 b34a                      20210327 114943 UTC PGM / RUN BY / DATE 
log: 004.ubx                                                COMMENT             
format: u-blox UBX                                          COMMENT             
format: u-blox UBX                                          COMMENT             
log: 004.ubx                                                COMMENT             
                                                            MARKER NAME         
                                                            MARKER NUMBER       
                                                            MARKER TYPE         
                                                            OBSERVER / AGENCY   
                                                            REC # / TYPE / VERS 
                                                            ANT # / TYPE        
  4317332.3917  1016863.5999  4568191.2458                  APPROX POSITION XYZ 
        0.0000        0.0000        0.0000                  ANTENNA: DELTA H/E/N
G    8 C1C L1C D1C S1C C2X L2X D2X S2X                      SYS / # / OBS TYPES 
R    8 C1C L1C D1C S1C C2C L2C D2C S2C                      SYS / # / OBS TYPES 
E    8 C1X L1X D1X S1X C7X L7X D7X S7X                      SYS / # / OBS TYPES 
S    4 C1C L1C D1C S1C                                      SYS / # / OBS TYPES 
C    8 C2I L2I D2I S2I C7I L7I D7I S7I                      SYS / # / OBS TYPES 
  2021    03    11    09    01   48.0040000     GPS         TIME OF FIRST OBS   
  2021    03    11    09    14   24.0030000     GPS         TIME OF LAST OBS    
G L1C                                                       SYS / PHASE SHIFT   
G L2X  0.00000                                              SYS / PHASE SHIFT   
R L1C                                                       SYS / PHASE SHIFT   
R L2C                                                       SYS / PHASE SHIFT   
E L1X  0.00000                                              SYS / PHASE SHIFT   
E L7X  0.00000                                              SYS / PHASE SHIFT   
S L1C                                                       SYS / PHASE SHIFT   
C L2I                                                       SYS / PHASE SHIFT   
C L7I                                                       SYS / PHASE SHIFT   
 10 R05  1 R06 -4 R07  5 R08  6 R09 -2 R15  0 R16 -1 R17  4 GLONASS SLOT / FRQ #
    R18 -3 R24  2                                           GLONASS SLOT / FRQ #
 C1C    0.000 C1P    0.000 C2C    0.000 C2P    0.000        GLONASS COD/PHS/BIS 
                                                            END OF HEADER       
> 2021 03 11 09 01 48.0040000  0 31                     
G13  21632157.374 1 113677756.01611     -1435.659          45.000                                                                  
G14  23112661.273 4 121457860.06833     -2461.099          38.000    23112653.148 8  94642450.31814     -1917.619          38.000  
G15  21496938.368 1 112967169.67012       419.175          43.000    21496927.033 4  88026322.04713       326.455          39.000  
S23  39306578.575 1 206557462.92912       184.351          41.000  
G28  22965612.589 1 120685107.23913     -2146.967          38.000                                                                  
S36  39119934.492 1 205576641.03112       185.026          44.000  
C20  24063323.382 1 125304036.20011      -546.992          43.000                                                                  
C23  24365480.082 1 126877460.51311     -1858.893          44.000                                                                  
C32  25727094.904 1 133967757.09012     -3031.526          39.000                                                                  
C28  27203661.704 1 141656604.92912      3147.072          40.000                                                                  
R15  23267703.900 4 124335564.31612     -3164.362          41.000    23267702.986 2  96705408.86713     -2460.910          41.000  
R09  22272060.535 4 118931558.42334      2783.866          40.000    22272052.186 1  92502290.40112      2165.545          42.000  
R05  24159736.983 2 129147635.97812     -4360.592          39.000    24159737.924 2 100448199.38914     -3391.385          36.000  
R16  20417818.220 8 109068319.11834      -360.133          38.000    20417812.667 2  84830883.66414      -280.219          35.000  
G17  23619125.214 1 124119339.81613      1749.517          38.000    23619127.528 4  96716378.43715      1363.293          38.000  
G19  24443747.974 1 128452748.28913      3404.185          39.000                                                                  
E02  28617438.242 1 150385653.74114      2926.168          36.000                                                                  
G05  26085833.055 1 137081982.53013     -3364.477          38.000    26085824.361 8               7     -2621.611          26.000  
G23  24326709.450 1 127837725.70214       827.008          36.000    24326713.381 4  99613823.85114       644.091          39.000  
C37  23034253.132 1 119945393.63711       686.362          45.000                                                                  
C10  40296721.689 1 209835595.65112      -617.137          39.000    40296706.138 1 162258132.89012      -477.211          40.000  
R07  21989220.319 2 117710010.94513      2791.901          36.000    21989209.561 2  91552178.25114      2171.594          36.000  
E03  25170607.326 1 132272453.96912      1076.280          39.000    25170603.669 1 101351586.47311       824.873          46.000  
E05  25361403.995 1 133275062.89811     -1749.581          45.000    25361398.588 1 102119839.20111     -1340.239          44.000  
G20  24441337.076 1 128440088.66113       427.658          40.000                                                                  
E24  25266540.827 1 132776579.32512     -1273.835          39.000    25266534.667 2 101737865.61612      -976.108          41.000  
G24  22662412.575 1 119091786.35112      2524.720          41.000                                                                  
E25  25027520.251 1 131520516.22012      1473.125          41.000                                                                  
C07                                                                  42509657.270 9               9      -651.329          14.000  
C11                                                                  26773352.380 8               7       358.568          26.000  
R24                                                                  24861237.132 8               6     -1058.392          28.000  
> 2021 03 11 09 01 49.0040000  0 31                     
G13  21632430.565 1 113679191.913 1     -1436.015          46.000                                                                  
G14  23113130.975 2 121460321.238 3     -2461.115          39.000    23113123.372 8  94644376.15115     -1917.948          39.000  
G15  21496858.666 1 112966751.006 2       418.388          44.000    21496846.648 4  88025992.77214       326.494          40.000  
S23  39306543.361 1 206557278.548 2       184.601          42.000  
G28  22966021.274 1 120687254.220 3     -2147.198          39.000                                                                  
S36  39119899.301 1 205576456.071 1       184.973          45.000  
C20  24063428.421 1 125304583.550 2      -547.316          43.000                                                                  
C23  24365837.208 1 126879319.648 1     -1858.850          44.000                                                                  
C32  25727676.893 1 133970788.535 2     -3031.241          39.000                                                                  
C28  27203057.304 1 141653458.116 2      3146.952          40.000                                                                  
R15  23268297.251 4 124338728.969 2     -3164.463          43.000    23268295.070 2  96707870.297 2     -2461.897          41.000  
R09  22271536.859 4 118928774.91522      2783.589          44.000    22271531.134 1  92500125.490 2      2164.419          41.000  
R05  24160553.105 2 129151996.541 2     -4360.635          44.000    24160553.700 2 100451590.924 4     -3391.627          36.000  
R16  20417885.854 4 109068679.86323      -361.099          41.000    20417880.287 2  84831164.227 4      -280.666          36.000  
G17  23618792.495 1 124117590.590 3      1748.867          39.000    23618795.613 8  96715019.414 5      1363.160          38.000  
G19  24443100.121 1 128449343.835 3      3404.604          39.000                                                                  
E02  28616881.338 1 150382728.025 3      2926.016          37.000                                                                  
G05  26086473.315 1 137085347.166 3     -3364.739          38.000    26086466.598 9               9     -2618.255          26.000  
G23  24326552.044 1 127836899.509 4       826.268          37.000    24326555.877 4  99613180.073 3       643.622          40.000  
C37  23034121.575 1 119944707.715 1       685.954          46.000                                                                  
C10  40296840.298 1 209836213.071 2      -617.435          39.000    40296824.601 1 162258610.314 2      -477.509          40.000  
R07  21988698.800 2 117707219.158 3      2791.614          38.000    21988688.244 2  91550006.838 4      2171.063          36.000  
E03  25170402.328 1 132271377.787 2      1076.184          40.000    25170398.865 1 101350761.863 1       824.659          48.000  
E05  25361736.891 1 133276812.655 1     -1749.726          46.000    25361731.555 1 102121179.932 1     -1340.791          44.000  
G20  24441255.780 1 128439661.426 2       427.161          40.000                                                                  
E24  25266783.283 1 132777853.414 2     -1274.084          40.000    25266777.347 1 101738841.881 2      -976.341          42.000  
G24  22661932.254 1 119089261.945 2      2524.348          42.000                                                                  
E25  25027240.124 1 131519043.178 2      1473.035          42.000                                                                  
C07                                                                  42509819.470 9               9      -653.267          14.000  
C11                                                                  26773259.495 8               8       358.649          27.000  
R24                                                                  24861491.675 9               7     -1059.021          28.000  
> 2021 03 11 09 01 50.0040000  0 32                     
G13  21632703.892 1 113680628.219 1     -1436.947          45.000                                                                  
G14  23113599.620 1 121462782.652 3     -2461.676          38.000    23113590.452 4  94646288.12614     -1918.137          39.000  
G15  21496779.210 1 112966332.848 2       417.532          43.000    21496767.595 4  88025668.960 4       325.483          40.000  
S23  39306508.243 1 206557094.072 2       184.222          41.000  
G28  22966429.967 1 120689401.406 3     -2147.658          38.000                                                                  
S36  39119864.009 1 205576270.916 2       184.649          44.000  
C20  24063533.636 1 125305131.362 1      -548.098          43.000                                                                  
C23  24366194.294 1 126881178.851 1     -1859.311          44.000                                                                  
C32  25728258.943 1 133973820.062 2     -3031.868          39.000                                                                  
C28  27202452.956 1 141650311.225 2      3146.762          39.000                                                                  
R15  23268890.049 4 124341893.605 2     -3164.995          43.000    23268887.331 2  96710331.644 2     -2461.519          41.000  
R09  22271016.889 4 118925991.69122      2782.917          44.000    22271010.072 1  92497960.731 2      2164.620          42.000  
R05  24161369.268 2 129156357.108 2     -4360.881          43.000    24161369.638 2 100454982.486 4     -3392.109          37.000  
R06  20685276.602 8 110380599.18235     -1403.071          35.000                                                                  
R16  20417952.731 4 109069040.97023      -361.569          39.000    20417947.884 2  84831445.065 4      -281.045          37.000  
G17  23618459.660 1 124115841.775 3      1748.322          38.000    23618459.921 8  96713644.703 4      1362.320          39.000  
G19  24442452.318 1 128445939.565 3      3403.884          39.000                                                                  
E02  28616324.523 1 150379802.298 3      2925.621          37.000                                                                  
G05  26087113.550 1 137088711.601 3     -3364.865          38.000    26087107.161 8               7     -2621.646          27.000  
G23  24326394.890 1 127836073.854 3       825.179          37.000    24326398.949 4  99612536.72514       642.506          40.000  
C37  23033989.837 1 119944021.977 1       685.302          45.000                                                                  
C10  40296958.947 1 209836830.390 2      -617.705          39.000    40296943.208 1 162259087.662 3      -477.615          41.000  
R07  21988177.324 2 117704427.941 3      2790.564          38.000    21988166.976 2  91547835.886 3      2170.490          37.000  
E03  25170197.533 1 132270301.888 2      1075.418          40.000    25170194.117 1 101349937.474 1       824.029          48.000  
E05  25362069.881 1 133278562.646 1     -1750.546          45.000    25362064.565 1 102122520.824 1     -1341.334          44.000  
G20  24441174.611 1 128439234.723 3       426.430          40.000                                                                  
E24  25267025.719 1 132779127.644 2     -1274.688          40.000    25267019.757 1 101739818.237 2      -976.961          42.000  
G24  22661451.938 1 119086737.665 2      2523.948          42.000    22661444.893 4  92794828.45113      1966.503          41.000  
E25  25026959.731 1 131517570.350 2      1472.297          42.000                                                                  
C07                                                                  42509981.562 9               9      -650.577          14.000  
C11                                                                  26773166.292 8               9       357.498          27.000  
R24                                                                  24861745.852 9               7     -1058.523          29.000  
> 2021 03 11 09 01 51.0040000  0 32                     
G13  21632977.210 1 113682065.101 1     -1437.036          45.000                                                                  
G14  23114068.212 1 121465244.497 3     -2462.007          38.000    23114059.221 4  94648208.445 4     -1918.592          39.000  
G15  21496699.751 1 112965915.399 2       417.407          43.000    21496687.797 4  88025343.673 3       325.085          40.000  
S23  39306473.167 1 206556909.646 2       184.460          41.000  
G28  22966838.521 1 120691548.986 2     -2147.866          38.000                                                                  
S36  39119828.826 1 205576085.866 2       185.441          45.000  
C20  24063638.967 1 125305679.802 1      -548.564          44.000                                                                  
C23  24366551.436 1 126883038.284 1     -1859.349          44.000                                                                  
C32  25728841.126 1 133976851.874 2     -3031.936          38.000                                                                  
C28  27201848.749 1 141647164.459 2      3146.804          39.000                                                                  
R15  23269482.158 2 124345058.415 2     -3164.976          40.000    23269479.467 2  96712793.166 2     -2461.585          41.000  
R09  22270496.525 4 118923208.86532      2782.919          41.000    22270489.003 1  92495796.288 2      2164.635          42.000  
R05  24162185.451 2 129160717.913 2     -4360.416          42.000    24162185.455 2 100458374.202 3     -3391.762          37.000  
R06  20685541.206 8 110382011.34425     -1403.512          32.000                                                                  
R16  20418019.586 8 109069395.16634      -361.888          37.000    20418015.663 2  84831726.406 4      -281.928          36.000  
G17  23618126.998 1 124114093.521 2      1748.550          39.000    23618127.099 8  96712281.444 4      1361.900          37.000  
G19  24441804.567 1 128442535.600 3      3404.297          38.000                                                                  
E02  28615767.855 1 150376876.741 3      2925.708          37.000                                                                  
G05  26087752.314 2 137092063.03234     -3364.399          37.000    26087747.012 8               8     -2621.506          28.000  
G23  24326237.640 1 127835248.906 3       824.962          36.000    24326241.904 4  99611893.89714       642.676          40.000  
C37  23033858.151 1 119943336.606 1       685.437          45.000                                                                  
C10  40297077.613 1 209837447.794 2      -617.301          39.000    40297061.743 1 162259565.080 3      -477.273          39.000  
R07  21987655.927 2 117701637.492 4      2790.399          36.000    21987645.763 2  91545665.522 4      2170.337          37.000  
E03  25169992.703 1 132269226.425 2      1075.620          40.000    25169989.536 1 101349113.433 1       824.027          48.000  
E05  25362402.808 1 133280313.042 2     -1750.411          45.000    25362397.775 1 102123862.038 2     -1341.422          45.000  
G20  24441093.446 1 128438808.739 2       425.728          40.000                                                                  
E24  25267268.343 1 132780402.182 2     -1274.378          39.000    25267262.192 1 101740794.850 2      -976.955          41.000  
G24  22660971.675 1 119084213.733 2      2523.887          42.000    22660964.066 4  92792858.73014      1966.559          41.000  
E25  25026679.508 1 131516097.893 2      1472.316          42.000                                                                  
C07                                                                  42510145.027 9               9      -647.516          13.000  
C11                                                                  26773076.139 4               8       357.557          27.000  
R24                                                                  24862000.553 8               9     -1060.374          30.000  
> 2021 03 11 09 01 52.0040000  0 32                     
G13  21633250.777 1 113683502.404 1     -1437.631          45.000                                                                  
G14  23114536.721 1 121467706.586 3     -2462.188          38.000    23114528.672 4  94650129.942 4     -1918.608          39.000  
G15  21496620.443 1 112965498.466 2       416.604          43.000    21496610.453 4  88025025.79514       324.737          39.000  
S23  39306438.074 1 206556725.094 2       184.540          41.000  
G28  22967247.289 1 120693696.815 3     -2148.141          39.000                                                                  
S36  39119793.599 1 205575900.661 2       185.171          44.000  
C20  24063744.299 1 125306228.691 2      -549.188          43.000                                                                  
C23  24366908.522 1 126884897.795 1     -1859.623          44.000                                                                  
C32  25729423.153 1 133979883.734 2     -3032.000          38.000                                                                  
C28  27201244.371 1 141644017.610 2      3146.843          39.000                                                                  
R15  23270074.427 2 124348223.173 2     -3164.538          40.000    23270071.610 2  96715254.648 2     -2461.678          41.000  
R09  22269975.500 8 118920425.80034      2782.644          40.000    22269968.057 1  92493632.097 2      2164.164          42.000  
R05  24163001.498 2 129165078.761 3     -4361.240          41.000    24163001.309 2 100461766.001 3     -3391.955          37.000  
R06  20685803.721 8 110383411.74735     -1404.407          31.000                                                                  
R16  20418087.244 4 109069757.21323      -362.058          37.000    20418083.442 2  84832007.993 4      -281.776          34.000  
G17  23617794.491 1 124112345.703 2      1747.832          39.000    23617793.700 8  96710916.496 4      1361.844          37.000  
G19  24441156.928 1 128439131.821 3      3403.851          39.000                                                                  
E02  28615211.231 1 150373951.194 3      2925.790          37.000                                                                  
G05  26088393.232 4 137095427.29423     -3364.030          38.000    26088385.898 8               7     -2621.372          28.000  
G23  24326080.673 1 127834424.497 3       824.842          37.000    24326085.703 4  99611253.520 4       642.355          39.000  
C37  23033726.585 1 119942651.452 1       685.073          45.000                                                                  
C10  40297196.153 1 209838065.133 2      -617.303          39.000    40297180.267 1 162260042.437 2      -477.308          40.000  
R07  21987134.746 2 117698847.582 3      2789.545          35.000    21987124.695 2  91543495.625 3      2169.306          37.000  
E03  25169788.232 1 132268151.309 3      1074.828          40.000    25169784.921 1 101348289.630 1       823.733          47.000  
E05  25362735.841 1 133282063.665 1     -1750.744          46.000    25362730.803 1 102125203.434 2     -1341.558          44.000  
G20  24441012.431 1 128438383.250 2       425.209          40.000                                                                  
E24  25267510.976 1 132781676.865 3     -1274.654          40.000    25267504.769 1 101741771.529 2      -976.683          40.000  
G24  22660491.468 1 119081689.952 2      2523.787          42.000    22660484.091 4  92790892.174 3      1966.638          41.000  
E25  25026399.240 1 131514625.661 2      1471.893          41.000                                                                  
C07                                                                  42510307.577 9               9      -660.065          13.000  
C11                                                                  26772987.188 8               7       356.967          27.000  
R24                                                                  24862255.206 8               7     -1060.883          26.000  
> 2021 03 11 09 01 53.0040000  0 32                     
G13  21633524.388 1 113684940.232 1     -1438.038          47.000                                                                  
G14  23115005.445 1 121470169.014 3     -2462.152          40.000    23114996.139 4  94652044.728 4     -1919.186          40.000  
G15  21496541.290 1 112965082.177 2       416.012          44.000    21496530.946 4  88024700.396 4       324.442          39.000  
S23  39306402.910 1 206556540.558 2       184.912          42.000  
G28  22967655.985 1 120695844.970 2     -2148.332          41.000                                                                  
S36  39119758.464 1 205575715.567 2       185.130          45.000  
C20  24063849.808 1 125306778.131 2      -549.682          43.000                                                                  
C23  24367265.429 1 126886757.476 1     -1859.632          44.000                                                                  
C32  25730005.386 1 133982915.823 3     -3032.401          38.000                                                                  
C28  27200640.043 1 141640870.785 2      3147.399          38.000                                                                  
R15  23270666.654 2 124351388.035 2     -3165.003          41.000    23270663.893 2  96717716.183 2     -2461.595          42.000  
R09  22269454.377 4 118917643.07523      2782.484          39.000    22269447.220 2  92491468.182 2      2164.016          43.000  
R05  24163817.585 2 129169439.814 2     -4360.849          40.000    24163817.267 2 100465157.919 3     -3392.296          37.000  
R06  20686068.141 4 110384822.56424     -1405.484          32.000                                                                  
R16  20418155.072 2 109070118.82633      -362.653          38.000    20418151.227 2  84832290.034 4      -282.481          36.000  
G17  23617462.045 1 124110598.424 3      1747.498          40.000    23617462.525 8  96709560.96115      1361.562          38.000  
G19  24440509.363 1 128435728.339 3      3403.698          39.000                                                                  
E02  28614654.723 1 150371025.779 3      2925.439          37.000                                                                  
G05  26089036.198 4 137098791.51723     -3363.803          39.000    26089025.243 9               9     -2621.525          27.000  
G23  24325923.688 1 127833600.766 4       823.621          37.000    24325929.324 8  99610613.64714       641.656          39.000  
C37  23033595.073 1 119941966.597 1       684.761          45.000                                                                  
C10  40297314.805 1 209838682.517 2      -617.351          39.000    40297298.794 1 162260519.830 3      -477.576          40.000  
R07  21986613.790 2 117696058.372 3      2788.721          36.000    21986603.810 2  91541326.228 4      2169.300          37.000  
E03  25169583.631 1 132267076.554 2      1074.494          41.000    25169580.369 1 101347466.122 2       823.624          46.000  
E05  25363069.055 1 133283814.654 1     -1750.923          46.000    25363064.064 1 102126545.086 2     -1341.813          44.000  
G20  24440931.615 1 128437958.418 2       424.773          40.000                                                                  
E24  25267753.790 1 132782951.804 2     -1275.009          41.000    25267747.406 1 101742748.437 3      -976.838          40.000  
G24  22660011.353 1 119079166.465 2      2523.365          43.000    22660004.265 4  92788928.80714      1966.592          40.000  
E25  25026119.097 1 131513153.714 2      1472.001          42.000                                                                  
C07                                                                  42510471.735 9               9      -658.037          13.000  
C11                                                                  26772897.977 8               7       356.540          27.000  
R24                                                                  24862513.873 8               7     -1061.463          27.000  
> 2021 03 11 09 01 54.0040000  0 31                     
G13  21633798.065 1 113686378.569 1     -1438.797          47.000                                                                  
G14  23115474.085 1 121472631.796 2     -2462.806          40.000    23115464.718 8  94653963.76314     -1919.467          40.000  
G15  21496462.100 1 112964666.510 2       415.087          44.000    21496448.348 9               9       327.094          38.000  
S23  39306367.758 1 206556355.986 2       184.222          43.000  
G28  22968064.793 1 120697993.453 2     -2149.069          42.000                                                                  
S36  39119723.278 1 205575530.496 1       184.895          45.000  
C20  24063955.249 1 125307328.128 1      -550.285          43.000                                                                  
C23  24367622.516 1 126888617.315 1     -1859.852          44.000                                                                  
C32  25730587.524 1 133985948.080 3     -3032.843          38.000                                                                  
C28  27200035.558 1 141637724.015 2      3147.021          38.000                                                                  
R15  23271259.011 1 124354552.952 2     -3164.974          43.000    23271256.142 2  96720177.803 2     -2462.038          41.000  
R09  22268933.456 2 118914861.74033      2781.709          41.000    22268926.439 1  92489304.539 2      2163.146          43.000  
R05  24164632.643 4 129173810.03334     -4361.419          41.000    24164633.351 2 100468549.950 3     -3392.156          38.000  
R06  20686334.451 8 110386244.18235     -1406.239          33.000                                                                  
R16  20418222.973 2 109070481.89023      -363.687          40.000    20418219.215 2  84832572.378 5      -282.266          36.000  
G17  23617129.787 1 124108851.632 3      1746.872          39.000    23617130.843 8  96708201.832 5      1361.092          36.000  
G19  24439861.808 1 128432325.072 2      3403.281          39.000                                                                  
E02  28614097.947 1 150368100.440 3      2925.492          36.000                                                                  
G05  26089676.220 2 137102155.65823     -3364.294          38.000    26089668.137 8               7     -2621.701          28.000  
G23  24325767.076 1 127832777.648 4       823.227          37.000    24325772.365 8  99609971.282 4       640.912          39.000  
C37  23033463.702 1 119941282.050 1       684.292          45.000                                                                  
C10  40297433.408 1 209839299.930 2      -617.249          39.000    40297417.427 1 162260997.267 3      -477.755          40.000  
R07  21986092.911 2 117693269.841 3      2787.903          38.000    21986082.965 2  91539157.372 4      2168.878          36.000  
E03  25169379.335 1 132266002.190 2      1074.007          42.000    25169375.851 1 101346642.916 2       823.362          46.000  
E05  25363402.437 1 133285565.975 1     -1751.826          46.000    25363397.379 1 102127886.993 2     -1341.945          44.000  
G20  24440850.925 1 128437534.220 2       423.553          39.000                                                                  
E24  25267996.655 1 132784227.000 2     -1275.659          40.000    25267989.801 1 101743725.535 3      -977.063          40.000  
G24  22659531.156 1 119076643.240 2      2523.164          44.000    22659525.063 4  92786962.672 3      1966.207          41.000  
E25  25025839.097 1 131511682.083 2      1471.352          41.000                                                                  
C11                                                                  26772809.357 8               9       356.050          27.000  
R24                                                                  24862767.914 8               9     -1061.909          28.000  
> 2021 03 11 09 01 55.0040000  0 32                     
G13  21634071.748 1 113687817.246 1     -1438.954          46.000                                                                  
G14  23115942.730 1 121475094.769 2     -2463.537          40.000    23115932.758 4  94655882.933 4     -1919.145          40.000  
G15  21496383.097 1 112964251.325 2       414.579          44.000    21496371.102 8  88024045.99715       323.365          40.000  
S23  39306332.568 1 206556171.207 2       184.644          41.000  
G28  22968473.722 1 120700142.081 2     -2148.940          41.000                                                                  
S36  39119688.128 1 205575345.180 1       185.338          44.000  
C20  24064060.919 1 125307878.539 1      -550.606          43.000                                                                  
C23  24367979.689 1 126890477.174 1     -1859.987          44.000                                                                  
C32  25731169.811 1 133988980.353 2     -3032.352          38.000                                                                  
C28  27199431.256 1 141634577.153 3      3147.099          38.000                                                                  
R15  23271851.278 1 124357717.848 2     -3165.392          43.000    23271848.419 2  96722639.346 2     -2461.520          41.000  
R09  22268412.333 2 118912080.10322      2781.198          42.000    22268405.674 1  92487141.013 2      2163.459          42.000  
R05  24165447.907 8 129178168.20623     -4361.583          41.000    24165449.497 2 100471941.980 3     -3391.609          38.000  
R06  20686598.273 8 110387651.51825     -1406.232          35.000                                                                  
R16  20418290.909 2 109070844.25832      -363.641          40.000    20418287.212 2  84832855.036 4      -282.755          35.000  
G17  23616797.461 1 124107105.246 3      1745.836          39.000    23616799.223 4  96706843.990 5      1360.770          38.000  
G19  24439214.286 1 128428921.946 3      3402.418          39.000                                                                  
E02  28613540.945 1 150365175.090 3      2925.167          36.000                                                                  
G05  26090316.756 2 137105519.548 3     -3363.720          39.000    26090307.788 9               8     -2620.298          29.000  
G23  24325610.415 1 127831955.040 3       822.333          37.000    24325614.854 4  99609326.285 4       640.292          40.000  
C37  23033332.207 1 119940597.653 1       684.120          45.000                                                                  
C10  40297551.877 1 209839917.206 2      -617.200          39.000    40297535.959 1 162261474.573 3      -477.244          39.000  
R07  21985572.699 4 117690491.34534      2787.213          38.000    21985562.359 2  91536988.949 4      2167.712          36.000  
E03  25169174.789 1 132264928.086 2      1073.615          41.000    25169171.292 1 101345819.902 2       822.676          46.000  
E05  25363735.795 1 133287317.474 1     -1751.740          45.000    25363730.769 1 102129229.071 2     -1342.202          45.000  
G20  24440770.738 2 128437116.48934       423.269          40.000                                                                  
E24  25268239.347 1 132785502.276 2     -1275.553          40.000    25268232.476 1 101744702.719 3      -977.262          40.000  
G24  22659051.055 1 119074120.143 2      2522.714          43.000    22659045.071 4  92785001.61914      1965.889          41.000  
E25  25025558.907 1 131510210.603 2      1471.182          41.000    25025557.181 9 100767548.45915      1127.243          46.000  
C07                                                                  42510793.038 9               9      -638.173          10.000  
C11                                                                  26772721.538 4               9       356.076          27.000  
R24                                                                  24863022.137 8               9     -1062.447          28.000  
> 2021 03 11 09 01 56.0040000  0 31                     
G13  21634345.668 1 113689256.477 1     -1439.302          46.000                                                                  
G14  23116411.459 1 121477558.096 3     -2463.586          39.000    23116402.038 4  94657801.43014     -1919.446          41.000  
G15  21496304.151 1 112963836.784 2       414.191          44.000    21496292.964 4  88023722.980 4       322.620          40.000  
S23  39306297.478 1 206555986.509 2       184.692          42.000  
G28  22968882.714 1 120702291.093 2     -2149.000          40.000                                                                  
S36  39119652.839 1 205575159.755 1       185.598          44.000  
C20  24064166.788 1 125308429.515 2      -550.977          43.000                                                                  
C23  24368337.021 1 126892337.233 1     -1859.992          44.000                                                                  
C32  25731752.140 1 133992012.865 3     -3032.157          38.000                                                                  
C28  27198826.898 1 141631430.333 3      3146.862          38.000                                                                  
R15  23272443.609 1 124360882.786 2     -3164.764          41.000    23272440.795 2  96725100.977 2     -2461.296          41.000  
R09  22267891.773 4 118909298.82634      2781.231          40.000    22267884.842 1  92484977.812 2      2163.139          43.000  
R05  24166263.724 4 129182529.59522     -4361.579          40.000    24166265.660 2 100475334.125 3     -3391.910          38.000  
R06  20686859.761 8 110389047.30435     -1407.721          31.000                                                                  
R16  20418360.085 4 109071213.65934      -364.281          39.000    20418355.375 2  84833138.009 4      -282.784          35.000  
G17  23616465.309 1 124105359.349 2      1745.895          39.000    23616465.259 8  96705476.575 4      1360.620          38.000  
G19  24438566.850 1 128425519.067 3      3402.814          39.000                                                                  
E02  28612984.215 1 150362249.852 3      2925.464          36.000                                                                  
G05  26090957.133 4 137108883.429 3     -3363.718          38.000    26090947.727 9               7     -2621.251          30.000  
G23  24325454.011 1 127831133.081 3       821.991          37.000    24325458.027 4  99608683.804 4       639.924          40.000  
C37  23033200.849 1 119939913.583 1       684.119          46.000                                                                  
C10  40297670.430 1 209840534.542 2      -617.208          39.000    40297654.514 1 162261951.938 3      -477.106          39.000  
R07  21985046.550 8 117687704.02224      2787.006          36.000    21985041.630 2  91534821.004 4      2167.804          36.000  
E03  25168970.422 1 132263854.354 2      1073.630          42.000    25168967.064 1 101344997.185 1       822.653          47.000  
E05  25364069.293 1 133289069.337 1     -1751.788          46.000    25364064.136 1 102130571.387 1     -1342.388          45.000  
G20  24440691.165 4 128436693.40523       423.014          40.000                                                                  
E24  25268482.064 1 132786777.804 2     -1275.223          40.000    25268475.160 1 101745680.064 3      -977.214          41.000  
G24  22658570.974 1 119071597.312 2      2522.689          43.000    22658564.961 4  92783034.795 4      1965.555          41.000  
E25  25025278.859 1 131508739.472 2      1471.074          41.000    25025277.347 4 100766421.217 2      1127.242          47.000  
C11                                                                  26772636.824 4               9       355.474          28.000  
R24                                                                  24863277.093 9               7     -1062.836          28.000  
> 2021 03 11 09 01 57.0040000  0 31                     
G13  21634619.602 1 113690696.165 2     -1440.163          45.000                                                                  
G14  23116880.295 1 121480021.698 4     -2464.309          39.000    23116869.891 4  94659717.13614     -1919.923          39.000  
G15  21496225.393 1 112963422.805 2       413.666          44.000    21496215.114 8  88023407.38615       322.177          39.000  
S23  39306262.213 1 206555801.713 2       184.662          40.000  
G28  22969291.676 1 120704440.374 2     -2149.623          40.000                                                                  
S36  39119617.487 1 205574974.240 2       185.465          45.000  
C20  24064272.566 1 125308981.023 2      -552.130          43.000                                                                  
C23  24368694.375 1 126894197.393 1     -1860.359          44.000                                                                  
C32  25732334.475 1 133995045.538 3     -3033.142          37.000                                                                  
C28  27198222.469 1 141628283.452 3      3146.566          38.000                                                                  
R15  23273035.882 2 124364047.782 2     -3165.211          42.000    23273032.938 1  96727562.671 2     -2461.911          41.000  
R09  22267369.615 4 118906510.85633      2780.659          41.000    22267364.190 1  92482814.816 2      2162.504          42.000  
R05  24167078.739 4 129186890.974 2     -4361.585          41.000    24167081.782 2 100478726.379 3     -3392.800          38.000  
R06  20687123.200 8 110390453.30625     -1409.001          32.000                                                                  
R16  20418427.075 8 109071571.94023      -364.732          39.000    20418423.529 2  84833421.342 4      -283.059          35.000  
G17  23616133.366 1 124103613.930 3      1745.043          39.000    23616132.774 8  96704115.514 5      1359.427          37.000  
G19  24437919.364 1 128422116.393 3      3402.534          40.000                                                                  
E02  28612427.494 1 150359324.653 3      2925.077          37.000                                                                  
G05  26091597.333 2 137112247.152 3     -3363.774          38.000    26091588.194 8               7     -2621.234          30.000  
G23  24325297.778 1 127830311.744 3       820.667          37.000    24325302.251 4  99608045.768 4       639.609          39.000  
C37  23033069.520 1 119939229.751 1       683.602          45.000                                                                  
C10  40297788.980 1 209841151.823 2      -617.499          39.000    40297773.103 1 162262429.266 3      -477.204          39.000  
R07  21984523.213 8 117684916.84014      2786.163          35.000    21984521.089 2  91532653.529 3      2167.603          37.000  
E03  25168766.074 1 132262781.000 2      1072.952          41.000    25168763.088 1 101344174.721 1       822.135          48.000  
E05  25364402.528 1 133290821.472 1     -1752.427          45.000    25364397.569 1 102131913.941 2     -1342.747          45.000  
G20  24440610.479 4 128436270.91323       422.272          40.000                                                                  
E24  25268724.663 1 132788053.558 2     -1276.146          40.000    25268718.094 1 101746657.577 3      -977.414          41.000  
G24  22658090.919 1 119069074.744 2      2522.081          43.000    22658083.596 4  92781064.10214      1965.385          41.000  
E25  25024998.831 1 131507268.591 2      1470.525          41.000    25024997.522 2 100765294.155 2      1126.812          47.000  
C11                                                                  26772558.816 4               7       354.833          29.000  
R24                                                                  24863532.919 9               7     -1063.951          29.000  
> 2021 03 11 09 01 58.0040000  0 31                     
G13  21634893.819 1 113692136.508 1     -1440.607          45.000                                                                  
G14  23117349.208 1 121482485.820 4     -2464.589          39.000    23117338.540 4  94661636.212 4     -1920.102          38.000  
G15  21496146.822 1 112963009.622 2       412.874          44.000    21496135.761 8               6       321.869          41.000  
S23  39306227.085 1 206555617.062 2       184.235          40.000  
G28  22969700.765 1 120706590.131 3     -2150.095          40.000                                                                  
S36  39119582.263 1 205574788.861 1       185.236          44.000  
C20  24064378.566 1 125309533.192 2      -552.447          43.000                                                                  
C23  24369051.712 1 126896057.870 1     -1860.729          44.000                                                                  
C32  25732916.968 1 133998078.504 3     -3033.210          37.000                                                                  
C28  27197618.256 1 141625136.777 3      3146.451          38.000                                                                  
R15  23273628.244 2 124367213.023 2     -3165.278          42.000    23273625.298 2  96730024.507 2     -2461.646          40.000  
R09  22266850.347 4 118903730.40523      2779.920          42.000    22266843.650 1  92480652.252 2      2161.889          41.000  
R05  24167894.172 4 129191252.724 2     -4361.989          40.000    24167897.974 2 100482118.862 4     -3392.500          38.000  
R06  20687387.666 8               6     -1409.432          31.000                                                                  
R16  20418496.037 4 109071936.91523      -365.444          40.000    20418491.746 2  84833705.208 5      -283.824          35.000  
G17  23615801.286 1 124101869.177 3      1744.443          39.000    23615800.596 8  96702754.923 5      1359.531          36.000  
G19  24437271.851 1 128418714.141 2      3402.000          39.000                                                                  
E02  28611870.919 1 150356399.702 4      2925.039          36.000                                                                  
G05  26092237.430 1 137115610.980 3     -3364.125          38.000    26092228.416 9               7     -2621.043          26.000  
G23  24325141.733 1 127829491.174 3       819.900          37.000    24325143.844 4  99607397.34914       639.208          38.000  
C37  23032938.311 1 119938546.393 1       682.944          45.000                                                                  
C10  40297907.566 1 209841769.316 2      -617.703          39.000    40297891.704 1 162262906.759 3      -477.739          39.000  
R07  21984001.162 8 117682131.011 4      2784.900          35.000    21984000.908 2  91530486.759 4      2166.602          37.000  
E03  25168561.826 1 132261708.156 2      1072.625          40.000    25168558.870 1 101343352.669 1       821.893          48.000  
E05  25364735.731 1 133292574.105 1     -1752.962          44.000    25364731.020 1 102133256.879 2     -1343.164          45.000  
G20  24440529.011 4 128435849.21823       421.063          40.000                                                                  
E24  25268967.439 1 132789329.701 2     -1276.623          39.000    25268960.829 1 101747635.420 2      -977.990          40.000  
G24  22657611.055 1 119066552.545 2      2522.008          42.000    22657604.649 4  92779102.802 4      1964.832          39.000  
E25  25024719.014 1 131505798.155 2      1470.001          41.000    25024717.861 1 100764167.462 1      1126.263          48.000  
C11                                                                  26772472.336 8               8       354.631          26.000  
R24                                                                  24863788.129 9               7     -1064.315          29.000  
> 2021 03 11 09 01 59.0040000  0 31                     
G13  21635167.946 1 113693577.519 1     -1441.358          45.000                                                                  
G14  23117818.368 1 121484950.392 4     -2464.851          40.000    23117807.917 4  94663558.704 4     -1921.147          39.000  
G15  21496068.352 1 112962597.185 2       412.008          44.000    21496058.399 8  88022765.04315       321.068          40.000  
S23  39306192.003 1 206555432.529 2       184.216          41.000  
G28  22970109.903 1 120708740.345 2     -2150.355          40.000                                                                  
S36  39119547.035 1 205574603.692 1       184.866          44.000  
C20  24064484.715 1 125310086.060 1      -553.074          43.000                                                                  
C23  24369409.011 1 126897918.662 1     -1860.938          44.000                                                                  
C32  25733499.534 1 134001111.787 3     -3033.741          37.000                                                                  
C28  27197014.026 1 141621990.278 3      3146.216          37.000                                                                  
R15  23274220.633 2 124370378.496 2     -3165.687          41.000    23274217.786 2  96732486.543 3     -2462.155          42.000  
R09  22266328.972 4 118900953.90134      2779.693          43.000    22266323.081 1  92478490.022 2      2162.086          43.000  
R05  24168710.577 4 129195614.809 2     -4362.353          40.000    24168714.095 2 100485511.553 4     -3392.983          37.000  
R06  20687651.197 8               6     -1410.509          31.000                                                                  
R16  20418565.753 4 109072302.519 2      -366.136          40.000    20418560.325 2  84833989.562 4      -284.698          34.000  
G17  23615469.392 1 124100125.086 2      1743.838          39.000    23615468.100 8               6      1358.363          36.000  
G19  24436624.544 1 128415312.308 2      3401.291          39.000                                                                  
E02  28611314.410 1 150353475.027 4      2924.895          36.000    28611309.496 9 115205886.63415      2240.947          40.000  
G05  26092877.410 1 137118974.835 3     -3363.751          39.000    26092868.814 9               7     -2621.305          27.000  
G23  24324985.726 1 127828671.350 3       819.604          38.000    24324988.917 4  99606762.568 4       638.256          40.000  
C37  23032807.259 1 119937863.433 1       682.776          46.000                                                                  
C10  40298026.213 1 209842386.944 2      -617.429          39.000                                                                  
R07  21983479.659 4 117679346.42124      2785.132          34.000    21983481.173 2  91528320.639 4      2165.698          37.000  
E03  25168357.589 1 132260635.846 2      1072.027          41.000    25168354.882 1 101342531.032 2       821.499          47.000  
E05  25365069.177 1 133294327.216 1     -1753.335          45.000    25365064.676 1 102134600.143 2     -1343.346          45.000  
G20  24440449.083 2 128435428.26123       420.242          40.000                                                                  
E24  25269210.491 1 132790606.227 2     -1276.930          39.000    25269203.821 1 101748613.516 2      -978.329          42.000  
G24  22657131.230 1 119064030.772 2      2521.532          42.000    22657122.999 4  92777130.770 4      1965.038          41.000  
E25  25024439.092 1 131504328.152 2      1469.909          41.000    25024437.887 1 100763041.089 1      1126.311          48.000  
C11                                                                  26772385.654 4               6       353.810          27.000  
R24                                                                  24864044.921 8               8     -1065.260          29.000  
> 2021 03 11 09 02 00.0040000  0 31                     
G13  21635442.247 1 113695019.117 2     -1442.030          45.000                                                                  
G14  23118287.382 1 121487415.414 3     -2465.590          40.000    23118278.585 8  94665485.460 4     -1920.531          38.000  
G15  21495989.931 1 112962185.495 2       411.276          43.000    21495980.191 8  88022445.29714       320.069          41.000  
S23  39306156.835 1 206555248.082 3       184.381          39.000  
G28  22970519.116 1 120710890.990 2     -2151.041          41.000                                                                  
S36  39119511.899 1 205574418.652 1       185.084          44.000  
C20  24064591.119 1 125310639.632 1      -554.029          43.000                                                                  
C23  24369766.484 1 126899779.685 1     -1861.327          44.000                                                                  
C32  25734081.965 1 134004145.349 3     -3034.031          37.000                                                                  
C28  27196409.735 1 141618843.881 3      3146.048          38.000                                                                  
R15  23274813.049 1 124373544.091 2     -3165.871          44.000    23274810.114 2  96734948.671 2     -2462.429          40.000  
R09  22265809.062 4 118898174.38522      2779.113          45.000    22265802.667 1  92476328.138 2      2161.660          44.000  
R05  24169527.676 4 129199977.109 2     -4362.554          41.000    24169530.193 2 100488904.452 4     -3392.802          36.000  
R06  20687911.112 9               6     -1411.650          31.000                                                                  
R16  20418634.969 4 109072668.724 2      -366.760          42.000    20418628.683 2  84834274.451 5      -285.175          35.000  
G17  23615137.661 1 124098381.577 3      1743.073          39.000    23615137.121 8  96700038.36515      1357.939          34.000  
G19  24435977.227 1 128411910.783 3      3401.323          40.000                                                                  
E02  28610757.576 1 150350550.499 3      2924.549          36.000    28610753.093 8 115203645.748 3      2240.991          42.000  
G05  26093517.452 1 137122338.740 3     -3364.023          39.000    26093507.254 8               6     -2620.969          32.000  
G23  24324830.020 1 127827852.310 2       818.636          41.000    24324832.613 4  99606122.335 4       637.772          41.000  
C37  23032676.190 1 119937180.889 1       682.312          45.000                                                                  
C10  40298144.890 1 209843004.739 2      -617.939          40.000    40298127.970 9 162263862.50535      -477.690          39.000  
R07  21982959.517 8 117676562.23524      2783.630          35.000    21982961.173 2  91526155.110 4      2165.173          38.000  
E03  25168153.622 1 132259564.037 2      1071.357          40.000    25168150.499 1 101341709.793 1       821.003          47.000  
E05  25365402.666 1 133296080.745 2     -1754.027          44.000    25365398.376 1 102135943.802 2     -1343.824          45.000  
G20  24440369.873 2 128435008.02022       419.833          42.000                                                                  
E24  25269453.462 1 132791883.045 2     -1277.276          39.000    25269446.556 1 101749591.906 3      -978.905          39.000  
G24  22656651.537 1 119061509.340 2      2521.239          44.000    22656644.098 4  92775170.02113      1964.259          43.000  
E25  25024159.277 1 131502858.571 2      1469.267          40.000    25024158.123 1 100761915.074 1      1125.776          48.000  
C11                                                                  26772295.484 4               7       352.926          33.000  
R24                                                                  24864303.259 8               9     -1066.571          28.000  
> 2021 03 11 09 02 01.0040000  0 30                     
G13  21635716.677 1 113696461.213 2     -1442.137          44.000                                                                  
G14  23118756.649 1 121489880.764 3     -2465.323          39.000    23118751.199 8  94667420.53415     -1921.393          38.000  
G15  21495911.766 1 112961774.397 2       410.950          42.000    21495901.421 4  88022124.955 3       319.973          41.000  
S23  39306121.719 1 206555063.628 3       184.521          39.000  
G28  22970928.436 1 120713041.942 2     -2150.985          41.000                                                                  
S36  39119476.751 1 205574233.569 2       184.875          43.000  
C20  24064697.342 1 125311193.706 1      -554.389          43.000                                                                  
C23  24370123.835 1 126901640.885 1     -1861.098          44.000                                                                  
C32  25734664.504 1 134007179.120 3     -3034.078          35.000                                                                  
C28  27195805.614 1 141615697.528 3      3146.119          38.000                                                                  
R15  23275405.472 2 124376709.782 2     -3165.576          41.000    23275402.660 2  96737410.875 3     -2462.233          40.000  
R09  22265286.929 4 118895395.21422      2779.000          42.000    22265282.334 1  92474166.564 1      2161.457          44.000  
R05  24170343.936 2 129204339.540 2     -4362.399          39.000    24170346.270 2 100492274.00433     -3393.339          37.000  
R16  20418704.174 8 109073052.41034      -366.818          39.000    20418697.265 4  84834559.665 5      -285.728          35.000  
G17  23614805.981 1 124096638.611 3      1742.500          39.000    23614807.003 9               9      1356.201          34.000  
G19  24435330.072 1 128408509.544 3      3401.109          39.000                                                                  
E02  28610201.055 2 150347621.14114      2923.921          38.000    28610196.049 2 115201404.989 2      2240.794          42.000  
G05  26094157.499 1 137125702.571 3     -3363.548          38.000    26094149.147 8               6     -2621.021          33.000  
G23  24324674.370 1 127827033.881 3       818.086          39.000    24324675.522 4  99605479.579 4       637.629          41.000  
C37  23032545.161 1 119936498.652 1       681.799          45.000                                                                  
C10  40298263.414 1 209843622.505 2      -618.057          40.000    40298247.869 9 162264340.20423      -477.175          39.000  
R07  21982440.375 4 117673778.148 4      2783.105          33.000    21982441.336 2  91523990.090 3      2165.045          38.000  
E03  25167949.618 1 132258492.577 2      1071.274          40.000    25167946.338 1 101340888.815 1       820.974          47.000  
E05  25365736.258 1 133297834.599 1     -1754.065          44.000    25365732.108 1 102137287.676 1     -1343.981          45.000  
G20  24440290.651 2 128434588.402 2       419.341          41.000                                                                  
E24  25269696.267 1 132793160.144 3     -1277.361          39.000    25269689.364 1 101750570.478 3      -978.721          38.000  
G24  22656171.905 1 119058988.183 2      2520.886          43.000    22656163.647 4  92773205.460 3      1964.490          44.000  
E25  25023879.639 1 131501389.282 2      1469.162          41.000    25023878.407 1 100760789.261 1      1125.646          48.000  
C11                                                                  26772210.512 4               6       352.841          34.000  
R24                                                                  24864560.094 9               8     -1065.532          27.000  
> 2021 03 11 09 02 02.0040000  0 31                     
G13  21635991.169 1 113697903.917 2     -1443.012          45.000                                                                  
G14  23119225.922 1 121492346.515 3     -2465.895          40.000    23119215.787 8  94669323.863 4     -1921.395          40.000  
G15  21495833.669 1 112961363.984 2       410.215          43.000    21495822.779 4  88021800.12614       319.388          39.000  
S23  39306086.566 1 206554879.242 2       184.454          41.000  
G28  22971337.779 1 120715193.267 2     -2151.617          40.000                                                                  
S36  39119441.549 1 205574048.477 2       185.235          43.000  
C20  24064803.751 1 125311748.363 1      -554.993          43.000                                                                  
C23  24370481.307 1 126903502.305 1     -1861.637          44.000                                                                  
C32  25735247.068 1 134010213.084 4     -3034.065          35.000                                                                  
C28  27195201.491 1 141612551.266 3      3146.420          38.000                                                                  
R15  23275997.849 2 124379875.627 2     -3166.076          41.000    23275995.187 2  96739873.223 2     -2462.485          41.000  
R09  22264766.206 4 118892616.42522      2778.706          42.000    22264762.122 1  92472005.315 2      2161.316          43.000  
R05  24171160.191 2 129208702.186 2     -4362.743          42.000    24171162.495 2 100495667.10324     -3393.158          35.000  
R06  20688443.801 8               6     -1413.121          30.000                                                                  
R16  20418773.182 4 109073419.64223      -367.333          39.000    20418765.967 2  84834845.245 5      -286.296          36.000  
G17  23614474.430 1 124094896.200 3      1742.077          38.000    23614474.344 8               6      1357.580          37.000  
G19  24434682.878 1 128405108.631 3      3400.603          39.000                                                                  
E02  28609644.452 4 150344696.929 3      2924.257          36.000    28609639.337 2 115199164.409 2      2240.298          41.000  
G05  26094797.632 1 137129066.378 3     -3363.602          38.000    26094788.578 8               8     -2620.469          30.000  
G23  24324518.886 1 127826216.171 3       816.927          40.000    24324521.154 4  99604847.385 4       636.893          40.000  
C37  23032414.225 1 119935816.746 1       681.454          45.000                                                                  
C10  40298382.120 1 209844240.342 2      -618.183          40.000    40298366.336 8 162264817.98423      -477.970          40.000  
R07  21981920.514 4 117670995.280 5      2782.245          34.000    21981921.648 2  91521825.633 3      2164.368          37.000  
E03  25167745.735 1 132257421.596 2      1070.737          40.000    25167742.619 1 101340068.184 1       820.342          46.000  
E05  25366070.306 1 133299588.873 2     -1754.463          44.000    25366066.139 1 102138631.809 2     -1344.344          44.000  
G20  24440210.807 1 128434169.486 2       418.294          42.000                                                                  
E24  25269939.279 1 132794437.509 3     -1277.556          39.000    25269932.492 1 101751549.202 2      -978.866          40.000  
G24  22655692.246 1 119056467.308 1      2520.673          43.000    22655684.934 8  92771242.17415      1964.249          42.000  
E25  25023600.121 1 131499920.354 2      1468.737          41.000    25023598.895 1 100759663.709 1      1125.408          46.000  
C11                                                                  26772123.747 4               7       351.783          30.000  
R24                                                                  24864813.850 9               7     -1067.075          29.000  
> 2021 03 11 09 02 03.0040000  0 31                     
G13  21636265.701 1 113699347.004 2     -1443.498          45.000                                                                  
G14  23119695.214 1 121494812.522 3     -2466.344          40.000    23119684.510 8  94671242.442 4     -1922.148          39.000  
G15  21495755.664 1 112960954.101 2       409.456          43.000    21495746.131 4  88021486.737 4       319.140          39.000  
S23  39306051.451 1 206554694.744 2       184.247          39.000  
G28  22971747.233 1 120717344.834 2     -2151.722          40.000                                                                  
S36  39119406.376 1 205573863.299 1       185.184          44.000  
C20  24064910.308 1 125312303.495 1      -555.574          44.000                                                                  
C23  24370838.690 1 126905363.800 1     -1861.610          44.000                                                                  
C32  25735829.804 1 134013247.167 4     -3034.044          34.000                                                                  
C28  27194597.319 1 141609404.918 2      3146.386          38.000                                                                  
R15  23276590.268 2 124383041.445 2     -3165.663          40.000    23276587.605 2  96742335.523 2     -2462.322          41.000  
R09  22264246.024 2 118889830.91032      2778.228          42.000    22264241.834 1  92469844.246 2      2160.838          44.000  
R05  24171976.544 2 129213064.856 2     -4362.824          40.000    24171978.694 2 100499059.77814     -3393.493          36.000  
R06  20688708.460 8               6     -1413.736          31.000                                                                  
R16  20418842.024 2 109073787.25422      -367.912          39.000    20418834.659 2  84835131.135 5      -286.239          35.000  
G17  23614142.971 1 124093154.200 3      1741.646          39.000    23614140.379 8  96695957.03515      1357.271          35.000  
G19  24434035.830 1 128401707.834 3      3400.630          38.000                                                                  
E02  28609089.007 4 150341772.727 3      2924.177          37.000    28609083.233 1 115196922.75214      2240.544          41.000  
G05  26095437.631 1 137132430.019 3     -3363.648          38.000    26095430.620 8               7     -2620.860          33.000  
G23  24324363.515 1 127825398.972 2       816.950          40.000    24324366.251 4  99604212.628 4       636.457          40.000  
C37  23032283.371 1 119935135.033 1       681.450          45.000                                                                  
C10  40298500.777 1 209844858.133 2      -618.136          39.000    40298485.324 2 162265295.69323      -477.681          40.000  
R07  21981400.762 2 117668212.958 5      2781.714          34.000    21981402.023 2  91519661.596 3      2163.788          36.000  
E03  25167542.032 1 132256350.889 2      1070.638          41.000    25167539.039 1 101339247.772 1       820.153          47.000  
E05  25366404.135 1 133301343.357 1     -1754.722          44.000    25366400.018 1 102139976.163 2     -1344.351          44.000  
G20  24440131.212 1 128433751.070 2       417.653          42.000                                                                  
E24  25270182.445 1 132795715.073 2     -1277.958          39.000    25270175.971 1 101752528.092 3      -979.046          41.000  
G24  22655212.510 1 119053946.594 2      2520.449          43.000    22655204.673 4  92769274.954 4      1964.060          42.000  
E25  25023320.674 1 131498451.632 2      1468.586          41.000    25023319.513 1 100758538.317 1      1125.281          48.000  
C11                                                                  26772035.776 4               6       352.491          31.000  
R24                                                                  24865068.007 8               7     -1067.980          30.000  
> 2021 03 11 09 02 04.0040000  0 31                     
G13  21636540.398 1 113700790.608 1     -1443.547          45.000                                                                  
G14  23120164.632 1 121497278.864 3     -2466.513          40.000    23120153.256 4  94673162.26414     -1921.858          40.000  
G15  21495677.752 1 112960544.848 2       409.145          44.000    21495668.168 4  88021166.835 4       319.166          41.000  
S23  39306016.319 1 206554510.225 2       184.760          40.000  
G28  22972156.717 1 120719496.715 2     -2152.107          41.000                                                                  
S36  39119371.137 1 205573678.102 2       185.300          44.000  
C20  24065017.014 1 125312859.179 1      -555.931          43.000                                                                  
C23  24371196.185 1 126907225.451 2     -1861.595          43.000                                                                  
C32  25736412.090 2 134016281.447 5     -3034.501          33.000                                                                  
C28  27193993.068 1 141606258.642 3      3146.279          36.000                                                                  
R15  23277182.669 2 124386207.346 2     -3165.658          40.000    23277180.099 2  96744797.881 2     -2462.231          42.000  
R09  22263725.444 2 118887052.74422      2778.259          43.000    22263721.634 1  92467683.447 2      2160.737          45.000  
R05  24172792.985 2 129217427.683 3     -4362.956          38.000    24172794.829 2 100502453.084 4     -3393.089          36.000  
R06  20688971.870 8               6     -1415.166          32.000                                                                  
R16  20418910.832 2 109074155.36522      -368.170          39.000    20418903.540 2  84835417.480 4      -286.759          36.000  
G17  23613811.597 1 124091412.719 3      1741.384          38.000    23613811.082 8  96694608.06015      1356.620          37.000  
G19  24433388.678 1 128398307.321 3      3400.655          39.000                                                                  
E02  28608530.795 4 150338843.60714      2924.315          36.000    28608526.956 1 115194682.207 3      2240.515          41.000  
G05  26096077.709 1 137135793.569 3     -3362.892          38.000    26096070.095 8               8     -2620.397          31.000  
G23  24324208.240 1 127824582.426 2       816.511          40.000    24324209.808 4  99603572.34314       636.311          41.000  
C37  23032152.484 1 119934453.638 1       681.417          45.000                                                                  
C10  40298619.441 1 209845475.953 2      -617.542          39.000    40298603.553 2 162265772.92713      -477.371          39.000  
R07  21980881.064 2 117665431.243 5      2781.824          32.000    21980882.488 2  91517498.097 4      2163.098          38.000  
E03  25167338.366 1 132255280.585 2      1070.303          41.000    25167335.390 1 101338427.677 1       820.039          47.000  
E05  25366737.967 1 133303098.184 1     -1754.713          45.000    25366734.020 1 102141320.777 1     -1344.581          45.000  
G20  24440051.695 1 128433333.299 2       417.847          42.000                                                                  
E24  25270425.673 1 132796992.828 2     -1277.701          40.000    25270419.183 1 101753507.168 2      -978.915          42.000  
G24  22654732.893 1 119051426.129 2      2520.679          44.000    22654724.463 4  92767308.969 4      1964.010          43.000  
E25  25023041.404 1 131496983.213 2      1468.330          42.000    25023040.001 1 100757413.178 1      1125.057          48.000  
C11                                                                  26771948.141 8               7       351.619          32.000  
R24                                                                  24865328.679 8               9     -1067.607          28.000  
> 2021 03 11 09 02 05.0040000  0 32                     
G13  21636815.228 1 113702234.655 1     -1444.316          46.000                                                                  
G14  23120634.064 1 121499745.463 2     -2466.858          41.000    23120622.254 4  94675082.278 4     -1922.175          40.000  
G15  21495599.943 1 112960136.157 2       408.361          44.000    21495589.990 4  88020847.379 4       318.029          41.000  
S23  39305981.159 1 206554325.598 2       184.619          41.000  
G28  22972566.216 1 120721648.841 2     -2152.346          43.000                                                                  
S36  39119335.852 1 205573492.758 2       185.479          45.000  
C20  24065123.837 1 125313415.349 1      -556.535          45.000                                                                  
C23  24371553.833 1 126909087.203 1     -1861.994          44.000                                                                  
C32  25736994.570 1 134019315.820 4     -3034.899          36.000                                                                  
C28  27193388.719 1 141603112.281 3      3146.276          38.000                                                                  
R15  23277775.040 2 124389373.230 2     -3165.620          42.000    23277772.620 2  96747260.254 2     -2462.238          42.000  
R09  22263205.314 2 118884273.35135      2777.551          45.000    22263201.520 1  92465522.847 2      2160.447          43.000  
R05  24173609.453 2 129221790.596 2     -4363.049          43.000    24173611.084 2 100505846.496 4     -3393.844          36.000  
R06  20689236.312 8               6     -1415.942          32.000                                                                  
R16  20418979.687 2 109074523.909 2      -368.720          41.000    20418972.579 2  84835704.133 4      -287.602          36.000  
G17  23613480.340 1 124089671.706 3      1740.618          38.000    23613478.100 8  96693244.43514      1356.332          37.000  
G19  24432741.662 1 128394906.991 3      3400.216          40.000                                                                  
E02  28607976.914 4 150335932.517 4      2923.965          36.000    28607970.504 1 115192441.669 2      2240.267          40.000  
G05  26096719.234 4 137139184.98334     -3363.489          38.000    26096709.762 8               7     -2620.793          31.000  
G23  24324052.958 1 127823766.436 3       815.680          41.000    24324054.224 4  99602935.556 4       635.201          40.000  
C37  23032021.610 1 119933772.487 1       680.767          46.000                                                                  
C10  40298738.054 1 209846093.729 2      -617.644          40.000    40298722.221 1 162266250.634 3      -477.519          40.000  
R07  21980361.531 2 117662650.272 4      2780.219          36.000    21980363.040 2  91515335.055 3      2162.915          38.000  
E03  25167134.557 1 132254210.608 3      1069.537          40.000    25167131.862 1 101337607.798 1       819.458          47.000  
E05  25367071.730 1 133304853.275 2     -1755.308          45.000    25367067.930 1 102142665.600 2     -1345.134          45.000  
G20  24439972.396 1 128432916.092 2       416.736          43.000                                                                  
E24  25270668.975 1 132798270.764 2     -1277.708          40.000    25270662.410 1 101754486.360 2      -979.122          42.000  
G24  22654253.390 1 119048905.915 2      2519.852          44.000    22654245.217 4  92765345.135 3      1963.572          42.000  
G30  25290155.353 1 132900663.21533     -2800.028          37.000                                                                  
E25  25022761.968 1 131495515.029 2      1467.998          42.000    25022760.656 1 100756288.192 1      1124.659          47.000  
C11                                                                  26771860.101 4               7       351.196          32.000  
R24                                                                  24865583.773 9               9     -1068.046          27.000  
> 2021 03 11 09 02 06.0040000  0 32                     
G13  21637090.078 1 113703679.223 1     -1445.289          44.000                                                                  
G14  23121103.616 1 121502212.396 3     -2467.113          40.000    23121092.116 4  94677006.579 4     -1922.396          40.000  
G15  21495522.207 1 112959728.095 2       407.563          43.000    21495510.835 4  88020523.40614       317.442          40.000  
S23  39305945.965 1 206554140.977 2       184.521          41.000  
G28  22972975.848 1 120723801.310 2     -2153.017          41.000                                                                  
S36  39119300.617 1 205573307.459 2       184.978          44.000  
C20  24065230.713 1 125313972.062 1      -557.188          45.000                                                                  
C23  24371911.195 1 126910949.114 1     -1861.984          43.000                                                                  
C32  25737577.386 1 134022350.340 4     -3034.951          35.000                                                                  
C28  27192784.389 1 141599965.992 3      3145.940          38.000                                                                  
R15  23278367.417 2 124392539.242 3     -3166.402          41.000    23278365.112 1  96749722.704 2     -2462.716          41.000  
R09  22262685.049 2 118881495.79023      2777.169          45.000    22262681.478 1  92463362.513 2      2160.115          43.000  
R05  24174426.003 2 129226153.690 2     -4363.625          42.000    24174426.559 8 100509238.00935     -3394.083          35.000  
R06  20689501.809 9               6     -1416.523          33.000                                                                  
R16  20419048.624 2 109074892.949 2      -369.355          41.000    20419041.633 2  84835991.099 4      -286.653          36.000  
G17  23613149.034 1 124087931.171 3      1740.330          38.000    23613145.474 8  96691883.170 5      1356.019          35.000  
G19  24432094.566 1 128391506.963 3      3399.027          38.000                                                                  
E02  28607420.196 4 150333008.526 3      2923.820          36.000    28607414.000 1 115190201.186 3      2240.518          40.000  
G05  26097359.193 4 137142548.30023     -3363.115          38.000    26097350.003 9               7     -2621.917          31.000  
G23  24323897.849 1 127822951.115 2       814.549          40.000    24323898.099 4  99602296.20414       635.213          40.000  
C37  23031891.027 1 119933091.601 1       680.600          45.000                                                                  
C10  40298856.698 1 209846711.524 2      -618.014          39.000    40298840.796 1 162266728.371 3      -477.691          40.000  
R07  21979842.138 2 117659869.904 4      2779.956          37.000    21979843.701 2  91513172.560 3      2162.134          37.000  
E03  25166931.114 1 132253140.986 2      1069.320          40.000    25166928.443 1 101336788.221 1       819.407          48.000  
E05  25367405.558 1 133306608.695 1     -1755.681          44.000    25367402.061 1 102144010.659 2     -1345.249          45.000  
G20  24439893.065 1 128432499.511 2       415.861          41.000                                                                  
E24  25270912.245 1 132799548.970 2     -1278.507          39.000    25270905.529 1 101755465.764 2      -979.496          41.000  
G24  22653773.890 1 119046385.922 2      2519.747          43.000    22653763.844 4  92763375.49614      1963.317          41.000  
G30  25290688.009 1 132903462.60723     -2799.521          37.000                                                                  
E25  25022482.536 1 131494047.144 2      1467.649          41.000    25022481.194 1 100755163.457 1      1124.507          48.000  
C11                                                                  26771773.549 8               6       351.754          32.000  
R24                                                                  24865837.617 8               8     -1068.452          28.000  
> 2021 03 11 09 02 07.0040000  0 31                     
G13  21637364.954 1 113705124.374 1     -1445.320          44.000                                                                  
G14  23121573.137 1 121504679.757 2     -2467.115          40.000    23121562.309 4  94678932.22314     -1922.825          39.000  
G15  21495444.760 1 112959320.756 1       407.059          43.000    21495433.405 4  88020205.995 3       317.197          41.000  
S23  39305910.881 1 206553956.523 2       184.503          40.000  
G28  22973385.523 1 120725954.143 2     -2152.548          42.000                                                                  
S36  39119265.414 1 205573122.235 2       185.570          44.000  
C20  24065337.786 1 125314529.415 1      -557.370          44.000                                                                  
C23  24372268.933 1 126912811.274 1     -1862.105          43.000                                                                  
C32  25738160.243 1 134025385.216 5     -3034.711          34.000                                                                  
C28  27192180.140 1 141596819.797 3      3146.273          37.000                                                                  
R15  23278959.736 2 124395705.393 2     -3165.965          40.000    23278957.671 2  96752185.246 2     -2462.346          39.000  
R09  22262165.012 1 118878718.71722      2776.952          43.000    22262161.530 1  92461202.594 2      2159.796          43.000  
R05  24175242.504 2 129230517.021 2     -4363.339          38.000    24175244.321 8 100512638.67024     -3393.662          35.000  
R06  20689766.961 8 110404560.31635     -1417.255          32.000                                                                  
R16  20419117.725 2 109075262.574 2      -369.529          38.000    20419110.986 2  84836278.631 4      -287.580          35.000  
G17  23612817.994 1 124086191.268 2      1739.799          38.000    23612812.865 8  96690527.377 5      1355.649          35.000  
G19  24431447.668 1 128388107.241 2      3399.442          38.000                                                                  
E02  28606862.177 4 150330084.782 3      2923.768          36.000    28606857.144 1 115187960.925 3      2240.248          41.000  
G05  26097999.225 4 137145911.701 3     -3363.117          38.000    26097989.433 8               7     -2619.626          31.000  
G23  24323742.926 1 127822136.510 2       814.560          41.000    24323743.255 4  99601662.421 4       634.605          40.000  
C37  23031760.390 1 119932411.111 1       680.609          45.000                                                                  
C10  40298975.465 1 209847329.416 2      -617.858          40.000    40298959.437 1 162267206.148 3      -477.430          40.000  
R07  21979322.892 2 117657090.306 4      2779.926          34.000    21979324.398 2  91511010.644 3      2161.939          36.000  
E03  25166727.725 1 132252071.871 2      1069.140          40.000    25166725.028 1 101335969.042 1       819.182          48.000  
E05  25367739.876 1 133308364.568 2     -1755.741          44.000    25367736.382 1 102145356.039 1     -1345.359          45.000  
G20  24439813.849 1 128432083.648 2       415.734          42.000                                                                  
E24  25271155.615 1 132800827.485 3     -1278.469          40.000    25271148.866 1 101756445.419 2      -979.797          41.000  
G24  22653294.367 1 119043866.246 2      2519.808          43.000    22653284.934 4  92761414.130 4      1963.298          43.000  
G30  25291220.779 1 132906262.19123     -2799.309          37.000                                                                  
E25  25022203.034 1 131492579.681 2      1467.607          42.000    25022202.049 1 100754039.029 1      1124.445          48.000  
C11                                                                  26771685.798 4               7       351.169          32.000  
> 2021 03 11 09 02 08.0040000  0 31                     
G13  21637640.035 1 113706569.823 2     -1445.809          44.000                                                                  
G14  23122042.755 1 121507147.283 3     -2467.655          41.000    23122032.484 8  94680856.943 5     -1923.250          39.000  
G15  21495367.276 1 112958913.802 2       406.658          44.000    21495356.298 4  88019888.902 3       317.029          40.000  
G28  22973795.236 1 120728107.157 2     -2153.105          42.000                                                                  
S36  39119230.192 1 205572936.814 2       185.157          44.000  
C20  24065444.920 1 125315087.126 2      -558.093          43.000                                                                  
C23  24372626.495 1 126914673.414 2     -1862.114          43.000                                                                  
C32  25738742.860 1 134028420.051 4     -3035.413          35.000                                                                  
C28  27191576.007 1 141593673.444 3      3146.559          37.000                                                                  
R15  23279552.206 2 124398871.370 2     -3165.746          40.000    23279550.244 2  96754647.699 2     -2462.495          41.000  
R09  22261645.029 1 118875941.77622      2776.584          43.000    22261641.646 1  92459042.761 1      2159.560          45.000  
R05  24176059.035 2 129234880.300 3     -4363.644          40.000    24176060.050 8 100516032.34224     -3393.991          35.000  
R06  20690033.032 8               6     -1418.413          31.000                                                                  
R16  20419186.806 2 109075632.453 3      -370.391          39.000    20419180.087 2  84836566.293 4      -287.781          36.000  
G17  23612486.915 1 124084451.651 3      1739.464          39.000    23612482.676 8  96689168.77815      1356.194          35.000  
G19  24430800.656 1 128384707.587 3      3399.216          39.000                                                                  
E02  28606305.387 4 150327148.91015      2923.979          37.000    28606300.998 1 115185720.547 2      2240.407          41.000  
G05  26098639.084 4 137149273.74533     -3362.902          38.000    26098630.662 8               8     -2619.200          29.000  
G23  24323588.199 1 127821322.321 2       813.945          40.000    24323588.504 4  99601028.026 4       633.975          40.000  
C37  23031629.776 1 119931730.735 1       680.173          45.000                                                                  
C10  40299094.150 1 209847947.147 2      -617.954          39.000    40299078.030 1 162267683.831 3      -477.652          39.000  
R07  21978803.304 4 117654254.72635      2778.516          33.000    21978805.290 2  91508849.143 3      2161.346          37.000  
E03  25166524.359 1 132251002.915 3      1068.755          39.000    25166521.530 1 101335149.977 1       818.943          47.000  
E05  25368074.136 1 133310120.560 2     -1756.240          45.000    25368070.468 1 102146701.550 1     -1345.633          45.000  
G20  24439734.802 1 128431668.190 2       415.187          42.000                                                                  
E24  25271398.949 1 132802106.054 2     -1278.735          41.000    25271391.889 1 101757425.105 2      -979.869          40.000  
G24  22652814.897 1 119041346.640 2      2519.570          43.000    22652806.707 4  92759455.815 4      1963.468          42.000  
G30  25291753.481 1 132909061.663 3     -2799.448          38.000                                                                  
E25  25021923.609 1 131491112.284 2      1467.207          41.000    25021922.712 1 100752914.678 1      1124.284          47.000  
C11                                                                  26771598.595 8               7       349.346          33.000  
R17                                                                  23752074.974 9               7      1380.027          29.000  
> 2021 03 11 09 02 09.0040000  0 31                     
G13  21637915.061 1 113708015.824 1     -1446.303          44.000                                                                  
G14  23122512.474 1 121509615.163 2     -2468.257          40.000    23122500.615 4  94682773.948 4     -1923.069          39.000  
G15  21495290.009 1 112958507.538 2       405.693          44.000    21495279.553 4  88019576.34614       316.383          39.000  
G28  22974204.954 1 120730260.502 2     -2153.558          41.000                                                                  
S36  39119194.977 1 205572751.368 2       185.382          44.000  
C20  24065552.136 1 125315645.399 1      -558.662          44.000                                                                  
C23  24372984.349 1 126916535.735 1     -1862.329          44.000                                                                  
C32  25739325.726 1 134031455.055 4     -3035.597          35.000                                                                  
C28  27190971.751 1 141590527.147 3      3146.063          38.000                                                                  
R15  23280144.563 2 124402037.496 2     -3166.330          40.000    23280142.620 2  96757110.225 2     -2462.401          41.000  
R09  22261125.021 1 118873165.205 2      2776.390          43.000    22261121.796 1  92456883.234 1      2159.521          44.000  
R05  24176875.602 2 129239243.705 3     -4363.546          40.000    24176879.050 8 100519435.14834     -3394.221          36.000  
R06  20690294.892 8               6     -1418.249          30.000                                                                  
R16  20419256.043 2 109076002.835 3      -370.789          39.000    20419249.384 2  84836854.359 4      -287.996          36.000  
G17  23612156.061 1 124082712.582 3      1739.107          38.000    23612150.834 8  96687809.670 5      1355.296          34.000  
G19  24430153.790 1 128381308.216 3      3399.288          39.000                                                                  
E02  28605749.250 4 150324226.166 5      2923.248          35.000    28605744.540 1 115183480.282 2      2240.141          42.000  
G05  26099278.995 2 137152636.78023     -3363.054          38.000    26099268.386 8               7     -2620.328          30.000  
G23  24323433.447 1 127820508.818 2       813.180          39.000    24323434.191 4  99600394.122 4       633.738          39.000  
C37  23031498.982 1 119931050.679 1       679.887          45.000                                                                  
C10  40299212.714 1 209848564.935 2      -617.741          39.000    40299196.651 1 162268161.529 3      -477.477          40.000  
R07  21978287.013 4 117651476.35825      2778.381          34.000    21978286.189 2  91506688.181 3      2161.005          37.000  
E03  25166320.879 1 132249934.376 2      1068.566          40.000    25166318.250 1 101334331.235 1       818.628          47.000  
E05  25368408.356 1 133311876.894 2     -1756.552          44.000    25368404.785 1 102148047.322 2     -1345.855          44.000  
G20  24439655.802 1 128431253.399 2       414.550          41.000                                                                  
E24  25271642.237 1 132803384.890 2     -1278.961          40.000    25271635.202 1 101758404.980 3      -980.032          39.000  
G24  22652335.378 1 119038827.318 2      2519.176          43.000    22652326.545 4  92757489.75014      1962.756          41.000  
G30  25292286.281 1 132911861.265 3     -2799.964          37.000                                                                  
E25  25021644.196 1 131489645.232 2      1466.750          40.000    25021643.504 1 100751790.582 1      1124.030          47.000  
C11                                                                  26771513.322 8               7       349.687          31.000  
R17                                                                  23751737.874 9               7      1381.782          31.000  
> 2021 03 11 09 02 10.0040000  0 31                     
G13  21638190.240 1 113709462.211 2     -1446.539          44.000                                                                  
G14  23122982.195 1 121512083.247 2     -2468.150          41.000    23122969.172 4  94684693.12714     -1923.306          39.000  
G15  21495212.740 1 112958101.755 2       405.573          44.000    21495202.586 8               6       315.893          41.000  
G28  22974614.714 1 120732414.036 2     -2153.702          42.000                                                                  
S36  39119159.717 1 205572565.776 2       185.493          43.000  
C20  24065659.368 1 125316204.117 1      -558.915          44.000                                                                  
C23  24373341.997 1 126918398.100 1     -1862.303          43.000                                                                  
C32  25739908.733 1 134034490.130 4     -3035.365          34.000                                                                  
C28  27190367.469 1 141587380.764 2      3146.254          38.000                                                                  
R15  23280736.989 2 124405203.543 2     -3165.988          43.000    23280735.078 2  96759572.714 2     -2462.570          40.000  
R09  22260605.092 1 118870388.880 2      2776.230          45.000    22260601.938 1  92454723.843 2      2159.261          44.000  
R05  24177692.133 2 129243607.144 2     -4363.536          41.000    24177695.687 8 100522828.96124     -3393.822          35.000  
R06  20690562.697 8               7     -1419.250          32.000                                                                  
R16  20419325.293 2 109076373.562 3      -370.749          40.000    20419318.832 2  84837142.699 4      -287.901          34.000  
G17  23611825.261 1 124080973.917 3      1738.377          39.000    23611819.311 8               6      1353.632          34.000  
G19  24429506.846 1 128377908.992 3      3399.046          39.000                                                                  
E02  28605193.242 4 150321302.385 4      2923.804          35.000    28605187.949 1 115181239.983 3      2240.480          41.000  
G05  26099918.450 4 137155999.61123     -3362.769          38.000    26099908.121 9               7     -2621.671          31.000  
G23  24323278.711 1 127819695.846 2       812.559          40.000    24323278.499 4  99599758.61914       633.452          39.000  
C37  23031368.485 1 119930370.800 1       680.010          45.000                                                                  
C10  40299331.192 1 209849182.600 2      -617.485          39.000    40299315.233 1 162268639.145 3      -477.258          40.000  
E03  25166117.535 1 132248866.124 2      1068.355          39.000    25166114.903 1 101333512.708 1       818.428          47.000  
E05  25368742.415 1 133313633.454 1     -1756.707          43.000    25368739.221 1 102149393.275 2     -1346.072          44.000  
G20  24439576.864 1 128430839.113 2       414.066          41.000                                                                  
E24  25271885.633 1 132804663.839 2     -1279.263          40.000    25271878.544 1 101759384.967 3      -980.215          39.000  
G24  22651856.075 1 119036308.138 2      2519.241          44.000    22651846.510 4  92755524.732 4      1962.985          43.000  
G30  25292819.150 1 132914660.792 3     -2799.635          39.000                                                                  
E25  25021364.693 1 131488178.387 2      1466.667          40.000    25021364.524 1 100750666.613 1      1124.008          48.000  
C11                                                                  26771425.543 4               8       350.725          32.000  
R17                                                                  23751400.325 9               6      1380.812          32.000  
R07                                                                  21977767.305 2  91504527.618 3      2160.468          37.000  
> 2021 03 11 09 02 11.0040000  0 31                     
G13  21638465.517 1 113710909.097 1     -1447.563          43.000                                                                  
G14  23123451.966 1 121514551.653 2     -2468.802          40.000    23123440.432 4  94686622.601 5     -1924.179          39.000  
G15  21495135.597 1 112957696.601 2       404.402          43.000    21495123.418 4  88018936.46114       314.949          41.000  
G28  22975024.509 1 120734567.871 2     -2154.251          41.000                                                                  
S36  39119124.552 1 205572380.165 2       185.290          43.000  
C20  24065766.678 1 125316763.390 2      -559.908          43.000                                                                  
C23  24373699.728 1 126920260.612 1     -1862.865          44.000                                                                  
C32  25740491.842 1 134037525.372 4     -3035.781          35.000                                                                  
C28  27189763.182 1 141584234.376 3      3146.221          38.000                                                                  
R15  23281329.415 2 124408369.676 2     -3166.297          42.000    23281327.679 2  96762035.282 3     -2463.258          38.000  
R09  22260085.239 1 118867612.862 2      2775.555          45.000    22260082.228 1  92452564.713 2      2158.786          46.000  
R05  24178508.647 2 129247970.745 3     -4363.881          42.000    24178510.833 4 100526219.90734     -3394.021          36.000  
R06  20690828.655 9               6     -1420.274          33.000                                                                  
R16  20419394.647 2 109076744.79323      -371.828          39.000    20419388.329 2  84837431.438 4      -288.865          36.000  
G17  23611494.536 1 124079235.743 2      1737.822          39.000    23611487.021 8               8      1353.677          31.000  
G19  24428860.036 1 128374509.992 2      3398.624          39.000                                                                  
E02  28604636.033 4 150318378.700 4      2922.944          36.000    28604631.642 1 115178999.737 2      2240.003          42.000  
G05  26100557.154 4 137159352.87335     -3363.257          39.000    26100547.783 8               6     -2619.598          34.000  
G23  24323124.208 1 127818883.479 2       811.560          40.000    24323126.843 4  99599137.613 4       632.462          39.000  
C37  23031237.947 1 119929691.221 1       679.060          45.000                                                                  
C10  40299449.813 1 209849800.305 2      -617.991          40.000    40299433.909 1 162269116.814 3      -478.009          39.000  
R07  21977264.415 9               6      2776.721          34.000    21977248.426 2  91502367.565 3      2159.332          37.000  
E03  25165914.360 1 132247798.244 2      1067.619          40.000    25165911.450 1 101332694.466 2       817.784          47.000  
E05  25369076.502 1 133315390.327 2     -1757.161          43.000    25369073.499 1 102150739.461 2     -1346.409          46.000  
G20  24439498.003 1 128430425.427 2       413.359          41.000                                                                  
E24  25272128.777 1 132805942.997 2     -1279.576          39.000    25272122.076 1 101760365.136 3      -980.183          39.000  
G24  22651376.701 1 119033789.212 2      2518.541          44.000    22651367.558 4  92753561.928 3      1962.206          43.000  
G30  25293351.902 1 132917460.378 3     -2799.686          38.000                                                                  
E25  25021085.559 1 131486711.789 2      1466.221          40.000    25021085.386 1 100749542.874 1      1123.426          49.000  
C11                                                                  26771339.942 4               8       348.750          28.000  
R17                                                                  23751067.302 9               6      1379.461          32.000  
> 2021 03 11 09 02 12.0040000  0 32                     
G13  21638740.975 1 113712356.527 1     -1447.590          43.000                                                                  
G14  23123921.791 1 121517020.429 2     -2468.497          40.000    23123910.413 8  94688547.30814     -1923.997          37.000  
G15  21495058.581 1 112957292.082 2       404.438          43.000    21495046.899 4  88018623.25814       315.200          40.000  
G28  22975434.495 1 120736722.072 2     -2154.189          41.000                                                                  
S36  39119089.321 1 205572194.551 2       185.573          43.000  
C20  24065874.245 1 125317323.215 1      -559.873          44.000                                                                  
C23  24374057.446 1 126922123.324 1     -1862.565          44.000                                                                  
C32  25741074.862 1 134040560.855 4     -3035.615          34.000                                                                  
C28  27189158.961 1 141581088.094 2      3146.517          38.000                                                                  
R15  23281921.932 2 124411535.923 2     -3166.147          41.000    23281920.304 2  96764497.926 3     -2462.825          38.000  
R09  22259565.366 1 118864837.247 2      2775.739          43.000    22259562.522 1  92450405.897 1      2158.921          45.000  
R05  24179325.209 2 129252334.525 3     -4363.650          39.000    24179326.531 4 100529613.95823     -3394.622          37.000  
R06  20691094.881 8 110411646.29935     -1421.069          31.000                                                                  
R16  20419464.128 2 109077116.52023      -371.614          38.000    20419457.847 2  84837720.597 3      -289.156          37.000  
G17  23611163.921 1 124077498.144 2      1737.418          38.000    23611156.944 8  96683740.45215      1353.630          33.000  
G19  24428213.317 1 128371111.287 3      3399.151          39.000                                                                  
E02  28604081.097 4 150315455.172 3      2923.330          36.000    28604075.318 1 115176759.638 2      2240.018          42.000  
G05  26101198.501 4 137162715.57723     -3362.713          38.000    26101184.425 8               6     -2619.431          33.000  
G23  24322969.741 1 127818071.779 2       811.459          39.000    24322972.571 4  99598506.145 4       632.368          39.000  
C37  23031107.352 1 119929011.947 1       679.484          45.000                                                                  
C10  40299568.431 1 209850418.064 2      -617.499          40.000    40299553.956 2 162269603.98234      -477.415          38.000  
R07  21976742.061 9               6      2776.312          32.000    21976729.894 2  91500208.066 3      2159.637          37.000  
E03  25165711.157 1 132246730.793 2      1067.266          39.000    25165708.297 1 101331876.549 1       817.891          47.000  
E05  25369410.754 1 133317147.590 2     -1757.504          42.000    25369408.091 1 102152085.941 2     -1346.550          46.000  
G20  24439419.364 1 128430012.421 2       413.172          41.000                                                                  
E24  25272371.985 1 132807222.446 3     -1279.480          39.000    25272365.695 1 101761345.502 2      -980.137          41.000  
G24  22650897.383 1 119031270.593 2      2518.722          43.000    22650887.643 4  92751598.37114      1962.516          42.000  
G30  25293884.735 1 132920260.127 3     -2799.811          38.000                                                                  
E25  25020806.454 1 131485245.570 2      1466.013          40.000    25020806.449 1 100748419.399 1      1123.464          49.000  
C11                                                                  26771251.947 4               7       348.940          32.000  
R17                                                                  23750736.616 8               6      1379.682          32.000  
R18                                                                  24915646.799 9               7      3067.609          26.000  
> 2021 03 11 09 02 13.0040000  0 32                     
G13  21639016.619 1 113713804.625 1     -1448.519          43.000                                                                  
G14  23124391.766 1 121519489.737 2     -2469.351          41.000    23124382.731 4  94690481.445 4     -1924.525          38.000  
G15  21494981.712 1 112956888.366 2       403.666          44.000    21494970.843 4  88018311.683 4       314.458          42.000  
G28  22975844.528 1 120738876.761 2     -2154.985          41.000                                                                  
S36  39119054.116 1 205572009.129 2       185.580          43.000  
C20  24065981.901 1 125317883.770 1      -560.649          43.000                                                                  
C23  24374415.326 1 126923986.365 1     -1862.955          43.000                                                                  
C32  25741657.841 1 134043596.660 4     -3035.607          34.000                                                                  
C28  27188554.781 1 141577941.983 3      3146.151          38.000                                                                  
R15  23282514.460 2 124414702.434 2     -3166.253          40.000    23282512.921 2  96766960.752 3     -2462.741          37.000  
R09  22259045.635 1 118862062.164 2      2774.949          43.000    22259042.867 1  92448247.513 1      2158.329          45.000  
R05  24180141.725 2 129256698.586 3     -4363.729          39.000    24180142.910 4 100533008.219 3     -3393.836          37.000  
R06  20691360.232 8               6     -1421.496          32.000                                                                  
R16  20419533.765 2 109077488.906 3      -372.386          37.000    20419527.564 2  84838010.225 4      -289.608          37.000  
G17  23610833.466 1 124075761.193 3      1736.894          39.000    23610824.282 9               7      1353.575          31.000  
G19  24427566.699 1 128367713.045 3      3397.926          39.000                                                                  
E02  28603524.224 4 150312531.882 3      2923.291          36.000    28603519.012 1 115174519.735 2      2239.585          42.000  
G05  26101839.220 4 137166077.84912     -3362.342          38.000    26101823.688 8               6     -2619.468          34.000  
G23  24322815.562 1 127817260.900 2       810.601          38.000    24322818.017 4  99597873.287 4       631.563          39.000  
C37  23030977.205 1 119928333.175 1       678.607          45.000                                                                  
C10  40299687.014 1 209851035.991 2      -618.089          40.000    40299672.981 2 162270081.84123      -478.199          37.000  
R07  21976219.228 9               6      2775.079          32.000    21976211.354 2  91498049.299 4      2158.582          37.000  
E03  25165508.002 1 132245663.885 2      1066.981          40.000    25165505.138 1 101331059.044 1       817.471          46.000  
E05  25369745.204 1 133318905.328 2     -1757.646          43.000    25369742.495 1 102153432.770 1     -1346.828          46.000  
G20  24439340.899 1 128429600.205 2       411.988          40.000                                                                  
E24  25272615.393 1 132808502.313 2     -1280.076          39.000    25272609.184 1 101762326.182 2      -980.418          40.000  
G24  22650418.224 1 119028752.426 2      2518.257          43.000    22650408.566 4  92749636.174 3      1961.854          43.000  
G30  25294417.684 1 132923060.096 3     -2800.016          38.000                                                                  
E25  25020527.609 1 131483779.777 3      1465.839          40.000    25020527.520 1 100747296.291 1      1122.993          49.000  
C11                                                                  26771165.560 8               7       348.468          32.000  
R17                                                                  23750405.512 8               6      1378.904          32.000  
R18                                                                  24914907.937 9               9      3067.551          25.000  
> 2021 03 11 09 02 14.0040000  0 32                     
G13  21639292.267 1 113715253.220 2     -1448.965          43.000                                                                  
G14  23124861.795 1 121521959.353 2     -2469.741          41.000    23124852.915 4  94692405.834 4     -1924.905          37.000  
G15  21494904.958 1 112956485.277 2       402.888          43.000    21494894.468 4  88017997.572 3       313.919          42.000  
G28  22976254.568 1 120741031.789 2     -2155.228          41.000                                                                  
S36  39119018.835 1 205571823.687 2       185.666          42.000  
C20  24066089.628 1 125318444.878 1      -561.418          44.000                                                                  
C23  24374773.185 1 126925849.570 2     -1863.390          44.000                                                                  
C32  25742240.969 2 134046632.629 5     -3035.571          34.000                                                                  
C28  27187950.602 1 141574795.901 3      3146.176          38.000                                                                  
R15  23283106.998 2 124417869.006 2     -3166.691          40.000    23283105.709 2  96769423.667 3     -2463.456          35.000  
R09  22258526.067 1 118859287.406 2      2774.494          43.000    22258523.222 1  92446089.359 1      2158.348          45.000  
R05  24180958.257 2 129261062.820 3     -4364.272          39.000    24180959.357 2 100536402.647 3     -3395.084          37.000  
R06  20691626.630 8 110414484.19535     -1423.270          31.000                                                                  
R16  20419603.421 2 109077861.780 3      -373.193          37.000    20419597.461 2  84838300.212 3      -290.112          36.000  
G17  23610503.081 1 124074024.746 2      1736.432          39.000    23610495.444 8               8      1352.052          31.000  
G19  24426920.143 1 128364315.010 3      3397.898          39.000                                                                  
E02  28602966.316 4 150309608.721 3      2923.107          36.000    28602962.731 1 115172279.891 2      2240.088          42.000  
G05  26102477.475 4 137169440.544 3     -3362.361          38.000    26102463.722 8               6     -2619.653          32.000  
G23  24322661.555 1 127816450.647 3       809.989          38.000    24322665.055 4  99597246.90514       631.464          39.000  
C37  23030846.871 1 119927654.651 1       678.527          45.000                                                                  
C10  40299805.665 1 209851653.932 2      -617.695          40.000    40299791.858 4 162270559.64823      -477.822          37.000  
R07  21975698.185 8 117637689.78235      2774.670          32.000    21975692.721 2  91495890.972 4      2158.069          36.000  
E03  25165305.169 1 132244597.360 2      1066.322          40.000    25165302.116 1 101330241.828 1       817.121          46.000  
E05  25370079.694 1 133320663.404 2     -1758.177          42.000    25370077.139 1 102154779.868 2     -1347.032          46.000  
G20  24439262.600 1 128429188.601 2       411.328          41.000                                                                  
E24  25272858.803 1 132809782.401 3     -1280.318          39.000    25272852.775 1 101763307.032 3      -980.758          39.000  
G24  22649939.161 1 119026234.492 2      2517.815          43.000    22649928.505 4  92747670.12414      1962.135          43.000  
G30  25294950.552 1 132925860.112 3     -2800.018          38.000                                                                  
E25  25020248.757 1 131482314.316 2      1465.415          40.000    25020248.688 1 100746173.384 1      1122.905          49.000  
C11                                                                  26771080.265 4               8       348.105          32.000  
R17                                                                  23750074.365 4               6      1377.858          33.000  
R18                                                                  24914167.844 9               9      3064.744          25.000  
> 2021 03 11 09 02 15.0040000  0 32                     
G13  21639567.941 1 113716702.320 2     -1449.429          43.000                                                                  
G14  23125331.796 1 121524429.315 2     -2470.421          40.000    23125323.684 8  94694334.44214     -1924.593          37.000  
G15  21494828.372 1 112956082.798 2       402.052          43.000    21494817.534 4  88017683.962 3       313.015          41.000  
G28  22976664.772 1 120743187.092 2     -2155.349          41.000                                                                  
S36  39118983.496 1 205571638.251 2       185.229          42.000  
C20  24066197.505 1 125319006.511 1      -561.969          44.000                                                                  
C23  24375131.014 1 126927712.919 1     -1863.404          44.000                                                                  
C32  25742824.121 2 134049668.799 5     -3035.710          35.000                                                                  
C28  27187346.306 1 141571649.837 3      3146.356          38.000                                                                  
R15  23283699.521 2 124421035.637 2     -3166.943          41.000    23283698.360 2  96771886.579 4     -2463.266          37.000  
R09  22258006.488 1 118856512.990 1      2774.246          43.000    22258003.796 1  92443931.492 1      2157.632          45.000  
R05  24181774.586 2 129265427.176 3     -4364.771          39.000    24181775.811 2 100539797.122 3     -3394.688          37.000  
R06  20691892.814 8               6     -1423.397          32.000                                                                  
R16  20419673.132 2 109078235.120 3      -373.841          37.000    20419667.514 2  84838590.625 4      -291.085          36.000  
G17  23610172.784 1 124072288.816 2      1735.664          39.000    23610165.429 8               7      1352.944          32.000  
G19  24426273.656 1 128360917.258 3      3397.511          40.000                                                                  
E02  28602410.148 4 150306685.635 4      2923.290          36.000    28602406.443 1 115170040.136 2      2239.703          42.000  
G05  26103116.871 2 137172803.144 3     -3362.250          38.000    26103101.967 8               6     -2620.928          32.000  
G23  24322507.506 1 127815641.039 2       808.978          39.000    24322512.070 8  99596620.05914       630.203          40.000  
C37  23030716.598 1 119926976.422 1       678.258          45.000                                                                  
C10  40299924.314 1 209852271.898 2      -618.015          40.000    40299910.062 2 162271037.01714      -477.936          37.000  
R07  21975178.492 8 117634915.52925      2773.285          33.000    21975174.382 2  91493733.197 4      2157.635          37.000  
E03  25165102.281 1 132243531.218 2      1065.550          39.000    25165099.290 1 101329424.915 1       816.713          47.000  
E05  25370413.929 1 133322421.809 2     -1758.714          42.000    25370411.782 1 102156127.216 1     -1347.509          46.000  
G20  24439184.419 1 128428777.621 2       410.229          40.000                                                                  
E24  25273102.188 1 132811062.734 3     -1280.725          38.000    25273096.457 1 101764288.066 3      -981.237          39.000  
G24  22649459.989 1 119023716.783 2      2517.461          43.000    22649450.293 4  92745708.288 2      1961.650          43.000  
G30  25295483.494 1 132928660.221 3     -2800.089          39.000                                                                  
E25  25019969.937 1 131480849.129 2      1465.103          40.000    25019969.942 1 100745050.720 1      1122.466          49.000  
C11                                                                  26770994.705 8               7       347.218          30.000  
R17                                                                  23749743.351 4  98847524.24635      1377.836          32.000  
R18                                                                  24913427.118 9               8      3066.706          26.000  
> 2021 03 11 09 02 16.0040000  0 32                     
G13  21639843.706 1 113718152.010 2     -1450.235          44.000                                                                  
G14  23125801.894 1 121526899.669 3     -2470.705          41.000    23125792.220 8  94696252.415 4     -1925.471          37.000  
G15  21494751.940 1 112955681.003 1       401.347          44.000    21494742.559 4  88017376.88514       312.639          41.000  
G28  22977074.850 1 120745342.831 2     -2156.171          41.000                                                                  
S36  39118948.261 1 205571452.852 2       185.162          43.000  
C20  24066305.389 1 125319568.769 1      -562.574          44.000                                                                  
C23  24375488.957 1 126929576.497 1     -1863.772          43.000                                                                  
C32  25743407.303 2 134052705.245 5     -3036.698          35.000                                                                  
C28  27186742.140 1 141568503.889 3      3145.701          38.000                                                                  
R15  23284292.165 2 124424202.416 2     -3166.840          43.000    23284291.004 2  96774349.664 5     -2463.807          36.000  
R09  22257486.909 1 118853739.041 1      2773.518          45.000    22257484.307 1  92441773.974 1      2157.241          45.000  
R05  24182591.238 2 129269791.769 3     -4364.991          40.000    24182592.398 2 100543191.801 3     -3395.025          37.000  
R06  20692161.167 8 110417335.96635     -1425.658          33.000                                                                  
R16  20419743.030 2 109078609.063 3      -374.851          39.000    20419737.629 2  84838881.427 4      -290.646          37.000  
G17  23609842.662 1 124070553.470 2      1734.946          41.000    23609834.661 8               7      1352.189          31.000  
G19  24425627.230 1 128357519.821 2      3397.081          40.000                                                                  
E02  28601853.659 2 150303762.745 3      2922.543          36.000    28601850.058 1 115167800.507 2      2239.458          42.000  
G05  26103757.396 2 137176165.771 3     -3362.804          38.000    26103745.521 8               6     -2619.414          32.000  
G23  24322353.554 1 127814832.126 3       808.154          39.000    24322358.769 4  99595989.716 4       629.829          39.000  
C37  23030586.418 1 119926298.586 1       677.386          45.000                                                                  
C10  40300042.881 1 209852889.944 2      -618.066          40.000    40300027.995 2 162271514.910 4      -477.981          37.000  
R07  21974658.732 8 117632141.95125      2773.590          35.000    21974656.282 2  91491575.988 4      2157.233          37.000  
E03  25164899.530 1 132242465.508 2      1065.476          39.000    25164896.292 1 101328608.345 1       816.296          46.000  
E05  25370748.452 1 133324180.605 2     -1758.956          42.000    25370746.558 1 102157474.867 1     -1347.883          46.000  
G20  24439106.374 1 128428367.324 2       409.756          42.000                                                                  
E24  25273345.870 1 132812343.349 2     -1280.834          39.000    25273340.186 1 101765269.324 2      -981.465          40.000  
G24  22648980.910 1 119021199.398 2      2517.321          44.000    22648969.998 4  92743746.693 3      1961.387          42.000  
G30  25296016.412 1 132931460.484 3     -2800.272          39.000                                                                  
E25  25019691.163 1 131479384.330 2      1464.536          40.000    25019691.142 1 100743928.338 1      1122.083          49.000  
C11                                                                  26770909.972 4               7       346.786          30.000  
R17                                                                  23749412.514 4  98846146.61625      1377.115          32.000  
R18                                                                  24912688.379 9               9      3066.919          25.000  
> 2021 03 11 09 02 17.0040000  0 32                     
G13  21640119.660 1 113719602.226 1     -1450.890          44.000                                                                  
G14  23126272.035 1 121529370.368 3     -2470.856          41.000    23126262.279 8  94698177.64214     -1925.823          37.000  
G15  21494675.594 1 112955279.863 1       400.592          43.000    21494665.986 4  88017063.290 4       312.410          41.000  
G28  22977485.124 1 120747498.865 2     -2156.342          41.000                                                                  
S36  39118913.024 1 205571267.430 2       184.920          43.000  
C20  24066413.504 1 125320131.593 1      -563.298          44.000                                                                  
C23  24375846.845 1 126931440.273 1     -1864.110          44.000                                                                  
C32  25743990.718 1 134055741.850 4     -3036.809          35.000                                                                  
C28  27186138.020 1 141565357.985 2      3145.687          38.000                                                                  
R15  23284884.839 2 124427369.307 2     -3167.464          41.000    23284883.592 2  96776812.777 4     -2463.358          36.000  
R09  22256967.553 1 118850965.452 2      2772.995          43.000    22256964.945 1  92439616.741 1      2156.790          45.000  
R05  24183407.764 2 129274156.489 3     -4364.897          38.000    24183408.917 2 100546586.588 4     -3395.021          37.000  
R06  20692427.464 8               6     -1426.025          32.000                                                                  
R16  20419813.040 2 109078983.468 3      -374.981          37.000    20419807.714 2  84839172.659 3      -291.593          37.000  
G17  23609512.589 1 124068818.650 2      1734.209          41.000    23609506.050 8               7      1351.950          31.000  
G19  24424980.878 1 128354122.676 2      3396.403          40.000                                                                  
E02  28601297.483 1 150300839.946 3      2922.765          36.000    28601293.932 1 115165560.980 2      2239.234          42.000  
G05  26104397.121 2 137179528.304 3     -3363.021          38.000    26104386.054 8 106893096.28315     -2620.535          33.000  
G23  24322199.753 1 127814023.863 3       807.709          38.000    24322205.222 8  99595363.92114       629.384          39.000  
C37  23030456.276 1 119925621.051 1       677.042          45.000                                                                  
C10  40300161.505 1 209853508.058 2      -618.841          40.000    40300146.763 4 162271991.37235      -478.355          38.000  
R07  21974140.942 4 117629369.180 4      2772.205          33.000    21974138.425 2  91489419.369 4      2156.519          36.000  
E03  25164696.733 1 132241400.237 3      1064.617          40.000    25164693.594 1 101327792.085 1       815.906          47.000  
E05  25371083.230 1 133325939.765 2     -1759.708          43.000    25371081.312 1 102158822.799 2     -1348.241          46.000  
G20  24439028.375 1 128427957.670 2       409.393          40.000                                                                  
E24  25273589.552 1 132813624.256 2     -1281.237          39.000    25273584.082 1 101766250.794 3      -981.593          40.000  
G24  22648501.916 1 119018682.299 2      2516.595          43.000    22648488.258 9  92741773.30714      1961.073          42.000  
G30  25296549.323 1 132934260.856 3     -2800.813          38.000                                                                  
E25  25019412.601 1 131477919.865 2      1463.943          40.000    25019412.463 1 100742806.204 1      1121.791          49.000  
C11                                                                  26770824.594 4               7       347.452          32.000  
R17                                                                  23749081.783 4               6      1376.586          31.000  
R18                                                                  24911951.186 9               9      3065.409          24.000  
> 2021 03 11 09 02 18.0040000  0 32                     
G13  21640395.744 1 113721052.797 1     -1450.880          43.000                                                                  
G14  23126742.305 1 121531841.268 2     -2471.194          41.000    23126733.025 8  94700105.011 5     -1925.757          37.000  
G15  21494599.332 1 112954879.206 1       400.191          43.000    21494589.663 4  88016751.098 3       311.856          41.000  
G28  22977895.480 1 120749655.086 2     -2156.145          41.000                                                                  
S36  39118877.788 1 205571081.798 2       185.432          43.000  
C20  24066521.646 1 125320694.826 1      -563.667          44.000                                                                  
C23  24376204.834 1 126933304.054 1     -1863.955          43.000                                                                  
C32  25744573.868 1 134058778.522 4     -3036.598          35.000                                                                  
C28  27185533.926 1 141562211.973 2      3145.690          38.000                                                                  
R15  23285477.414 2 124430536.101 2     -3167.072          41.000    23285476.033 2  96779275.842 4     -2462.980          36.000  
R09  22256448.159 1 118848192.031 2      2773.223          43.000    22256445.565 1  92437459.636 1      2156.829          45.000  
R05  24184224.332 2 129278521.242 2     -4365.027          37.000    24184225.506 2 100549981.384 3     -3395.183          37.000  
R06  20692695.491 8 110420187.58335     -1427.061          32.000                                                                  
R16  20419882.925 2 109079358.234 3      -375.481          37.000    20419877.828 2  84839464.103 4      -291.119          37.000  
G17  23609182.520 1 124067084.194 2      1734.175          41.000    23609176.275 9               7      1352.092          31.000  
G19  24424334.511 1 128350725.627 3      3396.755          40.000                                                                  
E02  28600741.354 1 150297917.138 3      2922.827          37.000    28600737.824 1 115163321.424 2      2239.486          41.000  
G05  26105036.787 1 137182890.616 3     -3362.532          38.000    26105023.258 8 106895706.240 5     -2619.485          33.000  
G23  24322045.976 1 127813216.124 3       807.113          38.000    24322050.320 4  99594734.481 3       629.390          39.000  
C37  23030326.317 1 119924943.676 1       677.065          45.000                                                                  
C10  40300280.259 1 209854126.011 2      -617.927          40.000    40300265.825 2 162272469.22523      -477.750          37.000  
R07  21973623.106 4 117626596.927 5      2771.344          33.000    21973620.543 2  91487263.180 4      2155.731          35.000  
E03  25164494.190 1 132240335.195 2      1064.617          40.000    25164490.973 1 101326976.017 1       815.802          46.000  
E05  25371417.833 1 133327699.107 2     -1759.533          43.000    25371416.103 1 102160170.874 1     -1348.325          46.000  
G20  24438950.487 1 128427548.503 2       409.048          40.000                                                                  
E24  25273833.336 1 132814905.247 3     -1281.351          39.000    25273827.795 1 101767232.340 2      -981.743          39.000  
G24  22648022.959 1 119016165.300 2      2516.586          43.000    22648011.780 9  92739812.004 3      1961.268          42.000  
G30  25297082.251 1 132937061.156 3     -2800.571          39.000                                                                  
E25  25019133.973 1 131476455.535 2      1463.890          40.000    25019133.854 1 100741684.191 1      1121.761          49.000  
C11                                                                  26770738.910 4               6       345.617          31.000  
R17                                                                  23748751.130 4               6      1376.285          32.000  
R18                                                                  24911212.846 9               9      3066.365          25.000  
> 2021 03 11 09 02 19.0040000  0 32                     
G13  21640671.874 1 113722504.054 2     -1451.459          44.000                                                                  
G14  23127212.650 1 121534312.687 2     -2471.570          42.000    23127203.373 4  94702030.779 4     -1925.722          36.000  
G15  21494523.332 1 112954479.319 2       399.931          44.000    21494514.146 4  88016441.50614       311.230          41.000  
G28  22978305.876 1 120751811.829 2     -2156.859          42.000                                                                  
S36  39118842.562 1 205570896.325 2       185.657          44.000  
C20  24066629.852 1 125321258.768 1      -564.071          44.000                                                                  
C23  24376562.894 1 126935168.169 2     -1864.004          44.000                                                                  
C32  25745157.135 1 134061815.535 4     -3036.765          36.000                                                                  
C28  27184929.760 1 141559066.158 3      3145.795          39.000                                                                  
R15  23286070.160 2 124433703.120 2     -3166.916          41.000    23286068.585 2  96781739.112 4     -2463.487          35.000  
R09  22255928.809 1 118845419.141 2      2773.075          44.000    22255926.234 1  92435302.949 1      2156.673          45.000  
R05  24185040.904 2 129282886.288 2     -4364.610          38.000    24185042.170 2 100553376.419 3     -3394.545          37.000  
R06  20692961.211 8 110421605.50535     -1427.830          33.000                                                                  
R16  20419949.880 4 109079706.63834      -375.682          37.000    20419948.143 2  84839756.101 4      -291.700          37.000  
R17  23748436.523 2 127082680.44032      1768.259          38.000    23748420.675 4               6      1375.848          32.000  
G17  23608852.747 1 124065350.446 2      1733.843          41.000    23608844.426 9               7      1351.029          27.000  
G19  24423688.228 1 128347329.016 3      3396.886          40.000                                                                  
E02  28600185.124 1 150294994.625 3      2922.117          37.000    28600181.681 1 115161082.079 2      2239.417          42.000  
G05  26105676.551 1 137186253.011 3     -3361.968          38.000    26105664.694 8               7     -2620.124          32.000  
G23  24321892.274 1 127812409.166 3       806.390          38.000    24321895.672 4  99594105.702 3       628.322          39.000  
C37  23030196.360 1 119924266.757 1       676.957          45.000                                                                  
C10  40300399.061 1 209854744.160 2      -617.775          40.000    40300385.054 2 162272950.20534      -477.466          37.000  
R07  21973105.438 2 117623825.475 4      2771.387          33.000    21973102.664 2  91485130.07334      2155.774          34.000  
E03  25164291.734 1 132239270.717 2      1064.453          40.000    25164288.434 1 101326160.372 1       815.679          47.000  
E05  25371752.676 1 133329458.960 2     -1759.886          43.000    25371751.041 1 102161519.333 1     -1348.506          47.000  
G20  24438872.744 1 128427140.149 2       408.229          41.000                                                                  
E24  25274077.163 1 132816186.678 3     -1281.671          39.000    25274071.582 1 101768214.190 3      -981.807          40.000  
G24  22647544.069 1 119013648.709 1      2516.659          44.000    22647532.122 9  92737851.038 3      1960.951          41.000  
G30  25297615.221 1 132939861.704 3     -2800.452          39.000                                                                  
E25  25018855.281 1 131474991.673 2      1464.058          40.000    25018855.313 1 100740562.542 1      1121.682          49.000  
C11                                                                  26770653.759 4               6       345.833          32.000  
R18                                                                  24910472.623 9               9      3066.055          25.000  
> 2021 03 11 09 02 20.0040000  0 32                     
G13  21640948.060 1 113723955.768 2     -1451.646          44.000                                                                  
G14  23127683.000 1 121536784.372 2     -2471.326          42.000    23127673.349 8  94703955.76714     -1925.586          37.000  
G15  21494447.376 1 112954080.034 2       399.092          44.000    21494437.959 4  88016129.363 4       311.035          41.000  
G28  22978716.375 1 120753968.805 2     -2156.911          42.000                                                                  
S36  39118807.413 1 205570710.787 2       185.854          43.000  
C20  24066738.185 1 125321823.217 2      -564.372          43.000                                                                  
C23  24376920.777 1 126937032.401 2     -1864.046          42.000                                                                  
C32  25745740.530 1 134064852.647 5     -3036.454          34.000                                                                  
C28  27184325.559 1 141555920.319 2      3145.835          37.000                                                                  
R15  23286662.782 2 124436870.163 2     -3166.549          41.000    23286661.199 2  96784202.361 4     -2463.122          35.000  
R09  22255409.539 1 118842646.556 2      2772.776          43.000    22255406.975 1  92433146.505 1      2156.497          45.000  
R05  24185857.622 2 129287251.452 2     -4365.164          39.000    24185858.950 2 100556771.596 3     -3395.498          37.000  
R06  20693227.635 8 110423027.70125     -1428.030          31.000                                                                  
R16  20420018.371 4 109080082.50123      -375.835          37.000    20420018.632 2  84840048.475 4      -292.438          37.000  
R17  23748105.801 2 127080912.29123      1767.996          39.000    23748093.042 8               6      1375.384          32.000  
G17  23608523.041 1 124063617.140 2      1733.392          41.000    23608515.554 8               7      1350.153          29.000  
G19  24423041.954 1 128343932.618 3      3396.476          40.000                                                                  
E02  28599629.144 1 150292072.108 3      2922.970          36.000    28599625.509 1 115158842.761 2      2239.480          41.000  
G05  26106316.357 1 137189615.310 3     -3362.522          38.000    26106302.368 9               7     -2619.975          30.000  
G23  24321738.806 1 127811602.762 3       806.526          38.000    24321741.345 8               6       628.291          38.000  
C37  23030066.403 1 119923590.100 1       676.506          43.000                                                                  
C10  40300517.754 1 209855362.317 3      -617.810          38.000    40300503.092 4 162273428.21224      -477.831          38.000  
R07  21972587.854 2 117621054.641 5      2770.404          33.000    21972584.989 2  91482974.98824      2154.974          35.000  
E03  25164089.426 1 132238206.565 2      1064.283          40.000    25164085.936 1 101325344.997 1       815.324          46.000  
E05  25372087.502 1 133331219.099 2     -1760.335          42.000    25372085.977 1 102162868.001 1     -1348.650          46.000  
G20  24438795.135 1 128426732.361 2       407.724          41.000                                                                  
E24  25274321.039 1 132817468.250 2     -1281.638          39.000    25274315.466 1 101769196.181 3      -981.883          40.000  
G24  22647065.353 1 119011132.342 2      2516.434          43.000    22647053.611 4  92735890.234 3      1961.062          42.000  
G30  25298148.065 1 132942662.287 3     -2800.460          39.000    25298161.703 9               7     -2182.141          34.000  
E25  25018576.827 1 131473528.102 2      1463.429          40.000    25018576.792 1 100739441.092 1      1121.483          49.000  
C11                                                                  26770568.284 4               6       344.558          33.000  
R18                                                                  24909733.760 9               9      3066.037          26.000  
> 2021 03 11 09 02 21.0040000  0 32                     
G13  21641224.293 1 113725407.937 2     -1452.793          44.000                                                                  
G14  23128153.329 1 121539256.347 2     -2472.353          42.000    23128142.783 8  94705877.97815     -1926.533          37.000  
G15  21494371.412 1 112953681.289 1       398.144          44.000    21494362.249 4  88015818.670 3       309.976          41.000  
G28  22979126.817 1 120756126.059 2     -2157.773          43.000                                                                  
S36  39118772.137 1 205570525.168 2       185.395          44.000  
C20  24066846.611 1 125322388.167 1      -565.449          46.000                                                                  
C23  24377278.782 1 126938896.737 2     -1864.720          45.000                                                                  
C32  25746323.839 1 134067889.932 4     -3037.756          37.000                                                                  
C28  27183721.352 1 141552774.461 3      3145.375          40.000                                                                  
R15  23287255.569 1 124440037.293 2     -3167.517          43.000    23287253.885 2  96786665.680 4     -2464.070          34.000  
R09  22254890.297 1 118839874.285 1      2771.731          45.000    22254887.822 1  92430990.290 1      2155.727          45.000  
R05  24186674.418 2 129291616.689 3     -4365.673          40.000    24186675.452 2 100560166.765 4     -3395.512          38.000  
R06  20693494.712 8 110424452.19125     -1429.053          35.000                                                                  
R16  20420086.963 4 109080458.847 3      -376.935          39.000    20420089.140 2  84840341.178 4      -293.024          37.000  
R17  23747775.223 2 127079144.80722      1766.742          41.000    23747762.795 8               6      1374.233          32.000  
G17  23608193.380 1 124061884.318 2      1732.213          41.000    23608187.164 8               7      1349.589          30.000  
G19  24422395.753 1 128340536.424 3      3395.810          40.000                                                                  
E02  28599072.997 1 150289149.664 3      2922.279          36.000    28599069.407 1 115156603.483 2      2239.104          41.000  
G05  26106956.060 1 137192977.446 3     -3362.611          39.000    26106941.945 8               6     -2620.346          32.000  
G23  24321585.498 1 127810797.015 3       805.280          37.000    24321589.378 8  99592842.48314       627.478          38.000  
C37  23029936.473 1 119922913.662 1       676.003          46.000                                                                  
C10  40300636.491 1 209855980.436 2      -618.311          42.000    40300622.595 2 162273907.16434      -478.046          37.000  
E03  25163886.752 1 132237142.745 3      1063.419          39.000    25163883.568 1 101324529.861 1       814.705          46.000  
E05  25372422.531 1 133332979.494 2     -1760.818          43.000    25372421.088 1 102164216.884 1     -1349.220          45.000  
G20  24438717.595 1 128426325.129 2       406.774          41.000                                                                  
E24  25274564.900 1 132818750.027 2     -1282.225          39.000    25274559.505 1 101770178.333 3      -982.553          39.000  
G24  22646586.615 1 119008616.203 2      2515.654          43.000    22646575.614 2  92733929.612 3      1960.147          42.000  
G30  25298680.987 1 132945462.885 3     -2800.961          39.000    25298689.691 9 103593904.39415     -2182.738          34.000  
E25  25018298.447 1 131472064.741 2      1463.015          40.000    25018298.259 1 100738319.817 1      1120.958          48.000  
C11                                                                  26770491.364 8               7       346.350          32.000  
R07                                                                  21972064.396 8  91480807.36335      2153.778          35.000  
R18                                                                  24908994.985 8               9      3065.765          26.000  
> 2021 03 11 09 02 22.0040000  0 32                     
G13  21641500.712 1 113726860.709 2     -1452.991          44.000                                                                  
G14  23128623.873 1 121541728.772 2     -2472.634          42.000    23128614.864 8  94707810.528 4     -1926.473          38.000  
G15  21494295.676 1 112953283.286 2       397.797          44.000    21494286.372 4  88015508.526 3       309.812          42.000  
G28  22979537.396 1 120758283.733 2     -2157.964          42.000                                                                  
S36  39118736.825 1 205570339.700 1       185.411          44.000  
C20  24066955.320 1 125322953.758 1      -565.753          46.000    24066913.265 9               9      -426.359          10.000  
C23  24377636.948 1 126940761.339 2     -1864.685          44.000                                                                  
C32  25746907.280 1 134070927.461 3     -3037.321          37.000                                                                  
C28  27183117.312 1 141549628.710 3      3146.099          41.000                                                                  
R15  23287848.319 1 124443204.560 2     -3167.300          44.000    23287846.561 2  96789129.113 4     -2463.831          35.000  
R09  22254371.176 1 118837102.432 2      2771.971          45.000    22254368.687 1  92428834.418 1      2155.771          45.000  
R05  24187491.242 2 129295982.207 3     -4365.816          40.000    24187492.166 2 100563562.155 3     -3395.287          38.000  
R06  20693763.445 8               6     -1429.375          32.000                                                                  
R16  20420157.737 4 109080835.733 3      -377.177          39.000    20420159.812 2  84840634.313 3      -293.163          37.000  
R17  23747444.800 2 127077378.17622      1766.243          41.000    23747430.930 8               7      1374.961          31.000  
G17  23607863.814 1 124060152.067 2      1732.331          42.000    23607854.002 9               7      1349.516          30.000  
G19  24421749.613 1 128337140.577 3      3395.950          40.000                                                                  
E02  28598516.826 1 150286227.415 3      2922.386          36.000    28598513.252 1 115154364.370 2      2239.007          42.000  
G05  26107595.678 1 137196339.593 3     -3361.648          38.000    26107582.056 8 106906183.98515     -2619.192          32.000  
G23  24321432.236 1 127809991.985 3       804.884          37.000    24321435.676 8  99592215.166 4       627.261          39.000  
C37  23029806.702 1 119922237.631 1       676.002          46.000                                                                  
C10  40300755.195 1 209856598.649 2      -617.803          41.000    40300741.104 2 162274384.24634      -478.152          39.000  
R07  21971554.151 9               6      2768.958          34.000    21971546.047 8  91478653.32124      2154.120          35.000  
E03  25163684.378 1 132236079.407 2      1063.290          40.000    25163681.266 1 101323715.102 1       814.679          46.000  
E05  25372757.616 1 133334740.343 2     -1761.071          42.000    25372756.288 1 102165566.101 1     -1349.327          46.000  
G20  24438640.252 1 128425918.617 2       406.306          40.000                                                                  
E24  25274808.899 1 132820032.140 2     -1282.146          39.000    25274802.709 1 101771156.72314      -982.337          40.000  
G24  22646107.862 1 119006100.395 2      2515.696          43.000    22646096.851 1  92731969.239 2      1960.315          42.000  
G30  25299214.023 1 132948263.674 2     -2800.769          39.000    25299220.906 9               6     -2182.380          35.000  
E25  25018019.935 1 131470601.808 2      1462.775          40.000    25018019.868 1 100737198.865 1      1120.833          49.000  
C11                                                                  26770400.438 8               7       344.655          33.000  
R18                                                                  24908256.938 9               9      3066.323          26.000  
> 2021 03 11 09 02 23.0040000  0 32                     
G13  21641777.140 1 113728313.884 2     -1453.773          43.000                                                                  
G14  23129094.432 1 121544201.420 2     -2473.183          41.000    23129084.886 8  94709735.268 4     -1926.936          38.000  
G15  21494220.062 1 112952885.802 2       396.768          43.000    21494210.346 4  88015198.798 2       309.139          42.000  
G28  22979948.047 1 120760441.626 2     -2158.473          42.000                                                                  
S36  39118701.473 1 205570154.160 1       185.265          43.000  
C20  24067063.890 1 125323519.789 1      -566.626          45.000                                                                  
C23  24377995.020 1 126942625.988 1     -1865.129          44.000                                                                  
C32  25747490.742 1 134073965.099 3     -3038.483          37.000                                                                  
C28  27182513.295 1 141546482.916 2      3145.282          39.000                                                                  
R15  23288441.013 2 124446371.787 2     -3167.569          41.000    23288439.304 2  96791592.493 5     -2463.602          35.000  
R09  22253852.179 1 118834330.848 2      2771.207          43.000    22253849.657 1  92426678.732 2      2155.407          44.000  
R05  24188308.006 2 129300347.751 3     -4365.634          38.000    24188308.864 2 100566957.584 3     -3395.772          38.000  
R06  20694032.693 8               6     -1431.290          32.000                                                                  
R16  20420228.083 4 109081212.96123      -377.599          37.000    20420230.455 2  84840927.716 3      -293.609          37.000  
R17  23747114.502 2 127075612.229 2      1764.981          39.000    23747101.952 8               7      1373.743          32.000  
G17  23607534.379 1 124058420.270 2      1731.222          41.000    23607522.285 8               7      1349.347          30.000  
G19  24421103.459 1 128333744.905 3      3395.142          39.000                                                                  
E02  28597960.362 1 150283305.152 4      2922.126          38.000    28597957.174 1 115152125.233 2      2239.074          42.000  
G05  26108235.392 1 137199701.590 3     -3362.201          37.000    26108222.128 8               6     -2619.714          32.000  
G23  24321278.851 1 127809187.467 3       803.757          37.000    24321283.493 4  99591589.28414       626.332          40.000  
C37  23029676.968 1 119921561.805 1       675.249          45.000                                                                  
C10  40300873.892 1 209857216.810 2      -618.552          40.000    40300859.277 2 162274862.21824      -478.230          38.000  
R07  21971036.754 9               6      2768.640          32.000    21971029.012 8  91476499.25715      2153.326          35.000  
E03  25163482.248 1 132235016.376 2      1062.542          40.000    25163478.978 1 101322900.563 1       814.172          46.000  
E05  25373092.536 1 133336501.405 2     -1761.596          43.000    25373091.392 1 102166915.490 2     -1349.675          47.000  
G20  24438562.933 1 128425512.639 2       405.312          40.000                                                                  
E24  25275052.809 1 132821314.379 3     -1282.521          39.000    25275047.217 1 101772139.235 3      -982.892          40.000  
G24  22645629.074 1 119003584.740 2      2515.261          43.000    22645618.395 1  92730008.995 2      1959.934          43.000  
G30  25299747.078 1 132951064.419 2     -2800.983          39.000    25299752.575 9               6     -2182.008          36.000  
E25  25017741.717 1 131469139.059 2      1462.247          40.000    25017741.541 1 100736078.059 1      1120.406          49.000  
C11                                                                  26770315.007 4               6       343.413          33.000  
R18                                                                  24907517.754 8               9      3065.144          26.000  
> 2021 03 11 09 02 24.0040000  0 33                     
G13  21642053.720 1 113729767.694 2     -1454.250          43.000                                                                  
G14  23129565.030 1 121546674.522 2     -2473.201          42.000    23129554.170 4  94711657.36714     -1927.435          37.000  
G15  21494144.548 1 112952489.064 2       396.097          43.000    21494136.312 4  88014889.640 3       309.061          41.000  
G28  22980358.662 1 120762599.936 2     -2158.433          41.000                                                                  
S36  39118666.211 1 205569968.666 1       185.236          43.000  
C20  24067172.665 1 125324086.498 2      -567.068          43.000                                                                  
C23  24378353.080 1 126944490.934 2     -1865.219          42.000                                                                  
C32  25748074.320 1 134077003.010 4     -3038.158          35.000                                                                  
C28  27181909.117 1 141543337.264 3      3145.581          37.000                                                                  
R15  23289033.745 1 124449539.223 2     -3167.638          41.000    23289032.036 4  96794056.046 4     -2463.723          34.000  
R09  22253333.171 1 118831559.744 2      2770.885          42.000    22253330.725 1  92424523.439 1      2155.014          45.000  
R05  24189124.796 2 129304713.584 3     -4365.942          38.000    24189125.654 2 100570353.210 3     -3395.667          38.000  
R06  20694302.031 8               6     -1431.393          33.000                                                                  
R16  20420298.307 4 109081590.78223      -378.124          37.000    20420301.152 2  84841221.607 3      -294.507          37.000  
R17  23746784.370 2 127073847.133 2      1764.845          40.000    23746772.811 8               6      1373.245          30.000  
G17  23607205.160 1 124056689.080 2      1731.144          41.000    23607191.730 8               6      1348.863          26.000  
G19  24420457.441 1 128330349.624 2      3395.191          40.000                                                                  
E02  28597404.481 1 150280383.162 3      2921.656          36.000    28597401.176 1 115149886.305 3      2238.832          42.000  
G05  26108875.182 1 137203063.622 3     -3362.381          37.000    26108864.059 8               6     -2619.814          33.000  
G23  24321125.910 1 127808383.702 3       803.491          37.000    24321131.332 4  99590962.987 3       625.999          39.000  
C37  23029547.192 1 119920886.385 1       675.051          43.000                                                                  
C10  40300992.494 1 209857835.095 3      -618.330          38.000    40300978.402 2 162275339.32933      -478.306          39.000  
R07  21970517.742 9               6      2767.700          32.000    21970513.322 9  91474348.83635      2152.222          35.000  
R24  24870512.684 2 132993806.91534     -1388.331          34.000                                                                  
E03  25163280.287 1 132233953.856 2      1061.917          40.000    25163276.711 1 101322086.414 1       813.807          47.000  
E05  25373427.808 1 133338262.931 2     -1761.888          43.000    25373426.613 1 102168265.234 1     -1350.019          47.000  
G20  24438485.821 1 128425107.408 2       404.749          40.000                                                                  
E24  25275296.976 1 132822596.994 2     -1282.760          39.000    25275291.628 1 101773122.013 3      -983.065          40.000  
G24  22645150.438 1 119001069.494 2      2514.984          43.000    22645139.962 1  92728049.061 2      1959.600          43.000  
G30  25300280.100 1 132953865.384 3     -2801.034          39.000    25300283.240 8 103600429.77015     -2182.734          35.000  
E25  25017463.374 1 131467676.730 2      1462.037          40.000    25017463.360 1 100734957.576 1      1120.284          49.000  
C11                                                                  26770227.182 4               6       342.917          33.000  
R18                                                                  24906777.189 9               9      3065.338          26.000  
> 2021 03 11 09 02 25.0040000  0 32                     
G13  21642330.401 1 113731221.946 1     -1454.646          43.000                                                                  
G14  23130035.761 1 121549147.903 2     -2473.605          41.000    23130026.315 8  94713590.682 4     -1927.731          37.000  
G15  21494069.254 1 112952092.889 2       395.822          43.000    21494060.892 4  88014585.95314       308.265          41.000  
G28  22980769.350 1 120764758.538 2     -2158.861          41.000                                                                  
S36  39118630.985 1 205569783.073 2       185.496          43.000  
C20  24067281.568 1 125324653.715 1      -567.549          44.000                                                                  
C23  24378711.336 1 126946355.990 2     -1865.406          42.000                                                                  
C32  25748657.938 1 134080041.051 3     -3038.250          35.000                                                                  
C28  27181305.127 1 141540191.598 3      3145.596          38.000                                                                  
R15  23289626.631 2 124452706.682 2     -3167.620          41.000    23289624.751 4  96796519.630 5     -2463.905          34.000  
R09  22252814.362 1 118828788.939 1      2770.758          42.000    22252811.916 1  92422368.364 1      2154.902          45.000  
R05  24189941.732 2 129309079.488 3     -4366.052          38.000    24189942.453 2 100573748.926 3     -3395.884          38.000  
R16  20420368.646 4 109081969.060 3      -378.307          37.000    20420371.924 2  84841515.821 4      -294.994          37.000  
R17  23746454.376 2 127072082.739 3      1763.911          40.000    23746444.728 8               6      1371.608          30.000  
G17  23606875.968 1 124054958.379 2      1730.257          41.000    23606862.209 9               7      1348.741          27.000  
G19  24419811.447 1 128326954.545 3      3394.994          39.000                                                                  
E02  28596848.511 1 150277461.171 4      2922.349          36.000    28596845.048 1 115147647.402 3      2238.715          41.000  
G05  26109514.875 1 137206425.503 3     -3362.074          37.000    26109503.986 8               7     -2619.665          32.000  
G23  24320972.958 1 127807580.538 3       802.975          36.000    24320977.902 4  99590337.130 3       625.971          38.000  
C37  23029417.512 1 119920211.204 1       674.850          44.000                                                                  
C10  40301111.198 1 209858453.369 2      -618.714          39.000    40301099.907 9               6      -477.820          38.000  
R07  21970000.597 8 117607145.09335      2766.333          32.000    21969996.674 8  91472198.37325      2151.978          35.000  
R24  24870772.401 2 132995195.57125     -1389.051          34.000                                                                  
E03  25163078.347 1 132232891.638 2      1062.096          40.000    25163074.593 1 101321272.524 1       813.644          47.000  
E05  25373763.019 1 133340024.742 2     -1762.080          42.000    25373761.936 1 102169615.191 2     -1350.139          46.000  
G20  24438408.795 1 128424702.745 2       404.207          40.000                                                                  
E24  25275540.999 1 132823879.807 2     -1282.891          39.000    25275535.544 1 101774104.947 3      -983.231          39.000  
G24  22644671.837 1 118998554.464 2      2514.718          43.000    22644661.553 1  92726089.300 3      1959.493          42.000  
G30  25300813.169 1 132956666.366 3     -2801.042          39.000    25300816.575 8 103602612.339 5     -2182.222          35.000  
E25  25017185.176 1 131466214.669 2      1461.886          39.000    25017185.026 1 100733837.287 1      1120.193          49.000  
C11                                                                  26770141.210 4               7       342.925          31.000  
R18                                                                  24906039.083 9               8      3065.222          26.000  
> 2021 03 11 09 02 26.0040000  0 33                     
G13  21642607.144 1 113732676.823 2     -1454.857          43.000                                                                  
G14  23130506.521 1 121551621.752 2     -2474.088          41.000    23130495.861 8  94715513.34315     -1927.861          37.000  
G15  21493994.008 1 112951697.458 2       395.176          43.000    21493985.006 4  88014274.808 4       308.063          42.000  
G28  22981180.219 1 120766917.585 2     -2159.080          41.000                                                                  
S36  39118595.625 1 205569597.620 2       185.237          43.000  
C20  24067390.464 1 125325221.575 1      -567.716          44.000                                                                  
C23  24379069.687 1 126948221.318 2     -1865.354          43.000                                                                  
C32  25749241.547 1 134083079.388 3     -3038.279          36.000                                                                  
C28  27180701.224 1 141537046.075 3      3145.676          38.000                                                                  
R15  23290219.481 1 124455874.337 2     -3167.644          44.000    23290217.263 4  96798983.373 5     -2463.875          34.000  
R09  22252295.534 1 118826018.585 2      2770.577          44.000    22252293.190 1  92420213.652 1      2154.661          45.000  
R05  24190758.705 2 129313445.652 2     -4366.218          40.000    24190759.065 2 100577144.830 3     -3396.005          38.000  
R06  20694838.611 8               6     -1432.923          33.000                                                                  
R16  20420439.801 2 109082347.984 3      -378.727          39.000    20420442.858 2  84841810.519 3      -294.736          37.000  
R17  23746124.681 2 127070319.228 2      1763.099          41.000    23746118.147 8               6      1371.504          31.000  
G17  23606546.787 1 124053228.281 2      1730.118          41.000    23606531.587 8               7      1348.520          28.000  
G19  24419165.524 1 128323559.833 3      3394.516          40.000                                                                  
E02  28596292.543 1 150274539.447 3      2921.888          36.000    28596289.046 1 115145408.663 3      2238.748          42.000  
G05  26110154.586 1 137209787.426 3     -3361.749          37.000    26110142.936 8               6     -2619.407          33.000  
G23  24320820.240 1 127806778.148 3       802.070          37.000    24320825.091 4  99589712.89414       625.177          39.000  
C37  23029287.924 1 119919536.447 1       674.741          44.000                                                                  
C10  40301230.021 1 209859071.753 2      -618.397          39.000    40301215.730 9 162276295.56735      -477.974          38.000  
R07  21969484.433 4 117604378.39625      2766.534          36.000    21969477.490 8  91470046.54625      2151.306          34.000  
R24  24871032.173 2 132996585.12625     -1390.143          34.000                                                                  
E03  25162876.548 1 132231829.955 2      1061.692          40.000    25162872.670 1 101320459.007 1       813.540          47.000  
E05  25374098.280 1 133341786.986 2     -1762.316          43.000    25374097.332 1 102170965.492 1     -1350.412          46.000  
G20  24438331.913 1 128424298.814 2       403.608          40.000                                                                  
E24  25275785.323 1 132825162.962 2     -1283.043          39.000    25275779.606 1 101775088.143 2      -983.176          40.000  
G24  22644193.284 1 118996039.828 2      2514.473          43.000    22644183.211 1  92724129.847 2      1959.504          42.000  
G30  25301346.157 1 132959467.562 3     -2801.410          39.000    25301349.220 8               6     -2182.372          35.000  
E25  25016907.265 1 131464753.031 2      1461.400          40.000    25016906.867 1 100732717.318 1      1120.019          49.000  
C11                                                                  26770055.953 4               6       342.999          33.000  
R18                                                                  24905300.496 9               9      3065.149          26.000  
> 2021 03 11 09 02 27.0040000  0 33                     
G13  21642884.101 1 113734132.133 2     -1455.531          43.000                                                                  
G14  23130977.274 1 121554095.824 2     -2474.269          41.000    23130968.405 8  94717448.175 4     -1927.744          37.000  
G15  21493918.805 1 112951302.549 2       394.807          44.000    21493910.293 4  88013967.104 3       307.420          41.000  
G28  22981591.045 1 120769076.842 2     -2159.473          42.000                                                                  
S36  39118560.346 1 205569412.210 1       185.269          43.000  
C20  24067499.742 1 125325789.918 1      -568.579          44.000                                                                  
C23  24379427.823 1 126950086.708 2     -1865.600          43.000                                                                  
C32  25749825.098 1 134086117.828 3     -3038.488          36.000                                                                  
C28  27180097.046 1 141533900.492 3      3145.365          38.000                                                                  
R15  23290812.326 1 124459041.948 2     -3167.433          43.000    23290809.884 4  96801447.063 5     -2464.296          33.000  
R09  22251776.760 1 118823248.496 2      2769.959          44.000    22251774.435 1  92418059.138 1      2154.209          43.000  
R05  24191575.568 2 129317811.846 2     -4366.080          40.000    24191575.866 2 100580540.735 3     -3395.871          37.000  
R06  20695106.516 8 110433052.96335     -1433.364          34.000                                                                  
R16  20420510.985 2 109082727.303 3      -379.499          40.000    20420514.089 2  84842105.551 3      -294.909          35.000  
R17  23745795.063 2 127068556.373 2      1762.438          41.000    23745787.219 8               7      1370.883          31.000  
G17  23606217.804 1 124051498.617 2      1729.402          41.000    23606198.345 8               7      1347.336          28.000  
G19  24418519.567 1 128320165.284 3      3394.334          40.000                                                                  
E02  28595736.263 1 150271617.713 4      2921.393          36.000    28595733.039 1 115143169.934 2      2238.672          40.000  
G05  26110794.185 1 137213149.163 3     -3361.750          38.000    26110782.839 8               6     -2619.769          32.000  
G23  24320667.698 1 127805976.308 3       801.269          37.000    24320671.127 4  99589088.069 4       624.509          38.000  
C37  23029158.313 1 119918861.892 1       674.387          44.000                                                                  
C10  40301348.822 1 209859690.066 3      -618.043          39.000    40301333.819 8 162276773.71124      -478.329          36.000  
R07  21968967.623 4 117601612.39925      2765.332          36.000    21968959.598 8  91467879.65035      2150.904          32.000  
R24  24871289.258 4               6     -1390.551          34.000                                                                  
E03  25162674.665 1 132230768.541 2      1061.373          40.000    25162670.575 1 101319645.723 1       813.134          46.000  
E05  25374433.694 1 133343549.483 2     -1762.599          42.000    25374432.649 1 102172315.968 1     -1350.582          46.000  
G20  24438255.087 1 128423895.416 2       403.224          40.000                                                                  
E24  25276029.357 1 132826446.257 2     -1283.289          39.000    25276023.656 1 101776071.445 2      -983.157          39.000  
G24  22643714.746 1 118993525.356 2      2514.198          43.000    22643704.315 4  92722183.51514      1959.222          41.000  
G30  25301879.151 1 132962268.710 3     -2800.885          39.000    25301884.316 8 103606985.79815     -2182.267          35.000  
E25  25016629.146 1 131463291.574 2      1461.441          39.000    25016628.838 1 100731597.510 1      1119.855          48.000  
C11                                                                  26769970.776 8               7       342.777          32.000  
R18                                                                  24904563.381 8               9      3065.042          26.000  
> 2021 03 11 09 02 28.0040000  0 33                     
G13  21643161.156 1 113735587.971 1     -1456.319          43.000                                                                  
G14  23131448.212 1 121556570.267 2     -2474.802          41.000    23131438.793 4  94719374.31814     -1928.321          38.000  
G15  21493843.787 1 112950908.306 2       393.746          43.000    21493835.487 4  88013659.891 3       306.934          42.000  
S23  39305169.401 1 206550059.15032       184.821          38.000  
G28  22982001.999 1 120771236.440 2     -2159.784          42.000                                                                  
S36  39118525.058 1 205569226.919 2       185.103          43.000  
C20  24067609.017 1 125326358.818 1      -569.332          44.000                                                                  
C23  24379786.146 1 126951952.293 2     -1866.003          43.000                                                                  
C32  25750408.622 1 134089156.453 3     -3038.734          36.000                                                                  
C28  27179492.972 1 141530754.963 3      3145.453          38.000                                                                  
R15  23291405.216 2 124462209.697 2     -3168.126          41.000    23291402.505 4  96803910.860 5     -2464.243          34.000  
R09  22251258.129 1 118820478.791 2      2769.270          42.000    22251255.777 1  92415904.909 1      2153.977          44.000  
R05  24192392.437 2 129322178.205 3     -4366.250          38.000    24192392.762 2 100583936.798 3     -3396.136          38.000  
R16  20420582.137 2 109083107.116 3      -380.542          38.000    20420585.209 2  84842400.976 4      -296.094          36.000  
R17  23745465.437 2 127066794.293 2      1761.449          39.000    23745458.948 9  98829691.50935      1370.132          32.000  
G17  23605888.811 1 124049769.495 2      1728.630          41.000    23605869.830 9               8      1346.456          28.000  
G19  24417873.731 1 128316771.025 3      3394.074          40.000                                                                  
E02  28595180.361 1 150268696.090 4      2921.529          37.000    28595177.049 1 115140931.289 2      2238.459          42.000  
G05  26111433.782 1 137216510.870 3     -3362.237          37.000    26111422.709 8               7     -2619.054          32.000  
G23  24320515.192 1 127805175.083 3       801.036          36.000    24320518.526 4  99588463.748 3       624.142          38.000  
C37  23029028.859 1 119918187.661 1       673.763          44.000                                                                  
C10  40301467.600 1 209860308.450 2      -618.643          39.000    40301453.358 4 162277251.37814      -478.728          38.000  
R07  21968452.455 4 117598845.03635      2764.472          34.000    21968442.990 8  91465728.82525      2150.708          33.000  
R24  24871546.587 8               6     -1391.489          31.000                                                                  
E03  25162472.811 1 132229707.555 2      1060.744          40.000    25162468.632 1 101318832.767 1       812.685          47.000  
E05  25374769.265 1 133345312.328 1     -1763.091          43.000    25374768.045 1 102173666.722 1     -1351.008          47.000  
G20  24438178.444 1 128423492.686 2       401.993          39.000                                                                  
E24  25276273.697 1 132827729.840 2     -1284.044          40.000    25276268.082 1 101777054.970 3      -983.841          40.000  
G24  22643236.283 1 118991011.142 2      2513.975          43.000    22643225.589 4  92720224.392 3      1958.967          43.000  
G30  25302412.152 1 132965070.010 3     -2801.793          38.000    25302416.850 8               6     -2182.888          35.000  
E25  25016351.129 1 131461830.464 2      1460.664          40.000    25016350.814 1 100730477.963 1      1119.281          49.000  
C11                                                                  26769885.063 4               6       340.156          33.000  
R18                                                                  24903826.027 9               8      3064.014          27.000  
> 2021 03 11 09 02 29.0040000  0 34                     
G13  21643438.234 1 113737044.269 2     -1456.741          43.000                                                                  
G14  23131919.056 1 121559044.991 2     -2475.000          41.000    23131911.354 4  94721302.685 4     -1928.612          38.000  
G15  21493768.863 1 112950514.635 2       393.349          43.000    21493762.148 4  88013353.134 3       306.475          42.000  
S23  39305134.352 1 206549873.81132       184.564          39.000  
G28  22982413.001 1 120773396.329 2     -2160.118          41.000                                                                  
S36  39118489.763 1 205569041.556 2       185.332          43.000  
C20  24067718.320 1 125326928.213 1      -569.761          44.000                                                                  
C23  24380144.524 1 126953817.983 1     -1865.826          43.000                                                                  
C32  25750992.360 1 134092195.237 3     -3039.503          37.000                                                                  
C28  27178888.857 1 141527609.440 3      3145.254          38.000                                                                  
R15  23291998.078 1 124465377.447 2     -3167.763          41.000    23291995.137 4  96806374.679 5     -2463.798          34.000  
R09  22250739.416 2 118817709.366 2      2769.047          43.000    22250737.157 1  92413750.929 2      2153.625          44.000  
R05  24193209.289 2 129326544.669 3     -4366.523          39.000    24193209.718 2 100587332.920 3     -3396.284          38.000  
R06  20695644.470 8 110435923.82535     -1436.032          32.000                                                                  
R16  20420653.506 2 109083487.295 3      -380.446          37.000    20420656.261 2  84842696.662 4      -295.764          36.000  
R17  23745135.868 2 127065032.889 2      1761.238          39.000    23745130.663 9               6      1369.632          33.000  
G17  23605559.931 1 124048040.823 2      1728.411          41.000    23605541.789 9               7      1346.010          29.000  
G19  24417227.983 1 128313376.987 3      3393.403          39.000                                                                  
E02  28594624.480 1 150265774.542 3      2921.495          36.000    28594621.037 1 115138692.717 2      2238.188          41.000  
G05  26112073.396 1 137219872.411 3     -3361.333          37.000    26112061.310 8               7     -2619.885          33.000  
G23  24320362.779 1 127804374.487 3       800.101          37.000    24320366.559 4  99587839.899 3       623.450          39.000  
C37  23028899.301 1 119917513.674 1       673.755          44.000                                                                  
C10  40301586.342 1 209860926.790 3      -618.254          39.000    40301571.690 4 162277729.497 4      -478.013          38.000  
R07  21967938.729 8 117596079.85714      2764.038          35.000    21967925.492 8  91463574.52425      2149.811          34.000  
R24  24871803.573 8               6     -1392.195          31.000    24871827.166 9               9     -1083.665          26.000  
E03  25162270.881 1 132228646.922 2      1060.158          41.000    25162266.955 1 101318020.060 1       812.466          46.000  
E05  25375104.707 1 133347075.470 2     -1763.449          43.000    25375103.587 1 102175017.705 2     -1351.205          47.000  
G20  24438101.828 1 128423090.521 2       401.483          40.000                                                                  
E24  25276518.040 1 132829013.591 2     -1283.861          39.000    25276512.407 1 101778038.630 3      -983.927          40.000  
G24  22642757.809 1 118988497.145 2      2513.927          43.000    22642748.476 4  92718265.440 2      1958.810          42.000  
G30  25302945.261 1 132967871.279 3     -2800.927          38.000    25302948.607 8               6     -2182.648          35.000  
E25  25016073.159 1 131460369.603 2      1460.718          40.000    25016072.731 1 100729358.600 1      1119.124          49.000  
C11                                                                  26769798.161 4               7       340.909          30.000  
R18                                                                  24903088.703 9               7      3064.643          27.000  
> 2021 03 11 09 02 30.0040000  0 33                     
G13  21643715.448 1 113738501.033 2     -1456.911          44.000                                                                  
G14  23132390.005 1 121561519.998 2     -2474.938          41.000    23132383.769 8  94723231.253 3     -1928.656          37.000  
G15  21493694.243 1 112950121.531 2       392.841          43.000    21493687.918 4  88013058.81314       306.145          41.000  
S23  39305099.321 1 206549688.87122       185.077          38.000  
G28  22982824.025 1 120775556.466 2     -2159.958          41.000                                                                  
S36  39118454.592 1 205568856.123 2       185.623          43.000  
C20  24067827.733 1 125327498.108 2      -569.909          44.000                                                                  
C23  24380502.831 1 126955683.800 2     -1865.657          42.000                                                                  
C32  25751576.044 1 134095234.111 3     -3038.669          37.000                                                                  
C28  27178284.676 1 141524463.862 3      3145.738          38.000                                                                  
R15  23292590.918 2 124468545.239 2     -3167.672          42.000    23292587.824 4  96808838.499 5     -2463.520          34.000  
R09  22250220.777 2 118814940.243 2      2768.996          43.000    22250218.520 1  92411597.162 2      2153.733          44.000  
R05  24194026.092 2 129330911.236 3     -4366.288          38.000    24194026.669 2 100590729.145 3     -3396.293          38.000  
R16  20420724.848 2 109083867.914 3      -380.813          38.000    20420727.462 2  84842992.718 4      -296.578          36.000  
R17  23744806.502 2 127063272.237 2      1760.660          38.000    23744802.454 8               6      1369.808          33.000  
G17  23605231.053 1 124046312.634 2      1728.023          41.000    23605213.918 8               9      1347.361          29.000  
G19  24416582.237 1 128309983.138 2      3393.864          39.000                                                                  
E02  28594068.568 1 150262853.039 3      2921.919          36.000    28594064.842 1 115136450.13314      2238.930          41.000  
G05  26112712.973 1 137223233.839 3     -3361.000          37.000    26112703.274 8               6     -2618.845          31.000  
G23  24320210.450 1 127803574.442 3       800.336          37.000    24320213.706 4  99587216.522 3       622.998          38.000  
C37  23028769.953 1 119916839.934 2       673.818          44.000                                                                  
C10  40301705.071 1 209861545.111 2      -618.135          40.000    40301688.253 9 162278198.12735      -478.216          37.000  
R07  21967425.114 8 117593315.733 4      2764.465          34.000    21967408.513 8               7      2150.189          33.000  
R24  24872061.297 8               7     -1392.438          31.000    24872086.680 9               8     -1083.197          28.000  
E03  25162069.109 1 132227586.596 2      1060.281          40.000    25162065.263 1 101317207.608 1       812.482          47.000  
E05  25375440.561 1 133348838.891 2     -1763.661          43.000    25375439.210 1 102176368.886 1     -1351.124          46.000  
G20  24438025.424 1 128422688.914 2       401.576          40.000                                                                  
E24  25276762.288 1 132830297.549 2     -1284.027          39.000    25276756.676 1 101779022.429 3      -983.781          40.000  
G24  22642279.501 1 118985983.371 2      2513.617          43.000                                                                  
G30  25303478.264 1 132970672.634 2     -2801.514          38.000    25303482.388 8 103613530.31015     -2182.641          35.000  
E25  25015795.089 1 131458909.002 2      1460.641          40.000    25015794.763 1 100728239.426 1      1119.310          49.000  
C11                                                                  26769715.244 8               6       341.505          30.000  
R18                                                                  24902351.886 9               7      3064.331          27.000  
> 2021 03 11 09 02 31.0040000  0 34                     
G13  21643992.795 1 113739958.170 2     -1457.493          43.000                                                                  
G14  23132860.969 1 121563995.240 2     -2475.372          41.000    23132853.773 8  94725169.01914     -1929.549          37.000  
G15  21493619.472 1 112949728.925 2       392.549          43.000    21493609.096 9  88012735.89435       305.719          42.000  
S23  39305064.318 1 206549503.79723       184.973          39.000  
G28  22983235.174 1 120777716.817 2     -2160.282          41.000                                                                  
S36  39118419.280 1 205568670.577 2       185.519          43.000  
C20  24067937.292 1 125328068.443 2      -570.594          44.000                                                                  
C23  24380861.204 1 126957549.653 2     -1865.864          43.000                                                                  
C32  25752159.673 1 134098273.051 3     -3038.845          37.000                                                                  
C28  27177680.587 1 141521318.206 3      3145.735          38.000                                                                  
R15  23293183.730 1 124471712.962 2     -3167.763          43.000    23293180.314 4  96811302.295 5     -2463.858          34.000  
R09  22249702.159 1 118812171.351 2      2768.740          45.000    22249699.975 1  92409443.573 2      2153.603          43.000  
R05  24194843.000 2 129335277.837 3     -4366.474          40.000    24194843.529 2 100594125.392 3     -3396.344          38.000  
R06  20696179.060 8               6     -1437.769          32.000                                                                  
R16  20420796.183 2 109084248.873 3      -381.223          40.000    20420798.802 2  84843289.026 4      -296.938          36.000  
R17  23744477.208 2 127061512.230 2      1759.523          40.000    23744477.388 8               6      1368.494          32.000  
G17  23604902.423 1 124044584.817 2      1727.561          41.000    23604886.039 8               7      1346.117          25.000  
G19  24415936.445 1 128306589.436 3      3393.652          40.000                                                                  
E02  28593512.722 1 150259931.514 3      2921.783          36.000    28593508.891 1 115134211.592 3      2238.582          42.000  
G05  26113352.453 1 137226595.063 3     -3360.932          37.000    26113342.579 8               6     -2619.314          32.000  
G23  24320058.151 1 127802774.956 3       799.319          37.000    24320062.555 4  99586590.50114       623.115          39.000  
C37  23028640.504 1 119916166.364 1       673.567          44.000                                                                  
C10  40301823.803 1 209862163.325 3      -618.407          39.000    40301809.169 9 162278676.17424      -477.928          38.000  
R07  21966911.055 4 117590552.210 4      2763.641          35.000    21966892.721 8               6      2149.750          33.000  
R18  24901664.020 8               9      3939.348          25.000    24901614.171 9               9      3064.716          27.000  
R24  24872319.557 8 133003495.79415     -1393.363          32.000    24872343.237 9               7     -1083.642          28.000  
E03  25161867.521 1 132226526.555 2      1060.020          40.000    25161863.502 1 101316395.372 1       812.115          47.000  
E05  25375776.300 1 133350602.504 1     -1763.671          43.000    25375774.774 1 102177720.237 1     -1351.433          47.000  
G20  24437949.028 1 128422287.816 2       400.882          40.000                                                                  
E24  25277006.883 1 132831581.617 3     -1284.401          39.000    25277000.985 1 101780006.326 3      -983.955          40.000  
G24  22641801.108 1 118983469.704 2      2513.557          43.000    22641791.002 9  92714348.45034      1958.966          42.000  
G30  25304011.389 1 132973473.914 2     -2801.210          39.000    25304015.724 8 103615714.144 5     -2183.059          34.000  
E25  25015517.205 1 131457448.570 2      1460.265          40.000    25015516.802 1 100727120.397 1      1119.013          49.000  
C11                                                                  26769629.611 8               8       340.865          31.000  
> 2021 03 11 09 02 32.0040000  0 34                     
G13  21644270.180 1 113741415.946 2     -1458.111          44.000                                                                  
G14  23133332.070 1 121566470.913 2     -2475.970          41.000    23133325.708 8  94727101.09215     -1929.132          38.000  
G15  21493544.863 1 112949337.070 2       391.518          44.000    21493539.587 9  88012451.552 5       305.204          42.000  
S23  39305029.223 1 206549318.82122       185.138          39.000  
G28  22983646.316 1 120779877.598 2     -2160.873          41.000                                                                  
S36  39118384.023 1 205568485.156 2       185.379          43.000  
C20  24068047.004 1 125328639.447 1      -571.330          45.000                                                                  
C23  24381219.607 1 126959415.785 2     -1866.276          44.000                                                                  
C32  25752743.401 1 134101312.314 3     -3039.178          38.000                                                                  
C28  27177076.527 1 141518172.710 3      3145.281          39.000                                                                  
R15  23293776.758 1 124474880.887 2     -3168.203          43.000    23293773.003 4               6     -2463.183          32.000  
R09  22249183.637 1 118809402.926 2      2768.282          44.000    22249181.440 1  92407290.356 2      2153.009          43.000  
R05  24195660.165 2 129339644.679 3     -4366.701          41.000    24195660.371 2 100597521.812 3     -3396.204          37.000  
R06  20696446.833 8               6     -1438.704          34.000                                                                  
R16  20420867.840 2 109084630.474 3      -382.001          40.000    20420870.051 2  84843585.777 5      -296.469          35.000  
R17  23744148.264 2 127059753.082 3      1758.672          41.000    23744147.692 8               6      1368.118          30.000  
G17  23604573.753 1 124042857.627 2      1726.958          41.000    23604558.600 8               7      1345.421          27.000  
G19  24415290.741 1 128303196.115 3      3393.254          40.000                                                                  
E02  28592956.896 1 150257010.244 3      2920.933          36.000    28592953.107 1 115131973.196 2      2238.240          41.000  
G05  26113991.890 1 137229956.347 3     -3361.210          37.000    26113981.761 8               6     -2619.222          32.000  
G23  24319906.018 1 127801976.177 3       799.098          37.000    24319911.004 4  99585968.117 3       622.159          39.000  
C37  23028511.303 1 119915493.216 1       672.929          45.000                                                                  
C10  40301942.563 1 209862781.679 2      -618.222          41.000    40301927.790 8 162279154.32624      -478.215          38.000  
R07  21966397.063 4 117587789.464 4      2762.164          36.000    21966374.078 8               6      2148.120          33.000  
R18  24900922.729 8               9      3939.145          26.000    24900876.764 8               9      3064.429          25.000  
R24  24872573.313 8               7     -1394.435          33.000    24872603.032 9               8     -1084.759          29.000  
E03  25161666.019 1 132225467.028 2      1059.040          41.000    25161661.823 1 101315583.508 1       811.675          47.000  
E05  25376112.085 1 133352366.580 2     -1764.375          43.000    25376110.471 1 102179071.935 1     -1351.943          47.000  
G20  24437872.802 1 128421887.483 2       399.868          40.000                                                                  
E24  25277251.420 1 132832866.036 2     -1284.730          39.000    25277245.422 1 101780990.486 3      -984.249          40.000  
G24  22641322.800 1 118980956.402 2      2513.295          43.000    22641314.208 9  92712395.54913      1958.330          42.000  
G30  25304544.425 1 132976275.408 2     -2801.788          39.000    25304549.263 4               6     -2183.115          34.000  
E25  25015239.423 1 131455988.574 2      1459.528          40.000    25015238.979 1 100726001.694 1      1118.533          49.000  
C11                                                                  26769543.927 8               7       340.330          28.000  
> 2021 03 11 09 02 33.0040000  0 34                     
G13  21644547.610 1 113742874.190 2     -1458.694          44.000                                                                  
G14  23133803.241 1 121568946.877 2     -2476.209          40.000    23133794.859 4  94729022.412 4     -1929.293          38.000  
G15  21493470.448 1 112948945.813 2       390.591          44.000    21493465.509 9  88012146.674 3       304.622          42.000  
S23  39304994.126 1 206549133.83123       184.723          38.000  
G28  22984057.497 1 120782038.663 2     -2161.268          41.000                                                                  
S36  39118348.821 1 205568299.703 2       185.433          43.000  
C20  24068156.829 1 125329210.959 1      -572.037          43.000                                                                  
C23  24381577.988 1 126961282.044 2     -1866.551          42.000                                                                  
C32  25753327.183 1 134104351.722 3     -3039.894          36.000                                                                  
C28  27176472.513 1 141515027.199 3      3145.163          38.000                                                                  
R15  23294369.639 1 124478048.830 2     -3168.237          42.000    23294366.102 4  96816230.175 5     -2464.255          33.000  
R09  22248665.293 1 118806634.805 2      2767.841          42.000    22248663.081 1  92405137.381 1      2152.638          44.000  
R05  24196477.245 2 129344011.640 2     -4367.205          39.000    24196477.333 2 100600918.312 3     -3396.760          38.000  
R06  20696716.049 8 110441642.17835     -1439.229          32.000                                                                  
R16  20420939.465 2 109085012.544 3      -382.688          37.000    20420941.627 2  84843882.975 5      -297.881          35.000  
R17  23743819.285 2 127057994.617 2      1758.035          39.000    23743819.088 8  98822866.30735      1367.028          31.000  
G17  23604245.256 1 124041130.931 2      1726.479          42.000    23604230.694 8               9      1343.527          29.000  
G19  24414645.062 1 128299803.045 2      3393.095          40.000                                                                  
E02  28592401.052 1 150254088.993 3      2921.116          36.000    28592397.725 1 115129734.858 2      2238.119          41.000  
G05  26114631.270 1 137233317.490 3     -3361.144          37.000    26114619.982 8               6     -2618.906          32.000  
G23  24319754.088 1 127801178.066 3       797.514          37.000    24319758.576 4  99585345.18014       621.465          39.000  
C37  23028382.024 1 119914820.336 1       672.455          43.000                                                                  
C10  40302061.366 1 209863400.034 2      -618.416          38.000    40302047.141 4 162279632.48924      -478.575          37.000  
R07  21965881.768 4 117585084.83535      2761.853          34.000    21965861.391 8               8      2147.955          31.000  
R18  24900183.732 8               9      3939.851          26.000    24900137.298 9               9      3063.820          26.000  
R24  24872832.424 8               6     -1395.195          31.000    24872861.535 9               6     -1084.476          30.000  
E03  25161464.418 1 132224407.822 2      1058.920          40.000    25161460.357 1 101314771.918 2       811.440          47.000  
E05  25376447.953 1 133354130.945 2     -1764.473          43.000    25376446.175 1 102180423.857 1     -1352.184          47.000  
G20  24437796.716 1 128421487.735 2       398.946          39.000                                                                  
E24  25277495.943 1 132834150.662 2     -1285.007          40.000    25277490.008 1 101781974.820 3      -984.570          40.000  
G24  22640844.555 1 118978443.327 2      2512.762          43.000    22640837.122 9  92710437.308 3      1957.913          43.000  
G30  25305077.509 1 132979076.940 2     -2801.866          39.000    25305083.430 8 103620086.08815     -2182.765          35.000  
E25  25014961.572 1 131454528.823 2      1459.478          40.000    25014961.166 1 100724883.189 1      1118.316          49.000  
C11                                                                  26769459.918 4               6       340.369          29.000  
> 2021 03 11 09 02 34.0040000  0 34                     
G13  21644825.094 1 113744332.997 2     -1459.138          43.000                                                                  
G14  23134274.461 1 121571423.248 2     -2476.543          40.000    23134266.605 4  94730952.067 3     -1929.758          38.000  
G15  21493396.111 1 112948555.223 1       390.510          44.000                                                                  
S23  39304959.008 1 206548948.83422       185.150          38.000  
G28  22984468.753 1 120784200.119 2     -2161.741          41.000                                                                  
S36  39118313.501 1 205568114.216 2       185.312          43.000  
C20  24068266.725 1 125329783.075 2      -572.345          44.000                                                                  
C23  24381936.524 1 126963148.514 2     -1866.393          42.000                                                                  
C32  25753911.104 1 134107391.353 3     -3040.147          37.000                                                                  
C28  27175868.403 1 141511881.794 3      3145.264          38.000                                                                  
R15  23294962.442 1 124481216.926 1     -3168.189          41.000    23294958.827 4  96818694.257 5     -2464.048          34.000  
R09  22248147.056 1 118803867.117 2      2767.202          42.000    22248144.705 1  92402984.720 2      2152.423          45.000  
R05  24197294.288 2 129348378.767 2     -4367.279          38.000    24197294.265 2 100604314.978 3     -3396.685          39.000  
R06  20696988.006 8 110443081.66425     -1439.862          32.000                                                                  
R16  20421011.163 2 109085395.175 3      -382.860          38.000    20421013.258 2  84844180.555 4      -297.726          36.000  
R17  23743490.461 2 127056236.983 2      1757.294          39.000    23743491.640 8  98821503.79735      1366.141          33.000  
G17  23603916.837 1 124039404.816 2      1725.862          41.000    23603900.883 9               7      1344.730          29.000  
G19  24413999.431 1 128296410.311 2      3392.358          39.000                                                                  
E02  28591844.976 1 150251167.908 3      2921.082          36.000    28591841.530 2 115127497.62614      2238.156          41.000  
G05  26115270.855 1 137236678.616 3     -3360.970          37.000    26115261.710 9               7     -2619.655          32.000  
G23  24319602.115 1 127800380.611 3       797.127          38.000    24319606.684 4  99584723.805 3       620.924          39.000  
C37  23028252.899 1 119914147.801 1       672.319          44.000                                                                  
C10  40302180.162 1 209864018.430 3      -618.383          39.000    40302166.253 4 162280122.68435      -478.637          38.000  
R07  21965366.332 4 117582323.45424      2761.450          34.000    21965345.720 8               7      2147.547          32.000  
R18  24899445.484 9               9      3941.191          26.000    24899398.943 9               7      3063.794          26.000  
R24  24873091.146 8               6     -1396.638          31.000    24873119.757 9               7     -1086.354          31.000  
E03  25161262.946 1 132223349.086 2      1058.514          40.000    25161258.917 1 101313960.682 1       810.976          46.000  
E05  25376783.744 1 133355895.728 2     -1764.959          43.000    25376782.014 1 102181776.087 1     -1352.463          46.000  
G20  24437720.728 1 128421088.659 2       398.578          40.000                                                                  
E24  25277740.490 1 132835435.580 2     -1285.113          40.000    25277735.215 1 101782964.36014      -984.707          39.000  
G24  22640366.333 1 118975930.557 2      2512.498          43.000    22640358.241 4  92708479.313 2      1957.871          43.000  
G30  25305610.584 1 132981878.608 3     -2801.722          39.000    25305617.331 8 103622272.241 5     -2183.422          35.000  
E25  25014684.032 1 131453069.458 2      1459.024          40.000    25014683.462 1 100723764.968 1      1118.061          48.000  
C11                                                                  26769375.293 4               8       339.750          29.000  
> 2021 03 11 09 02 35.0040000  0 34                     
G13  21645102.777 1 113745792.370 1     -1459.710          44.000                                                                  
G14  23134745.669 1 121573900.029 2     -2477.191          41.000    23134737.502 4  94732882.006 3     -1930.337          38.000  
G15  21493321.945 1 112948165.331 1       389.287          43.000    21493317.456 9  88011541.50614       303.302          41.000  
S23  39304923.991 1 206548763.93323       184.869          39.000  
G28  22984880.013 1 120786361.932 2     -2161.888          41.000                                                                  
S36  39118278.198 1 205567928.687 2       185.489          43.000  
C20  24068376.770 1 125330355.798 1      -573.306          44.000                                                                  
C23  24382294.996 1 126965015.213 2     -1866.771          42.000                                                                  
C32  25754495.045 1 134110431.216 3     -3040.077          37.000                                                                  
C28  27175264.491 1 141508736.460 3      3145.272          39.000                                                                  
R15  23295555.410 2 124484385.167 2     -3168.354          41.000    23295551.516 4               6     -2463.246          34.000  
R09  22247628.819 1 118801099.807 1      2766.969          42.000    22247626.522 1  92400832.377 1      2152.135          44.000  
R05  24198111.337 2 129352746.133 2     -4367.716          39.000    24198111.196 2 100607711.797 3     -3396.930          38.000  
R06  20697259.603 8 110444522.033 5     -1440.304          33.000                                                                  
R16  20421082.952 2 109085778.362 3      -383.312          38.000    20421084.971 2  84844478.594 4      -297.958          36.000  
R17  23743161.871 2 127054480.192 3      1756.296          39.000    23743167.849 8               6      1365.774          33.000  
G17  23603588.589 1 124037679.250 2      1725.398          41.000    23603568.331 8               8      1343.896          24.000  
G19  24413354.014 1 128293017.868 2      3392.200          40.000                                                                  
E02  28591289.330 1 150248247.010 4      2920.776          36.000    28591285.731 2 115125259.529 4      2237.966          42.000  
G05  26115910.234 1 137240039.747 3     -3361.504          37.000    26115900.755 8               6     -2619.175          30.000  
G23  24319450.375 1 127799583.841 3       796.254          36.000    24319453.606 8  99584102.953 4       620.533          37.000  
C37  23028123.702 1 119913475.621 1       671.794          44.000                                                                  
C10  40302299.034 1 209864636.938 2      -618.337          39.000    40302284.827 4 162280599.92934      -478.679          38.000  
R07  21964850.522 4 117579562.38215      2760.095          34.000    21964830.899 8               6      2146.588          32.000  
R18  24898707.773 8               7      3938.568          26.000    24898660.804 9               8      3063.147          27.000  
R24  24873351.489 8               6     -1396.056          32.000    24873379.456 8               6     -1086.678          32.000  
E03  25161061.525 1 132222290.773 2      1058.167          40.000    25161057.547 1 101313149.772 1       810.784          47.000  
E05  25377119.776 1 133357660.880 1     -1765.438          43.000    25377118.002 1 102183128.607 2     -1352.772          47.000  
G20  24437644.941 1 128420690.268 2       397.980          40.000                                                                  
E24  25277984.988 1 132836720.802 2     -1285.451          39.000    25277978.929 1 101783946.13114      -984.634          41.000  
G24  22639888.169 1 118973418.118 2      2511.987          44.000    22639880.573 2  92706521.555 2      1957.639          42.000  
G30  25306143.660 1 132984680.405 3     -2801.675          39.000    25306149.372 8 103624455.482 5     -2183.840          34.000  
E25  25014406.358 1 131451610.431 2      1458.890          40.000    25014405.735 1 100722647.024 1      1117.676          49.000  
C11                                                                  26769290.747 8               7       338.412          30.000  
> 2021 03 11 09 02 36.0040000  0 34                     
G13  21645380.515 1 113747252.371 1     -1459.843          44.000                                                                  
G14  23135217.067 1 121576377.215 3     -2476.789          41.000    23135209.316 4  94734812.333 4     -1930.552          38.000  
G15  21493247.992 1 112947776.179 2       389.238          43.000    21493242.574 9  88011238.271 3       303.229          41.000  
S23  39304888.933 1 206548579.121 3       185.181          39.000  
G28  22985291.495 1 120788524.215 2     -2162.191          41.000                                                                  
S36  39118242.889 1 205567743.250 2       186.040          43.000  
C20  24068486.907 1 125330929.185 1      -573.388          44.000                                                                  
C23  24382653.698 1 126966882.198 1     -1866.654          43.000                                                                  
C32  25755078.952 1 134113471.379 3     -3039.836          37.000                                                                  
C28  27174660.527 1 141505591.278 3      3145.736          38.000                                                                  
R15  23296148.454 2 124487553.594 2     -3167.963          42.000    23296144.207 4               6     -2463.886          32.000  
R09  22247110.591 1 118798333.004 2      2766.669          42.000    22247108.440 1  92398680.417 2      2151.900          43.000  
R05  24198928.485 2 129357113.770 2     -4367.316          39.000    24198928.324 2 100611108.840 3     -3396.602          37.000  
R06  20697530.759 4               6     -1441.216          33.000                                                                  
R16  20421154.934 2 109086162.155 3      -383.470          39.000    20421156.706 2  84844777.094 4      -298.384          35.000  
R17  23742833.593 2 127052724.261 2      1755.891          39.000    23742839.702 8               6      1365.522          33.000  
G17  23603260.585 1 124035954.338 2      1725.121          42.000    23603236.990 9               7      1342.864          26.000  
G19  24412708.549 1 128289625.821 2      3392.264          40.000                                                                  
E02  28590733.682 1 150245326.352 3      2920.695          36.000    28590729.624 2 115123020.60914      2238.106          40.000  
G05  26116549.733 1 137243400.891 3     -3361.107          37.000    26116540.804 9               7     -2618.351          31.000  
G23  24319298.753 1 127798787.859 3       795.847          37.000    24319301.518 4  99583473.68314       620.319          38.000  
C37  23027994.735 1 119912803.855 1       672.129          44.000                                                                  
C10  40302417.839 1 209865255.577 3      -618.360          39.000    40302403.451 2 162281078.29224      -478.204          37.000  
R07  21964334.874 2 117576802.593 5      2759.760          34.000    21964316.161 8               6      2146.863          31.000  
R18  24897967.878 8               9      3939.444          26.000    24897924.243 9               8      3063.843          27.000  
R24  24873610.918 8               6     -1397.349          32.000    24873638.508 8               6     -1086.337          33.000  
E03  25160860.143 1 132221233.005 2      1057.766          40.000    25160856.339 1 101312339.265 2       810.677          46.000  
E05  25377455.657 1 133359426.482 2     -1765.496          43.000    25377454.037 1 102184481.472 2     -1352.649          46.000  
G20  24437569.286 1 128420292.624 2       397.805          40.000                                                                  
E24  25278229.798 1 132838006.368 2     -1285.137          40.000    25278223.362 2 101784930.207 4      -984.849          39.000  
G24  22639410.212 1 118970906.049 2      2512.469          44.000    22639402.613 1  92704564.122 2      1957.692          42.000  
G30  25306676.858 1 132987482.411 3     -2801.462          39.000    25306681.791 8               6     -2183.154          34.000  
E25  25014128.884 1 131450151.850 2      1458.635          40.000    25014128.136 1 100721529.396 1      1117.806          48.000  
C11                                                                  26769207.246 8               8       338.767          30.000  
> 2021 03 11 09 02 37.0040000  0 34                     
G13  21645658.480 1 113748712.693 1     -1460.580          44.000                                                                  
G14  23135688.404 1 121578854.605 2     -2477.526          40.000    23135680.597 4  94736742.745 4     -1930.619          37.000  
G15  21493174.041 1 112947387.441 2       388.817          43.000    21493166.953 9  88010935.371 3       302.646          41.000  
S23  39304853.771 1 206548394.109 3       184.991          39.000  
G28  22985702.994 1 120790686.614 2     -2162.741          41.000                                                                  
S36  39118207.599 1 205567557.656 2       185.977          43.000  
C20  24068597.153 1 125331502.944 2      -574.070          44.000                                                                  
C23  24383012.215 1 126968749.157 2     -1866.999          43.000                                                                  
C32  25755662.912 1 134116511.562 3     -3040.487          37.000                                                                  
C28  27174056.516 1 141502445.953 3      3145.595          39.000                                                                  
R15  23296741.421 1 124490721.919 2     -3168.451          44.000    23296736.832 4               6     -2464.173          33.000  
R09  22246592.482 1 118795566.333 1      2766.756          44.000    22246590.261 1  92396528.572 2      2151.692          44.000  
R05  24199745.622 2 129361481.376 3     -4367.625          41.000    24199745.484 2 100614505.865 3     -3396.726          38.000  
R06  20697801.472 8 110447434.39935     -1442.678          35.000                                                                  
R16  20421226.955 2 109086546.220 2      -384.052          41.000    20421228.534 2  84845075.804 4      -298.759          36.000  
R17  23742505.398 2 127050968.910 2      1755.089          41.000    23742510.295 8               6      1365.377          31.000  
G17  23602932.559 1 124034229.748 2      1724.394          42.000    23602908.716 9               8      1342.838          27.000  
G19  24412063.095 1 128286233.836 2      3392.227          40.000                                                                  
E02  28590177.991 1 150242405.558 3      2920.994          35.000    28590173.938 2 115120782.620 3      2238.065          40.000  
G05  26117189.190 1 137246761.763 3     -3360.674          37.000    26117176.706 9               7     -2618.873          31.000  
G23  24319147.351 1 127797992.303 4       795.278          37.000    24319148.490 4  99582853.814 4       619.297          38.000  
C37  23027865.812 1 119912132.206 1       671.705          45.000                                                                  
C10  40302536.638 1 209865874.073 3      -618.458          39.000    40302522.805 4 162281558.54335      -478.268          37.000  
R07  21963819.406 2 117574044.74435      2758.850          35.000    21963797.710 8               6      2146.277          32.000  
R18  24897226.872 8               7      3939.032          27.000    24897188.216 8               8      3063.361          27.000  
R24  24873869.195 8               7     -1397.966          32.000    24873901.695 8               6     -1087.741          33.000  
E03  25160658.915 1 132220175.412 2      1057.280          40.000    25160655.151 1 101311528.901 2       810.245          46.000  
E05  25377791.768 1 133361192.250 1     -1766.126          43.000    25377790.041 1 102185834.451 2     -1352.990          46.000  
G20  24437493.706 1 128419895.438 2       396.814          40.000                                                                  
E24  25278474.660 1 132839292.033 2     -1285.745          39.000    25278468.150 2 101785916.299 4      -985.192          39.000  
G24  22638932.179 1 118968394.083 2      2511.869          44.000    22638924.513 1  92702606.735 2      1957.465          42.000  
G30  25307209.990 1 132990284.327 2     -2801.814          39.000    25307214.850 8 103628814.12915     -2183.322          34.000  
E25  25013851.331 1 131448693.375 2      1458.356          40.000    25013850.698 1 100720411.872 1      1117.382          48.000  
C11                                                                  26769122.766 4               6       338.378          32.000  
> 2021 03 11 09 02 38.0040000  0 34                     
G13  21645936.364 1 113750173.492 1     -1461.258          44.000                                                                  
G14  23136159.886 1 121581332.265 2     -2478.116          40.000    23136152.418 4  94738673.380 4     -1930.984          38.000  
G15  21493100.203 1 112946999.314 2       387.728          43.000    21493093.388 4  88010632.924 2       302.052          42.000  
S23  39304818.744 1 206548209.027 3       184.601          39.000  
G28  22986114.494 1 120792849.289 2     -2163.141          41.000                                                                  
S36  39118172.191 1 205567372.061 2       185.174          43.000  
C20  24068707.427 1 125332077.207 2      -574.797          44.000                                                                  
C23  24383370.811 1 126970616.234 2     -1867.427          43.000                                                                  
C32  25756246.895 1 134119551.843 3     -3040.549          38.000                                                                  
C28  27173452.467 1 141499300.650 3      3145.068          38.000                                                                  
R15  23297334.368 1 124493890.268 2     -3168.737          44.000    23297329.589 4               6     -2464.141          33.000  
R09  22246074.408 1 118792800.012 2      2765.871          44.000    22246072.195 1  92394376.983 2      2151.249          44.000  
R05  24200562.774 2 129365849.061 2     -4367.802          41.000    24200562.461 2 100617902.943 3     -3397.152          38.000  
R06  20698074.552 8 110448891.16225     -1443.154          35.000                                                                  
R16  20421299.104 2 109086930.692 2      -384.671          40.000    20421300.574 2  84845374.857 4      -299.190          36.000  
R17  23742177.228 2 127049214.260 2      1753.961          41.000    23742182.680 8               6      1364.775          31.000  
G17  23602604.514 1 124032505.635 2      1723.649          42.000    23602578.482 8               7      1343.232          27.000  
G19  24411417.656 1 128282842.086 2      3391.378          40.000                                                                  
E02  28589622.478 1 150239484.847 3      2920.728          36.000    28589617.966 1 115118544.692 3      2237.682          41.000  
G05  26117828.553 1 137250122.551 3     -3361.172          37.000    26117817.297 8               6     -2618.746          32.000  
G23  24318996.037 1 127797197.371 3       794.183          37.000    24318997.542 4  99582234.381 3       618.471          38.000  
C37  23027736.880 1 119911460.813 1       671.065          45.000                                                                  
C10  40302655.432 1 209866492.536 3      -618.808          39.000    40302641.478 4 162282036.80624      -478.778          39.000  
R07  21963303.921 2               6      2758.002          35.000    21963283.360 8               6      2145.636          32.000  
R18  24896486.515 8               9      3937.314          27.000    24896452.622 9               7      3063.794          28.000  
R24  24874127.353 8               8     -1399.014          30.000    24874162.747 8 103454812.82835     -1088.170          33.000  
E03  25160457.633 1 132219118.184 2      1056.703          40.000    25160453.808 1 101310718.817 2       809.781          47.000  
E05  25378127.868 1 133362958.287 1     -1766.333          43.000    25378126.165 1 102187187.667 2     -1353.423          47.000  
G20  24437418.233 1 128419498.829 2       396.020          40.000                                                                  
E24  25278719.452 1 132840577.866 2     -1286.272          39.000    25278712.653 2 101786901.540 3      -985.427          39.000  
G24  22638454.168 1 118965882.325 1      2511.586          44.000    22638446.568 1  92700649.551 2      1956.636          43.000  
G30  25307743.099 1 132993086.278 3     -2802.254          39.000    25307748.655 8 103630997.459 4     -2183.590          35.000  
E25  25013573.894 1 131447235.157 2      1458.219          40.000    25013573.090 1 100719294.538 1      1117.087          49.000  
C11                                                                  26769038.627 4               7       337.300          32.000  
> 2021 03 11 09 02 39.0040000  0 34                     
G13  21646214.403 1 113751634.861 1     -1461.627          44.000                                                                  
G14  23136631.498 1 121583810.316 2     -2478.192          40.000    23136623.898 8  94740606.31215     -1930.973          37.000  
G15  21493026.495 1 112946611.878 2       387.058          43.000    21493020.407 2  88010331.017 2       301.783          42.000  
S23  39304783.610 1 206548023.949 2       185.333          38.000  
G28  22986526.151 1 120795012.342 2     -2163.099          41.000                                                                  
S36  39118136.933 1 205567186.506 2       185.385          43.000  
C20  24068817.910 1 125332652.097 2      -575.541          44.000                                                                  
C23  24383729.520 1 126972483.538 2     -1867.422          43.000                                                                  
C32  25756830.871 1 134122592.433 3     -3040.961          38.000                                                                  
C28  27172848.451 1 141496155.404 3      3145.297          38.000                                                                  
R15  23297927.332 2 124497058.724 2     -3168.492          42.000    23297922.423 4               6     -2464.056          33.000  
R09  22245556.343 1 118790034.070 2      2765.894          43.000    22245554.184 1  92392225.701 2      2150.921          44.000  
R05  24201380.063 2 129370216.964 2     -4367.856          38.000    24201379.505 2 100621300.217 3     -3397.443          38.000  
R06  20698346.556 4 110450334.900 4     -1444.987          33.000                                                                  
R16  20421371.314 2 109087315.708 3      -385.020          38.000    20421372.559 2  84845674.284 4      -299.124          37.000  
R17  23741849.384 2 127047460.438 2      1753.544          39.000    23741854.684 9               6      1363.564          32.000  
G17  23602276.597 1 124030782.100 2      1723.217          41.000    23602250.669 8               7      1342.812          27.000  
G19  24410772.284 1 128279450.642 3      3391.293          40.000                                                                  
E02  28589066.686 1 150236564.351 3      2920.248          35.000    28589062.467 1 115116306.875 2      2237.862          41.000  
G05  26118467.944 1 137253483.328 3     -3361.220          37.000    26118456.524 8               6     -2618.829          32.000  
G23  24318844.983 1 127796403.115 3       794.084          37.000    24318845.695 4  99581607.49013       618.380          38.000  
C37  23027607.989 1 119910789.787 1       671.008          45.000                                                                  
C10  40302774.184 1 209867111.088 2      -618.884          39.000    40302760.606 4 162282516.08934      -478.381          38.000  
R07  21962788.417 2               6      2758.600          33.000    21962769.312 9               7      2144.525          30.000  
R18  24895748.928 8               7      3937.903          27.000    24895713.782 9               8      3062.848          29.000  
E03  25160256.415 1 132218061.385 2      1056.595          40.000    25160252.727 1 101309909.070 1       809.656          47.000  
E05  25378464.095 1 133364724.725 2     -1766.437          43.000    25378462.134 1 102188541.183 1     -1353.740          47.000  
G20  24437342.992 1 128419102.908 2       395.498          41.000                                                                  
E24  25278964.273 1 132841863.985 2     -1286.150          39.000    25278957.558 1 101787886.02414      -985.523          40.000  
G24  22637976.301 1 118963370.905 2      2510.931          43.000    22637968.579 1  92698692.571 2      1956.907          43.000  
G30  25308276.275 1 132995888.353 2     -2802.162          39.000    25308283.293 8 103633180.914 5     -2183.795          35.000  
E25  25013296.675 1 131445777.312 2      1457.813          40.000    25013295.618 1 100718177.493 1      1116.817          49.000  
C11                                                                  26768955.165 4               6       336.989          30.000  
R24                                                                  24874422.985 8               6     -1088.415          34.000  
> 2021 03 11 09 02 40.0040000  0 34                     
G13  21646492.524 1 113753096.666 1     -1462.171          43.000                                                                  
G14  23137103.086 1 121586288.636 2     -2478.304          39.000    23137095.507 4  94742537.474 5     -1930.908          38.000  
G15  21492952.897 1 112946224.973 1       386.492          43.000    21492946.538 1  88010029.538 2       301.568          42.000  
S23  39304748.473 1 206547838.812 2       185.175          38.000  
G28  22986937.746 1 120797175.652 2     -2163.599          41.000                                                                  
S36  39118101.660 1 205567000.845 2       185.226          43.000  
C20  24068928.356 1 125333227.447 2      -575.555          44.000                                                                  
C23  24384088.190 1 126974350.930 2     -1867.357          42.000                                                                  
C32  25757414.904 1 134125633.055 3     -3041.035          38.000                                                                  
C28  27172244.615 2 141493007.64134      3144.875          39.000                                                                  
R15  23298520.251 2 124500227.189 2     -3168.779          42.000    23298515.124 4  96833480.030 5     -2464.502          34.000  
R09  22245038.391 1 118787268.422 2      2765.391          42.000    22245036.194 1  92390074.618 2      2151.205          43.000  
R05  24202197.238 2 129374584.939 3     -4368.005          38.000    24202196.656 2 100624697.501 3     -3397.356          38.000  
R06  20698616.120 4 110451779.367 4     -1445.189          33.000                                                                  
R16  20421443.597 2 109087701.136 2      -385.705          38.000    20421444.729 2  84845974.093 4      -300.074          37.000  
R17  23741521.618 2 127045707.329 3      1752.635          38.000    23741525.640 8               6      1362.406          33.000  
G17  23601948.714 1 124029058.992 2      1722.796          41.000    23601923.252 8               7      1342.801          28.000  
G19  24410127.026 1 128276059.390 2      3391.067          39.000                                                                  
E02  28588511.076 1 150233643.829 3      2920.416          35.000    28588506.509 1 115114069.089 2      2237.833          41.000  
G05  26119107.388 1 137256843.928 2     -3361.000          36.000    26119097.787 9               6     -2618.392          32.000  
G23  24318693.909 1 127795609.476 3       793.014          37.000    24318694.941 4  99580989.006 4       618.201          39.000  
C37  23027479.076 1 119910118.983 1       670.714          44.000                                                                  
C10  40302893.002 1 209867729.561 2      -618.652          39.000    40302879.148 4 162282994.32824      -478.020          37.000  
R07  21962272.337 4               6      2756.366          32.000    21962253.399 9               7      2144.495          30.000  
R18  24895011.155 8               8      3938.208          27.000    24894977.925 9               7      3063.696          28.000  
R24  24874647.222 8               9     -1400.417          28.000    24874684.488 8               6     -1089.174          33.000  
E03  25160055.251 1 132217004.905 2      1056.398          40.000    25160051.706 1 101309099.576 1       809.360          47.000  
E05  25378800.343 1 133366491.443 2     -1767.038          43.000    25378798.322 1 102189894.889 1     -1353.989          47.000  
G20  24437267.724 1 128418707.539 2       395.114          40.000                                                                  
E24  25279209.143 1 132843150.295 2     -1286.486          39.000    25279202.247 1 101788871.639 3      -985.751          40.000  
G24  22637498.543 1 118960859.606 2      2511.034          43.000    22637490.549 1  92696735.724 2      1956.718          43.000  
G30  25308809.421 1 132998690.434 2     -2802.277          38.000    25308815.196 8 103635364.360 5     -2184.164          35.000  
E25  25013019.270 1 131444319.701 2      1457.463          40.000    25013018.307 1 100717060.611 1      1116.779          49.000  
C11                                                                  26768871.654 8               9       335.977          30.000  
> 2021 03 11 09 02 41.0040000  0 34                     
G13  21646770.784 1 113754559.029 1     -1462.888          43.000                                                                  
G14  23137574.766 1 121588767.340 2     -2478.967          39.000    23137567.988 8  94744468.945 4     -1931.454          38.000  
G15  21492879.381 1 112945838.754 2       385.868          43.000    21492872.880 1  88009728.601 2       300.689          42.000  
S23  39304713.254 1 206547653.715 2       184.967          38.000  
G28  22987349.432 1 120799339.319 2     -2164.000          40.000                                                                  
S36  39118066.400 1 205566815.309 2       185.666          42.000  
C20  24069038.968 1 125333803.415 1      -576.565          44.000                                                                  
C23  24384446.844 1 126976218.537 2     -1867.739          43.000                                                                  
C32  25757998.879 1 134128673.943 3     -3040.864          39.000                                                                  
C28  27171640.696 1 141489862.44423      3145.218          38.000                                                                  
R15  23299113.219 2 124503395.806 2     -3169.064          42.000    23299104.173 8               7     -2464.462          33.000  
R09  22244520.512 1 118784503.175 2      2765.129          43.000    22244518.244 1  92387923.878 2      2150.703          44.000  
R05  24203014.479 2 129378953.087 3     -4368.015          39.000    24203013.850 2 100628094.940 4     -3397.319          38.000  
R06  20698887.459 4 110453224.744 5     -1446.240          33.000                                                                  
R16  20421515.887 2 109088087.113 2      -386.284          38.000    20421516.866 2  84846274.295 4      -300.546          36.000  
R17  23741193.938 2 127043954.977 2      1752.159          38.000    23741196.543 8               6      1362.518          32.000  
G17  23601621.050 1 124027336.456 2      1722.252          41.000    23601596.331 8               7      1341.682          28.000  
G19  24409481.783 1 128272668.445 3      3390.650          39.000                                                                  
E02  28587955.479 1 150230723.491 3      2920.106          35.000    28587950.520 1 115111831.423 3      2237.751          41.000  
G05  26119746.711 1 137260204.480 3     -3360.666          36.000    26119736.788 8               6     -2619.047          33.000  
G23  24318542.841 1 127794816.490 4       792.272          36.000    24318545.778 9  99580379.09315       618.055          39.000  
C37  23027350.297 1 119909448.520 1       670.287          44.000                                                                  
C10  40303011.767 1 209868348.138 2      -618.768          40.000    40302998.223 2 162283472.65634      -478.477          38.000  
R07  21961752.840 8               6      2756.940          32.000    21961736.383 9               9      2141.965          29.000  
R18  24894273.528 8               7      3938.971          28.000    24894239.868 8               8      3062.305          27.000  
R24  24874909.012 9               9     -1401.174          28.000    24874947.219 8               6     -1089.397          34.000  
E03  25159854.375 1 132215948.889 2      1055.828          40.000    25159850.848 1 101308290.412 1       808.800          47.000  
E05  25379136.697 1 133368258.528 1     -1767.327          43.000    25379134.700 1 102191248.888 1     -1354.172          46.000  
G20  24437192.659 1 128418312.841 2       394.016          40.000                                                                  
E24  25279453.973 1 132844436.879 2     -1286.530          39.000    25279446.842 1 101789857.475 3      -986.186          40.000  
G24  22637020.660 1 118958348.645 2      2510.767          43.000    22637012.705 1  92694779.121 2      1956.727          43.000  
G30  25309342.658 1 133001492.657 3     -2802.179          38.000    25309347.380 8               6     -2183.193          35.000  
E25  25012741.995 1 131442862.444 2      1456.947          40.000    25012740.904 1 100715944.018 1      1116.417          49.000  
C11                                                                  26768787.855 8               8       335.951          31.000  
> 2021 03 11 09 02 42.0040000  0 34                     
G13  21647049.183 1 113756021.927 2     -1463.257          43.000                                                                  
G14  23138046.592 1 121591246.426 2     -2479.595          39.000    23138037.268 8  94746400.686 3     -1931.734          38.000  
G15  21492805.949 1 112945453.201 1       384.904          43.000    21492799.365 1  88009428.169 2       299.915          42.000  
S23  39304678.118 1 206547468.605 2       185.028          38.000  
G28  22987761.213 1 120801503.339 2     -2164.390          40.000                                                                  
S36  39118031.068 1 205566629.831 2       185.111          42.000  
C20  24069149.720 1 125334379.938 1      -577.166          44.000                                                                  
C23  24384805.416 1 126978086.344 2     -1868.214          42.000                                                                  
C32  25758582.945 1 134131715.039 3     -3041.423          38.000                                                                  
C28  27171036.723 1 141486717.35623      3144.210          38.000                                                                  
R15  23299706.260 2 124506564.521 2     -3168.758          42.000    23299694.072 8               6     -2465.585          33.000  
R09  22244002.816 1 118781738.301 2      2764.458          43.000    22244000.352 1  92385773.418 2      2150.147          43.000  
R05  24203831.844 2 129383321.451 3     -4368.608          39.000    24203830.928 2 100631492.556 3     -3397.915          37.000  
R06  20699160.540 8 110454685.96135     -1446.831          33.000                                                                  
R16  20421588.397 2 109088473.656 2      -387.112          38.000    20421589.125 2  84846574.949 4      -301.246          36.000  
R17  23740866.423 2 127042203.466 3      1751.169          38.000    23740867.168 8               6      1360.820          33.000  
G17  23601293.497 1 124025614.467 2      1721.584          41.000    23601268.167 8               7      1341.550          28.000  
G19  24408836.449 1 128269277.816 3      3390.015          38.000                                                                  
E02  28587399.854 1 150227803.294 3      2919.960          35.000                                                                  
G05  26120386.183 1 137263565.011 3     -3360.823          36.000    26120376.472 9               7     -2619.152          32.000  
G23  24318391.880 1 127794024.160 3       791.751          37.000    24318396.187 9  99579761.730 4       616.517          39.000  
C37  23027221.761 1 119908778.409 2       669.737          45.000                                                                  
C10  40303130.539 1 209868966.753 3      -618.787          39.000    40303116.409 4 162283947.99425      -478.193          37.000  
R07  21961233.321 8               7      2757.422          28.000    21961218.394 9               7      2142.902          29.000  
R18  24893533.756 8               8      3937.958          29.000    24893500.333 9               9      3062.279          26.000  
R24  24875169.103 9               9     -1401.647          28.000    24875209.090 8 103459160.82535     -1091.055          32.000  
E03  25159653.531 1 132214893.280 2      1055.098          40.000    25159650.090 1 101307481.555 2       808.627          46.000  
E05  25379473.135 1 133370025.983 1     -1767.871          43.000    25379471.060 1 102192603.168 1     -1354.499          46.000  
G20  24437117.709 1 128417918.789 2       393.439          40.000                                                                  
E24  25279699.022 1 132845723.757 2     -1287.227          40.000    25279692.176 1 101790843.506 3      -986.297          39.000  
G24  22636542.868 1 118955837.976 1      2510.562          43.000    22636534.971 1  92692822.782 2      1955.938          43.000  
G30  25309875.747 1 133004294.986 3     -2802.554          38.000    25309879.066 8               6     -2184.045          35.000  
E25  25012464.816 1 131441405.551 2      1456.241          40.000    25012463.705 1 100714827.664 1      1116.062          48.000  
C11                                                                  26768704.087 4               8       335.948          27.000  
> 2021 03 11 09 02 43.0040000  0 34                     
G13  21647327.732 1 113757485.425 2     -1463.960          43.000                                                                  
G14  23138518.404 1 121593725.924 2     -2479.773          39.000    23138510.188 8  94748330.78415     -1932.579          38.000  
G15  21492732.717 1 112945068.355 1       384.391          43.000    21492726.027 1  88009128.299 2       299.211          42.000  
S23  39304643.043 1 206547283.604 2       184.888          38.000  
G28  22988173.091 1 120803667.813 2     -2165.365          40.000                                                                  
S36  39117995.775 1 205566444.361 2       185.132          42.000  
C20  24069260.559 1 125334957.126 1      -577.791          44.000                                                                  
C23  24385164.046 1 126979954.391 2     -1868.179          43.000                                                                  
C32  25759167.147 1 134134756.407 3     -3041.823          38.000                                                                  
C28  27170432.658 1 141483572.33723      3144.766          38.000                                                                  
R15  23300299.302 2 124509733.456 2     -3169.436          45.000    23300286.137 8  96840849.27035     -2465.208          33.000  
R09  22243485.030 1 118778973.870 2      2764.078          45.000    22243482.609 1  92383623.306 2      2149.794          43.000  
R05  24204649.020 2 129387690.020 3     -4368.636          41.000    24204648.076 2 100634890.353 4     -3398.542          36.000  
R06  20699430.319 8 110456133.176 5     -1447.835          36.000                                                                  
R16  20421661.051 2 109088860.801 2      -387.746          41.000    20421659.040 8  84846872.56335      -301.814          36.000  
R17  23740538.980 2 127040452.780 3      1750.274          40.000    23740542.469 8               6      1360.994          30.000  
G17  23600966.037 1 124023893.089 2      1720.798          41.000    23600939.083 9               9      1341.056          29.000  
G19  24408191.241 1 128265887.514 3      3389.820          39.000                                                                  
E02  28586844.296 1 150224883.274 3      2919.693          35.000    28586839.114 9               6      2237.165          40.000  
G05  26121025.463 1 137266925.555 3     -3360.698          36.000    26121013.533 8               6     -2619.173          33.000  
G23  24318241.174 1 127793232.576 3       791.337          37.000    24318243.579 9  99579144.912 4       616.434          38.000  
C37  23027093.174 1 119908108.680 1       669.290          45.000                                                                  
C10  40303249.299 1 209869585.507 2      -618.964          39.000    40303235.008 4 162284426.44624      -478.491          38.000  
R07  21960714.879 8               7      2755.396          29.000    21960703.515 9               7      2142.543          28.000  
R18  24892791.763 8               8      3937.274          28.000    24892754.986 9               9      3065.383          26.000  
R24  24875428.644 9               8     -1403.269          28.000    24875473.095 8               6     -1091.727          33.000  
E03  25159452.649 1 132213838.161 2      1054.625          40.000    25159449.302 1 101306673.100 1       807.992          47.000  
E05  25379809.346 1 133371793.854 1     -1768.070          43.000    25379807.349 1 102193957.778 1     -1354.840          46.000  
G20  24437042.761 1 128417525.464 2       392.501          41.000                                                                  
E24  25279943.885 1 132847010.977 2     -1287.925          39.000    25279936.884 9               6      -986.758          40.000  
G24  22636065.073 1 118953327.717 1      2509.894          43.000    22636057.296 1  92690866.725 2      1955.686          43.000  
G30  25310409.029 1 133007097.531 3     -2803.613          38.000    25310409.515 8 103641895.32615     -2184.619          35.000  
E25  25012187.677 1 131439949.019 2      1455.946          40.000    25012186.557 1 100713711.638 1      1115.651          48.000  
C11                                                                  26768622.372 8               8       335.446          29.000  
> 2021 03 11 09 02 44.0040000  0 34                     
G13  21647606.243 1 113758949.454 2     -1464.396          43.000                                                                  
G14  23138990.279 1 121596205.761 3     -2479.811          39.000    23138983.757 4  94750263.112 3     -1932.210          39.000  
G15  21492659.618 1 112944684.142 1       384.110          43.000    21492652.819 1  88008828.890 2       299.346          43.000  
S23  39304607.942 1 206547098.566 2       185.291          38.000  
G28  22988585.021 1 120805832.552 2     -2164.877          40.000                                                                  
S36  39117960.447 1 205566258.845 2       185.463          42.000  
C20  24069371.656 1 125335534.863 1      -578.031          44.000                                                                  
C23  24385522.956 1 126981822.625 2     -1867.955          43.000                                                                  
C32  25759751.453 1 134137797.949 3     -3041.415          38.000                                                                  
C28  27169828.832 1 141480427.37823      3145.073          38.000                                                                  
R15  23300892.370 2 124512902.393 2     -3168.896          42.000    23300878.821 8  96843312.96835     -2464.736          34.000  
R09  22242967.441 1 118776209.788 2      2763.938          42.000    22242964.957 1  92381473.472 2      2149.776          44.000  
R05  24205466.448 2 129392058.748 2     -4368.778          39.000    24205465.158 2 100638288.216 4     -3397.541          38.000  
R06  20699701.198 8 110457581.193 5     -1448.997          32.000                                                                  
R16  20421733.832 2 109089248.414 3      -387.402          38.000    20421729.973 8  84847174.02125      -301.188          36.000  
R17  23740211.796 2 127038702.845 3      1749.606          37.000    23740216.263 8               6      1360.167          32.000  
G17  23600638.672 1 124022172.224 2      1720.974          41.000    23600610.679 8               7      1340.569          24.000  
G19  24407546.095 1 128262497.494 3      3390.036          38.000                                                                  
E02  28586288.677 1 150221963.343 3      2920.430          35.000    28586283.516 8 115105117.14113      2237.255          41.000  
G05  26121664.877 1 137270286.037 3     -3361.070          36.000    26121652.770 8               6     -2618.681          33.000  
G23  24318090.666 1 127792441.621 3       790.998          37.000    24318094.228 8  99578528.578 4       616.133          39.000  
C37  23026964.555 1 119907439.240 1       669.267          45.000                                                                  
C10  40303368.106 1 209870204.298 3      -618.606          39.000    40303353.649 4 162284903.45634      -478.549          38.000  
R07  21960198.423 8               7      2754.449          29.000    21960184.910 9               7      2142.175          28.000  
R18  24892050.223 8               9      3937.365          27.000    24892011.917 9               9      3060.852          26.000  
R24  24875688.897 8               8     -1403.034          28.000    24875735.030 8 103461348.18035     -1091.086          34.000  
E03  25159251.916 1 132212783.415 2      1054.843          40.000    25159248.500 1 101305864.918 1       808.127          47.000  
E05  25380145.976 1 133373562.077 1     -1768.229          43.000    25380143.697 1 102195312.649 2     -1354.913          47.000  
G20  24436968.038 1 128417132.768 2       392.495          41.000                                                                  
E24  25280188.952 1 132848298.403 2     -1287.512          40.000    25280182.169 8 101792816.29314      -986.684          41.000  
G24  22635587.454 1 118950817.681 2      2510.225          43.000    22635579.621 1  92688910.857 3      1955.807          43.000  
G30  25310942.247 1 133009900.086 3     -2802.443          38.000    25310945.187 8               6     -2183.577          35.000  
E25  25011910.629 1 131438492.786 2      1456.258          40.000    25011909.256 1 100712595.830 1      1115.797          49.000  
C11                                                                  26768539.167 8               6       334.120          30.000  
> 2021 03 11 09 02 45.0040000  0 34                     
G13  21647884.961 1 113760413.944 2     -1465.171          43.000                                                                  
G14  23139462.164 1 121598685.935 2     -2480.722          39.000    23139457.133 4  94752208.69915     -1932.461          38.000  
G15  21492586.580 1 112944300.534 1       382.841          43.000    21492579.670 1  88008529.990 2       298.197          41.000  
S23  39304572.655 1 206546913.526 3       185.144          38.000  
G28  22988997.025 1 120807997.598 2     -2165.362          41.000                                                                  
S36  39117925.185 1 205566073.333 2       185.117          42.000  
C20  24069482.790 1 125336113.115 1      -578.999          43.000                                                                  
C23  24385881.639 1 126983690.992 2     -1868.586          42.000                                                                  
C32  25760335.724 1 134140839.643 3     -3041.921          38.000                                                                  
C28  27169225.027 1 141477281.94213      3144.324          38.000                                                                  
R15  23301485.395 1 124516071.395 2     -3169.323          42.000    23301470.294 8  96845771.76825     -2465.059          34.000  
R09  22242449.834 2 118773446.049 2      2763.255          42.000    22242447.581 1  92379323.896 2      2149.257          43.000  
R05  24206283.750 2 129396427.548 3     -4368.924          39.000    24206282.299 2 100641686.174 4     -3398.200          35.000  
R06  20699973.568 8 110459025.00435     -1449.860          32.000                                                                  
R16  20421806.536 2 109089636.470 3      -388.413          38.000    20421802.875 8  84847475.35814      -302.693          36.000  
R17  23739884.801 2 127036953.681 2      1748.309          37.000    23739888.698 8               6      1359.456          31.000  
G17  23600311.243 1 124020451.862 2      1719.983          41.000    23600282.088 8               7      1340.641          27.000  
G19  24406900.990 1 128259107.754 3      3388.958          38.000                                                                  
E02  28585732.943 1 150219043.547 3      2919.451          35.000    28585728.233 4 115102879.866 3      2237.006          40.000  
G05  26122304.316 1 137273646.365 3     -3360.326          36.000    26122296.091 8               7     -2619.648          32.000  
G23  24317940.248 1 127791651.311 3       789.770          37.000    24317943.502 4  99577912.750 3       615.276          38.000  
C37  23026836.157 1 119906770.087 1       668.501          44.000                                                                  
C10  40303486.987 1 209870823.068 2      -619.449          39.000    40303473.009 4 162285384.43324      -479.093          38.000  
R07  21959681.883 8               7      2753.407          28.000    21959669.091 9               7      2141.533          29.000  
R18  24891310.926 9               9      3936.786          26.000    24891275.715 9               7      3062.512          26.000  
R24  24875950.476 8               7     -1404.476          28.000    24875997.176 8 103462439.04625     -1092.285          32.000  
E03  25159051.190 1 132211729.052 2      1054.002          40.000    25159047.881 1 101305057.029 1       807.494          47.000  
E05  25380482.776 1 133375330.611 1     -1769.095          43.000    25380480.188 1 102196667.750 2     -1355.331          46.000  
G20  24436893.535 1 128416740.669 2       391.483          41.000                                                                  
E24  25280434.088 1 132849586.062 2     -1288.129          40.000    25280426.922 4 101793802.948 3      -987.226          40.000  
G24  22635109.843 1 118948307.914 2      2509.191          43.000    22635101.996 1  92686955.180 2      1955.309          42.000  
G30  25311475.549 1 133012702.744 3     -2802.990          38.000    25311478.762 8 103646263.021 5     -2184.267          34.000  
E25  25011633.742 1 131437036.857 2      1455.324          40.000    25011632.291 1 100711480.237 1      1115.341          48.000  
C11                                                                  26768455.000 8               7       334.957          31.000  
> 2021 03 11 09 02 46.0040000  0 34                     
G13  21648163.706 1 113761879.001 1     -1465.567          43.000                                                                  
G14  23139934.216 1 121601166.453 3     -2480.762          39.000    23139928.659 8  94754141.634 4     -1933.748          37.000  
G15  21492513.663 1 112943917.595 2       382.449          43.000    21492506.726 1  88008231.576 2       298.099          41.000  
S23  39304537.522 1 206546728.492 3       185.065          38.000  
G28  22989409.122 1 120810163.049 2     -2165.902          41.000                                                                  
S36  39117889.887 1 205565887.995 2       184.956          42.000  
C20  24069593.976 1 125336691.968 1      -579.295          44.000                                                                  
C23  24386240.453 1 126985559.572 2     -1868.874          42.000                                                                  
C32  25760920.065 1 134143881.585 3     -3042.006          39.000                                                                  
C28  27168621.077 1 141474137.054 3      3144.691          38.000                                                                  
R15  23302078.529 1 124519240.540 2     -3169.596          42.000    23302064.627 8  96848236.65225     -2464.577          34.000  
R09  22241932.329 2 118770682.712 2      2762.958          42.000    22241930.143 1  92377174.628 2      2149.080          43.000  
R05  24207101.096 2 129400796.537 3     -4369.028          39.000    24207099.604 2 100645084.261 4     -3398.009          35.000  
R06  20700245.902 8 110460478.25935     -1450.513          32.000                                                                  
R16  20421879.353 2 109090025.058 3      -389.083          38.000    20421875.723 8  84847777.579 4      -302.419          36.000  
R17  23739557.954 2 127035205.311 3      1747.601          38.000    23739560.412 8               6      1359.820          31.000  
G17  23599983.916 1 124018732.076 2      1719.230          41.000    23599955.222 8               9      1339.754          26.000  
G19  24406255.849 1 128255718.293 3      3388.889          38.000                                                                  
E02  28585177.276 1 150216123.862 3      2919.606          35.000    28585172.597 2 115100642.725 2      2236.909          41.000  
G05  26122943.741 1 137277006.712 3     -3360.429          36.000    26122937.003 9               7     -2618.043          32.000  
G23  24317790.011 1 127790861.679 3       789.043          37.000    24317792.900 2  99577297.442 4       615.106          37.000  
C37  23026707.716 1 119906101.260 1       668.376          45.000                                                                  
C10  40303605.798 1 209871441.895 3      -619.102          39.000    40303591.575 4 162285861.93624      -478.450          38.000  
R07  21959168.107 8               7      2752.139          28.000    21959157.285 9               6      2141.054          29.000  
R18  24890569.311 9               9      3935.468          25.000    24890537.958 9               7      3062.305          26.000  
R24  24876212.566 8               7     -1405.251          28.000    24876260.491 8               6     -1092.990          33.000  
E03  25158850.595 1 132210675.136 2      1053.453          40.000    25158847.333 1 101304249.482 1       807.142          47.000  
E05  25380819.499 1 133377099.515 1     -1769.199          44.000    25380816.902 1 102198023.157 2     -1355.838          47.000  
G20  24436819.121 1 128416349.248 2       390.859          41.000                                                                  
E24  25280679.176 1 132850874.003 2     -1288.334          40.000    25280672.258 2 101794790.80914      -987.199          40.000  
G24  22634632.367 1 118945798.430 1      2509.170          43.000    22634624.456 1  92684999.752 2      1955.023          42.000  
G30  25312008.826 1 133015505.517 3     -2802.928          38.000    25312011.659 8               6     -2184.663          34.000  
E25  25011356.730 1 131435581.258 2      1455.401          40.000    25011355.259 1 100710364.922 1      1115.081          49.000  
C11                                                                  26768371.694 8               7       334.077          32.000  
> 2021 03 11 09 02 47.0040000  0 34                     
G13  21648442.581 1 113763344.690 1     -1466.196          45.000                                                                  
G14  23140406.336 1 121603647.455 3     -2481.280          40.000    23140398.645 4  94756074.848 4     -1933.653          38.000  
G15  21492441.017 1 112943535.403 1       381.790          45.000    21492433.938 1  88007933.775 2       297.433          41.000  
S23  39304502.401 1 206546543.577 3       184.631          40.000  
G28  22989821.279 1 120812328.915 2     -2166.117          42.000                                                                  
S36  39117854.625 1 205565702.761 2       185.231          43.000  
C20  24069705.238 1 125337271.513 1      -580.157          44.000                                                                  
C23  24386599.315 1 126987428.437 2     -1869.320          43.000                                                                  
C32  25761504.438 1 134146923.823 3     -3042.444          39.000                                                                  
C28  27168017.047 1 141470992.351 3      3144.632          38.000                                                                  
R15  23302671.726 2 124522409.885 2     -3169.614          42.000    23302656.769 8               6     -2465.375          34.000  
R09  22241414.913 2 118767919.864 2      2762.331          42.000    22241412.824 1  92375025.744 2      2148.453          43.000  
R05  24207918.577 2 129405165.833 3     -4369.737          39.000    24207916.851 2 100648482.608 4     -3398.643          35.000  
R06  20700515.718 4               6     -1451.686          33.000                                                                  
R16  20421952.311 2 109090414.227 3      -389.665          38.000    20421951.555 4  84848080.266 4      -303.150          36.000  
R17  23739231.209 2 127033457.808 3      1746.820          38.000    23739233.961 8               7      1358.147          30.000  
G17  23599656.820 1 124017012.927 2      1718.636          42.000    23599628.080 8               7      1339.160          27.000  
G19  24405610.871 1 128252329.241 3      3388.318          40.000                                                                  
E02  28584621.639 1 150213204.456 3      2918.699          35.000    28584616.601 2 115098405.75814      2236.833          40.000  
G05  26123583.151 1 137280367.105 3     -3360.849          38.000    26123576.082 8               6     -2619.392          33.000  
G23  24317639.869 1 127790072.821 2       788.127          39.000    24317642.483 1  99576682.737 4       614.381          39.000  
C37  23026579.436 1 119905432.884 1       667.819          45.000                                                                  
C10  40303724.645 1 209872060.911 3      -619.342          39.000    40303710.616 4 162286341.09835      -478.813          38.000  
R07  21958654.270 8               8      2751.347          28.000    21958645.145 9               7      2139.673          27.000  
R18  24889832.927 9               9      3936.206          25.000    24889801.819 8               8      3062.042          27.000  
R24  24876474.152 8               7     -1406.094          29.000    24876520.473 8 103464615.64535     -1093.442          33.000  
E03  25158650.314 1 132209621.726 2      1052.946          41.000    25158646.842 1 101303442.309 1       806.917          46.000  
E05  25381156.164 1 133378868.882 1     -1769.700          45.000    25381153.552 1 102199378.901 1     -1356.038          47.000  
G20  24436744.765 1 128415958.586 2       389.832          42.000                                                                  
E24  25280924.269 1 132852162.321 2     -1288.678          40.000    25280917.150 2 101795777.957 3      -987.436          40.000  
G24  22634154.855 1 118943289.356 1      2508.759          44.000    22634146.911 1  92683044.627 2      1954.934          42.000  
G30  25312542.151 1 133018308.498 3     -2803.154          40.000    25312542.337 8 103650629.12615     -2184.281          35.000  
E25  25011079.950 1 131434126.115 2      1454.769          41.000    25011078.372 1 100709249.935 1      1114.662          48.000  
C11                                                                  26768290.158 4               7       333.850          31.000  
> 2021 03 11 09 02 48.0040000  0 34                     
G13  21648721.559 1 113764810.918 1     -1466.382          44.000                                                                  
G14  23140878.576 1 121606128.817 2     -2481.530          40.000    23140873.520 4  94758008.366 3     -1933.625          38.000  
G15  21492368.567 1 112943153.861 1       381.259          44.000    21492361.207 1  88007636.468 2       297.017          41.000  
S23  39304467.226 1 206546358.647 2       185.101          39.000  
G28  22990233.449 1 120814495.146 2     -2166.499          42.000                                                                  
S36  39117819.358 1 205565517.638 1       185.165          44.000  
C20  24069816.794 1 125337851.608 1      -580.320          44.000                                                                  
C23  24386958.173 1 126989297.484 2     -1869.286          42.000                                                                  
C32  25762088.865 1 134149966.257 3     -3042.543          39.000                                                                  
C28  27167413.223 1 141467847.697 3      3144.796          38.000                                                                  
R15  23303264.884 1 124525579.288 2     -3169.219          44.000    23303252.560 8  96853167.32135     -2465.341          33.000  
R09  22240897.471 1 118765157.385 2      2762.174          45.000    22240895.446 1  92372877.152 2      2148.506          43.000  
R05  24208736.113 2 129409535.283 2     -4369.207          42.000    24208728.261 8 100651853.06635     -3398.492          35.000  
R06  20700786.509 4 110463369.52125     -1451.960          35.000                                                                  
R16  20422025.272 2 109090803.927 3      -389.885          41.000    20422024.409 4  84848383.359 4      -303.064          36.000  
R17  23738904.602 2 127031711.063 2      1746.392          41.000    23738907.309 8               7      1358.333          30.000  
G17  23599329.799 1 124015294.306 2      1718.465          42.000    23599301.399 8               7      1340.052          27.000  
G19  24404965.969 1 128248940.462 2      3388.409          39.000                                                                  
E02  28584066.151 1 150210285.117 3      2919.327          36.000    28584061.134 2 115096168.882 4      2236.829          40.000  
G05  26124222.566 1 137283727.384 3     -3359.958          37.000    26124214.659 8               6     -2619.077          32.000  
G23  24317490.000 1 127789284.582 3       788.443          39.000    24317492.018 1  99576068.557 4       614.093          38.000  
C37  23026451.089 1 119904764.796 1       668.012          44.000                                                                  
C10  40303843.460 1 209872679.933 3      -618.798          39.000    40303829.767 4 162286820.79424      -478.890          37.000  
R07  21958139.088 8               7      2750.238          29.000    21958129.450 8               7      2139.722          29.000  
R18  24889096.241 9               7      3937.146          27.000    24889062.958 8               9      3062.024          27.000  
R24  24876735.490 8               8     -1406.940          33.000    24876782.674 8 103465709.41725     -1093.961          33.000  
E03  25158449.745 1 132208568.717 2      1053.042          41.000    25158446.402 1 101302635.457 1       806.822          46.000  
E05  25381492.890 1 133380638.602 1     -1769.792          45.000    25381490.330 1 102200734.912 1     -1355.989          46.000  
G20  24436670.501 1 128415568.540 2       389.716          42.000                                                                  
E24  25281169.392 1 132853450.897 2     -1288.688          41.000    25281162.673 2 101796765.29414      -987.314          39.000  
G24  22633677.382 1 118940780.566 1      2508.779          45.000    22633669.526 1  92681089.719 2      1954.927          42.000  
G30  25313075.552 1 133021111.573 2     -2802.869          39.000    25313077.600 8 103652813.362 5     -2183.870          34.000  
E25  25010802.933 1 131432671.279 2      1454.796          41.000    25010801.557 1 100708135.191 1      1114.699          48.000  
C11                                                                  26768207.113 9               9       332.031          31.000  
> 2021 03 11 09 02 49.0040000  0 34                     
G13  21649000.559 1 113766277.528 1     -1466.624          43.000                                                                  
G14  23141350.797 1 121608610.384 2     -2481.535          38.000    23141344.560 4  94759942.073 3     -1933.852          38.000  
G15  21492296.089 1 112942772.840 1       380.811          43.000    21492288.647 1  88007339.568 2       296.684          42.000  
S23  39304432.041 1 206546173.625 3       185.272          37.000  
G28  22990645.717 1 120816661.561 2     -2166.688          40.000                                                                  
S36  39117783.997 1 205565332.400 2       185.792          42.000  
C20  24069928.225 1 125338432.156 1      -580.870          44.000                                                                  
C23  24387317.165 1 126991166.576 2     -1869.128          43.000                                                                  
C32  25762673.266 1 134153008.772 2     -3042.445          39.000                                                                  
C28  27166809.428 1 141464703.013 3      3144.362          38.000                                                                  
R15  23303858.053 1 124528748.681 2     -3169.697          43.000    23303845.578 8  96855643.88535     -2465.312          35.000  
R09  22240380.096 1 118762395.152 2      2761.945          43.000    22240378.173 1  92370728.745 2      2148.239          45.000  
R05  24209553.600 2 129413904.823 2     -4369.631          41.000    24209546.088 8 100655251.598 4     -3398.549          35.000  
R06  20701059.869 4 110464821.86525     -1452.560          33.000                                                                  
R16  20422098.365 2 109091194.018 2      -390.362          40.000    20422097.129 8  84848692.77335      -303.511          36.000  
R17  23738578.196 2 127029964.968 2      1745.589          40.000    23738577.526 8               6      1356.933          29.000  
G17  23599002.897 1 124013576.114 2      1717.892          40.000    23598973.685 8               9      1339.248          27.000  
G19  24404321.133 1 128245551.814 2      3388.562          38.000                                                                  
E02  28583510.764 1 150207365.797 4      2919.394          34.000    28583506.014 2 115093931.997 3      2236.772          40.000  
G05  26124861.875 1 137287087.531 3     -3360.171          35.000    26124854.012 8               8     -2618.377          32.000  
G23  24317340.094 1 127788496.920 3       787.401          37.000    24317341.748 1  99575454.780 4       613.379          38.000  
C37  23026322.846 1 119904096.920 1       667.704          45.000                                                                  
C10  40303962.310 1 209873298.891 3      -619.294          39.000    40303947.998 2 162287299.39523      -478.794          37.000  
R07  21957624.964 4               8      2750.781          28.000    21957616.495 8               7      2139.362          32.000  
R18  24888361.306 8               9      3936.596          26.000    24888324.141 8               9      3061.725          27.000  
R24  24876997.982 8               9     -1407.443          29.000    24877045.164 8               6     -1094.579          33.000  
E03  25158249.395 1 132207515.985 2      1052.475          39.000    25158246.147 1 101301828.831 1       806.484          47.000  
E05  25381829.671 1 133382408.552 1     -1770.060          43.000    25381826.961 1 102202091.114 2     -1356.262          46.000  
G20  24436596.442 1 128415179.040 2       389.195          41.000                                                                  
E24  25281414.724 1 132854739.599 2     -1288.838          39.000    25281407.492 2 101797752.742 3      -987.344          39.000  
G24  22633199.987 1 118938271.931 1      2508.605          43.000    22633192.179 1  92679134.940 2      1954.751          43.000  
G30  25313608.938 1 133023914.628 3     -2802.683          37.000    25313610.407 8 103655002.55415     -2184.061          36.000  
E25  25010526.261 1 131431216.654 2      1454.431          40.000    25010524.724 1 100707020.603 1      1114.517          48.000  
C11                                                                  26768123.637 8               7       332.772          31.000  
> 2021 03 11 09 02 50.0040000  0 34                     
G13  21649279.706 1 113767744.703 2     -1467.354          43.000                                                                  
G14  23141823.042 1 121611092.354 3     -2482.035          39.000    23141817.533 4  94761876.062 3     -1933.888          38.000  
G15  21492223.638 1 112942392.487 1       380.054          44.000    21492216.109 1  88007043.189 2       296.394          42.000  
S23  39304396.970 1 206545988.627 2       185.065          38.000  
G28  22991058.013 1 120818828.350 2     -2166.895          41.000                                                                  
S36  39117748.730 1 205565147.140 2       185.438          42.000  
C20  24070039.901 1 125339013.288 1      -581.189          43.000                                                                  
C23  24387676.167 1 126993035.882 2     -1869.233          42.000                                                                  
C32  25763257.685 1 134156051.508 3     -3042.631          39.000                                                                  
C28  27166205.551 1 141461558.366 3      3144.630          38.000                                                                  
R15  23304451.105 2 124531918.173 2     -3169.398          42.000    23304439.580 8  96858109.04525     -2464.858          35.000  
R09  22239862.886 2 118759633.324 2      2761.744          41.000    22239861.056 1  92368580.654 1      2148.008          44.000  
R05  24210371.101 2 129418274.549 2     -4369.610          39.000    24210363.725 8 100658650.261 5     -3398.459          36.000  
R06  20701333.880 8 110466283.59435     -1453.118          32.000                                                                  
R16  20422171.577 2 109091584.639 3      -390.501          38.000    20422169.990 8  84848996.59624      -303.931          37.000  
R17  23738251.887 2 127028219.698 2      1744.665          39.000    23738250.208 9               7      1356.696          29.000  
G17  23598676.153 1 124011858.454 2      1717.653          41.000    23598648.595 8               7      1337.988          27.000  
G19  24403676.390 1 128242163.480 3      3388.420          38.000                                                                  
E02  28582955.279 1 150204446.649 3      2919.042          35.000    28582950.109 2 115091695.233 3      2237.033          41.000  
G05  26125501.108 1 137290447.615 3     -3360.139          36.000    26125493.368 8               7     -2617.667          32.000  
G23  24317190.295 1 127787709.918 2       786.807          38.000    24317191.673 1  99574841.539 4       612.875          38.000  
C37  23026194.716 1 119903429.366 1       667.611          44.000                                                                  
C10  40304081.173 1 209873917.895 2      -618.827          39.000    40304065.459 2 162287778.03823      -478.378          39.000  
R07  21957111.450 4               9      2750.441          28.000    21957101.129 8               7      2138.708          32.000  
R18  24887624.802 8               9      3935.626          26.000    24887586.118 9               7      3060.553          28.000  
R24  24877262.352 8               9     -1407.330          30.000    24877306.569 8               6     -1095.107          34.000  
E03  25158048.993 1 132206463.693 2      1052.402          40.000    25158045.951 1 101301022.535 1       806.272          47.000  
E05  25382166.704 1 133384178.879 1     -1770.402          44.000    25382163.867 1 102203447.598 1     -1356.517          47.000  
G20  24436522.455 1 128414790.196 2       388.933          41.000                                                                  
E24  25281660.173 1 132856028.575 2     -1288.769          40.000    25281653.240 1 101798740.432 3      -987.930          40.000  
G24  22632722.719 1 118935763.593 1      2508.156          43.000    22632714.885 1  92677180.387 2      1954.600          43.000  
G30  25314142.334 1 133026717.812 2     -2803.017          38.000    25314145.578 8 103657186.881 5     -2184.529          35.000  
E25  25010249.569 1 131429762.355 2      1454.358          40.000    25010247.994 1 100705906.275 1      1114.393          49.000  
C11                                                                  26768041.789 4               7       332.618          32.000  
> 2021 03 11 09 02 51.0040000  0 34                     
G13  21649558.949 1 113769212.341 2     -1468.191          45.000                                                                  
G14  23142295.429 1 121613574.600 3     -2482.722          41.000    23142290.359 4  94763810.28814     -1934.562          37.000  
G15  21492151.412 1 112942012.712 2       379.407          45.000    21492143.675 1  88006747.271 3       295.386          41.000  
S23  39304361.811 1 206545803.565 2       184.625          40.000  
G28  22991470.442 1 120820995.403 2     -2167.531          43.000                                                                  
S36  39117713.548 1 205564961.647 2       185.416          45.000  
C20  24070151.672 1 125339594.937 1      -582.127          43.000                                                                  
C23  24388035.133 1 126994905.315 2     -1869.841          42.000                                                                  
C32  25763842.211 1 134159094.373 3     -3042.946          39.000                                                                  
C28  27165601.741 1 141458413.692 3      3144.683          37.000                                                                  
R15  23305044.219 2 124535087.745 2     -3169.777          42.000    23305032.233 8               6     -2465.167          34.000  
R09  22239345.641 2 118756871.789 2      2761.351          41.000    22239343.894 1  92366432.799 2      2147.579          44.000  
R05  24211188.715 2 129422644.357 2     -4370.222          39.000    24211181.074 8 100662048.97225     -3398.428          34.000  
R06  20701606.546 8               6     -1454.405          33.000                                                                  
R16  20422244.936 2 109091975.671 2      -391.268          38.000    20422243.764 8  84849300.733 4      -304.522          36.000  
R17  23737925.738 2 127026475.145 2      1744.203          39.000    23737921.762 9               6      1356.195          29.000  
G17  23598349.431 1 124010141.296 2      1716.620          42.000    23598322.075 8               8      1338.061          27.000  
G19  24403031.613 1 128238775.388 2      3387.776          40.000                                                                  
E02  28582399.785 1 150201527.536 3      2918.761          37.000    28582395.138 2 115089460.53614      2236.495          39.000  
G05  26126140.462 1 137293807.560 3     -3359.641          36.000    26126132.038 8               7     -2618.299          31.000  
G23  24317040.682 1 127786923.527 3       786.011          40.000    24317040.890 4  99574216.75215       612.880          37.000  
C37  23026066.635 1 119902762.089 1       666.940          45.000                                                                  
C10  40304199.976 1 209874536.868 3      -618.913          38.000    40304186.023 2 162288256.683 3      -478.678          37.000  
R07  21956597.801 4               9      2749.163          27.000    21956585.466 8               7      2138.647          30.000  
R18  24886887.365 9               9      3935.411          24.000    24886847.198 8               8      3060.889          27.000  
R24  24877527.170 8               7     -1408.759          29.000    24877568.778 8               6     -1096.130          31.000  
E03  25157848.839 1 132205411.746 2      1051.656          41.000    25157845.811 1 101300216.493 1       805.779          46.000  
E05  25382503.671 1 133385949.485 1     -1770.885          46.000    25382500.804 1 102204804.295 1     -1356.910          46.000  
G20  24436448.697 1 128414401.950 2       387.672          42.000                                                                  
E24  25281905.594 1 132857317.771 2     -1289.720          41.000    25281898.546 1 101799728.224 3      -988.134          39.000  
G24  22632245.414 1 118933255.487 1      2507.874          44.000    22632237.600 1  92675226.022 2      1954.149          42.000  
G30  25314675.661 1 133029521.009 2     -2803.227          39.000    25314679.514 8 103659380.17114     -2184.594          34.000  
E25  25009973.082 1 131428308.338 2      1453.626          42.000    25009971.250 1 100704792.155 1      1113.732          48.000  
C11                                                                  26767958.313 4               6       332.090          29.000  
> 2021 03 11 09 02 52.0040000  0 34                     
G13  21649838.276 1 113770680.482 2     -1468.343          45.000                                                                  
G14  23142767.866 1 121616057.167 2     -2482.638          40.000    23142762.691 2  94765744.749 4     -1934.469          38.000  
G15  21492079.171 1 112941633.571 1       378.896          45.000    21492071.401 1  88006451.825 2       295.260          42.000  
S23  39304326.615 1 206545618.443 2       185.370          39.000  
G28  22991882.894 1 120823162.773 2     -2167.312          42.000                                                                  
S36  39117678.250 1 205564776.072 2       185.491          44.000  
C20  24070263.511 1 125340177.130 2      -582.579          44.000                                                                  
C23  24388394.092 1 126996774.890 2     -1869.521          43.000                                                                  
C32  25764426.726 1 134162137.436 2     -3043.302          40.000                                                                  
C28  27164997.865 1 141455269.077 3      3144.972          38.000                                                                  
R15  23305637.393 2 124538257.403 2     -3169.686          42.000    23305627.922 8  96863039.02115     -2464.593          32.000  
R09  22238828.545 2 118754110.623 2      2761.176          41.000    22238826.723 1  92364285.211 2      2147.615          43.000  
R05  24212006.295 2 129427014.256 2     -4369.767          39.000    24211995.452 8 100665447.80525     -3398.956          34.000  
R06  20701877.606 8               6     -1454.803          32.000                                                                  
R16  20422318.238 2 109092367.172 3      -391.745          38.000    20422316.844 8  84849605.228 4      -304.665          35.000  
R17  23737599.750 2 127024731.372 3      1743.499          39.000    23737595.168 8               6      1356.227          28.000  
G17  23598022.768 1 124008424.636 2      1716.546          42.000    23597996.585 8               7      1337.635          28.000  
G19  24402386.944 1 128235387.546 2      3388.131          40.000                                                                  
E02  28581844.146 1 150198608.531 3      2919.198          36.000    28581839.465 1 115087223.886 3      2236.747          40.000  
G05  26126779.825 1 137297167.501 3     -3360.263          37.000    26126769.909 8               6     -2618.249          32.000  
G23  24316891.319 1 127786137.776 3       785.234          40.000    24316891.618 4  99573604.481 3       611.988          38.000  
C37  23025938.689 1 119902095.088 1       667.072          45.000                                                                  
C10  40304318.942 1 209875155.874 3      -618.878          39.000    40304305.825 2 162288737.32634      -478.548          37.000  
R07  21956084.068 4               9      2748.823          26.000    21956072.738 8               7      2138.074          30.000  
R18  24886148.884 9               9      3936.726          23.000    24886109.386 9               9      3060.161          26.000  
R24  24877790.536 8               7     -1409.423          29.000    24877833.676 8               6     -1095.592          32.000  
E03  25157648.709 1 132204360.188 2      1051.608          40.000    25157645.750 1 101299410.752 1       805.756          47.000  
E05  25382840.857 1 133387720.432 1     -1770.997          44.000    25382837.706 1 102206161.248 1     -1356.873          46.000  
G20  24436375.100 1 128414014.326 2       387.194          42.000                                                                  
E24  25282151.017 1 132858607.192 2     -1289.418          40.000    25282143.619 1 101800716.227 3      -988.140          39.000  
G24  22631768.182 1 118930747.614 1      2507.952          44.000    22631760.285 1  92673271.841 2      1954.210          43.000  
G30  25315209.020 1 133032324.310 3     -2803.268          39.000    25315213.690 8 103661564.552 4     -2184.303          36.000  
E25  25009696.494 1 131426854.592 2      1454.028          41.000    25009694.606 1 100703678.250 1      1114.016          48.000  
C11                                                                  26767876.360 8               6       331.827          31.000  
> 2021 03 11 09 02 53.0040000  0 34                     
G13  21650117.760 1 113772149.088 2     -1468.780          44.000                                                                  
G14  23143240.228 1 121618540.045 2     -2483.350          40.000    23143235.179 4  94767678.46014     -1934.987          38.000  
G15  21492007.156 1 112941255.005 1       378.021          44.000    21491999.286 1  88006156.836 2       294.662          42.000  
S23  39304291.390 1 206545433.281 2       184.827          38.000  
G28  22992295.371 1 120825330.431 2     -2167.832          41.000                                                                  
S36  39117642.917 1 205564590.389 2       185.335          43.000  
C20  24070375.417 1 125340759.816 2      -583.106          44.000                                                                  
C23  24388753.141 1 126998644.599 2     -1870.068          43.000                                                                  
C32  25765011.221 1 134165180.594 2     -3043.333          40.000                                                                  
C28  27164394.037 1 141452124.463 3      3144.255          39.000                                                                  
R15  23306230.540 1 124541427.057 2     -3169.758          45.000    23306224.435 8               6     -2465.419          33.000  
R09  22238311.463 1 118751349.762 1      2760.739          44.000    22238309.668 1  92362137.893 2      2147.010          43.000  
R05  24212823.790 2 129431384.225 2     -4369.972          42.000    24212812.089 8 100668832.67835     -3399.325          34.000  
R06  20702151.524 8               6     -1456.240          35.000                                                                  
R16  20422391.620 2 109092759.068 2      -392.247          41.000    20422389.433 4  84849910.035 4      -305.180          36.000  
R17  23737273.776 2 127022988.270 2      1742.651          42.000    23737270.601 8               7      1355.920          29.000  
G17  23597696.252 1 124006708.448 2      1715.809          41.000    23597672.872 8               7      1337.132          28.000  
G19  24401742.289 1 128231999.931 2      3387.254          39.000                                                                  
E02  28581288.624 1 150195689.587 3      2918.633          36.000    28581284.330 2 115084987.299 3      2236.548          39.000  
G05  26127419.105 1 137300527.224 3     -3359.623          36.000    26127407.347 8               7     -2618.236          33.000  
G23  24316741.998 1 127785352.583 2       784.910          40.000    24316740.162 4  99572992.656 3       611.536          38.000  
C37  23025810.578 1 119901428.358 2       666.531          45.000                                                                  
C10  40304437.816 1 209875774.852 3      -618.946          39.000    40304424.016 2 162289215.95524      -478.627          37.000  
R07  21955570.531 4               9      2747.956          27.000    21955557.380 8               6      2138.068          31.000  
R24  24878060.083 9               8     -1410.395          30.000    24878099.485 8               6     -1097.238          32.000  
E03  25157448.642 1 132203308.991 2      1050.651          40.000    25157445.742 1 101298605.283 1       805.224          46.000  
E05  25383177.918 1 133389491.652 1     -1771.360          44.000    25383174.625 1 102207518.423 1     -1357.243          46.000  
G20  24436301.530 1 128413627.267 2       386.529          41.000                                                                  
E24  25282396.398 1 132859896.811 2     -1290.145          40.000    25282388.901 1 101801704.378 3      -988.324          39.000  
G24  22631291.031 1 118928239.964 1      2507.391          44.000    22631282.999 1  92671317.832 2      1953.595          43.000  
G30  25315742.560 1 133035127.626 2     -2803.411          38.000    25315747.710 8 103663753.94815     -2184.034          36.000  
E25  25009419.981 1 131425401.144 2      1453.040          41.000    25009418.055 1 100702564.563 1      1113.489          48.000  
C11                                                                  26767793.820 8               7       331.293          31.000  
R18                                                                  24885372.508 9               9      3060.187          26.000  
> 2021 03 11 09 02 54.0040000  0 34                     
G13  21650397.426 1 113773618.360 2     -1469.599          44.000                                                                  
G14  23143712.781 1 121621023.391 2     -2483.582          40.000    23143706.463 4  94769613.534 4     -1935.096          36.000  
G15  21491935.324 1 112940877.209 1       377.266          44.000    21491927.386 1  88005862.447 2       294.088          40.000  
S23  39304256.191 1 206545248.234 2       184.650          39.000  
G28  22992707.977 1 120827498.549 2     -2168.422          42.000                                                                  
S36  39117607.464 1 205564404.921 1       185.380          43.000  
C20  24070487.491 1 125341343.221 2      -584.051          44.000                                                                  
C23  24389112.292 1 127000514.602 2     -1870.280          42.000                                                                  
C32  25765595.695 1 134168224.107 3     -3043.824          39.000                                                                  
C28  27163790.148 1 141448980.010 3      3144.250          37.000                                                                  
R15  23306823.703 1 124544596.927 2     -3170.112          44.000    23306818.572 8  96867996.26935     -2465.236          34.000  
R09  22237794.436 1 118748589.393 2      2760.104          44.000    22237792.803 1  92359990.927 2      2146.790          43.000  
R05  24213641.452 2 129435754.496 2     -4370.139          42.000    24213628.437 4 100672231.76125     -3399.322          33.000  
R06  20702424.766 8 110472103.14935     -1456.635          35.000                                                                  
R16  20422465.179 2 109093151.621 2      -392.916          41.000    20422462.264 4  84850215.363 4      -305.287          36.000  
R17  23736948.179 2 127021246.096 3      1741.382          41.000    23736944.568 8               6      1354.596          29.000  
G17  23597369.880 1 124004992.923 1      1715.144          42.000    23597347.091 8               8      1336.271          28.000  
G19  24401097.768 1 128228612.701 2      3387.147          40.000                                                                  
E02  28580733.106 1 150192770.879 3      2918.560          36.000    28580728.231 2 115082750.897 2      2236.211          40.000  
G05  26128058.334 1 137303887.061 3     -3359.993          36.000    26128048.468 8               7     -2618.183          31.000  
G23  24316592.813 1 127784568.220 2       783.935          40.000    24316587.548 4  99572381.476 4       610.590          36.000  
C37  23025682.650 1 119900762.072 1       666.003          45.000                                                                  
C10  40304556.665 1 209876394.025 2      -619.095          39.000    40304542.475 2 162289694.74124      -478.665          38.000  
R07  21955054.705 8               9      2746.709          26.000    21955045.978 8               6      2136.554          31.000  
R24  24878324.545 8               7     -1411.299          29.000    24878364.734 8               6     -1098.167          33.000  
E03  25157248.643 1 132202258.298 2      1050.489          41.000    25157245.690 1 101297800.219 1       804.833          46.000  
E05  25383515.009 1 133391263.369 1     -1771.946          44.000    25383511.776 1 102208875.969 1     -1357.640          46.000  
G20  24436228.062 1 128413241.004 2       385.696          41.000                                                                  
E24  25282641.875 1 132861186.804 2     -1290.523          40.000    25282634.648 1 101802692.817 3      -988.771          40.000  
G24  22630813.898 1 118925732.718 1      2506.980          44.000    22630805.873 1  92669364.127 2      1953.574          41.000  
G30  25316275.982 1 133037931.193 2     -2803.697          38.000    25316280.280 8 103665938.569 4     -2184.987          33.000  
E25  25009143.481 1 131423948.116 2      1452.663          41.000    25009141.597 1 100701451.214 1      1113.097          48.000  
C11                                                                  26767711.629 8               7       331.359          29.000  
R18                                                                  24884635.127 9               8      3060.693          27.000  
> 2021 03 11 09 02 55.0040000  0 34                     
G13  21650677.084 1 113775088.288 1     -1469.961          44.000                                                                  
G14  23144185.423 1 121623507.226 2     -2483.766          40.000    23144181.432 4  94771553.99114     -1935.536          37.000  
G15  21491863.590 1 112940500.195 1       376.772          44.000    21491855.558 1  88005568.667 2       293.754          41.000  
S23  39304220.951 1 206545063.345 2       185.248          39.000  
G28  22993120.592 1 120829667.122 2     -2168.493          42.000                                                                  
S36  39117572.143 1 205564219.673 1       185.208          43.000  
C20  24070599.704 1 125341927.302 2      -584.253          45.000                                                                  
C23  24389471.426 1 127002384.917 2     -1870.161          42.000                                                                  
C32  25766180.254 1 134171267.940 2     -3043.806          39.000                                                                  
C28  27163186.357 1 141445835.756 3      3144.509          38.000                                                                  
R15  23307416.934 1 124547767.020 2     -3169.948          42.000    23307410.381 8  96870459.43935     -2465.905          35.000  
R09  22237277.581 1 118745829.554 1      2759.459          44.000    22237276.144 1  92357844.381 2      2146.611          44.000  
R05  24214459.142 2 129440125.103 2     -4370.510          41.000    24214444.563 8               6     -3399.338          34.000  
R06  20702697.720 8 110473561.25435     -1457.584          34.000                                                                  
R16  20422538.819 2 109093544.832 2      -393.200          40.000    20422537.573 8  84850523.19635      -305.689          37.000  
R17  23736622.642 2 127019504.817 3      1740.637          40.000    23736617.789 9               7      1355.139          30.000  
G17  23597043.493 1 124003278.077 2      1714.702          42.000    23597021.640 8               7      1337.655          28.000  
G19  24400453.232 1 128225225.912 2      3386.826          40.000                                                                  
E02  28580177.696 1 150189852.451 3      2918.510          36.000    28580172.812 2 115080514.698 2      2236.126          40.000  
G05  26128697.757 1 137307246.948 3     -3359.766          36.000    26128688.938 8               7     -2617.770          32.000  
G23  24316443.726 1 127783784.625 2       783.561          40.000    24316436.486 8  99571741.87815       610.357          36.000  
C37  23025554.820 1 119900096.226 1       665.798          45.000                                                                  
C10  40304675.592 1 209877013.347 3      -619.231          38.000    40304662.407 4 162290173.13134      -478.575          39.000  
R07  21954538.190 9               9      2747.598          26.000    21954533.983 8               6      2136.475          31.000  
R24  24878588.527 8               7     -1412.146          29.000    24878627.960 8 103473384.21235     -1098.578          33.000  
E03  25157048.753 1 132201208.167 2      1050.091          40.000    25157045.828 1 101296995.566 1       804.675          47.000  
E05  25383852.200 1 133393035.564 1     -1772.164          45.000    25383848.965 1 102210233.886 1     -1357.905          46.000  
G20  24436154.750 1 128412855.487 2       385.539          41.000                                                                  
E24  25282887.411 1 132862477.186 2     -1290.182          40.000    25282880.100 1 101803681.560 3      -988.788          40.000  
G24  22630336.689 1 118923225.871 1      2506.979          44.000    22630328.798 1  92667410.739 2      1953.442          42.000  
G30  25316809.413 1 133040734.963 2     -2803.585          39.000    25316813.847 8 103668123.295 5     -2184.050          34.000  
E25  25008867.118 1 131422495.563 2      1452.563          41.000    25008865.094 1 100700338.207 1      1113.074          48.000  
C11                                                                  26767629.185 8               7       329.873          30.000  
R18                                                                  24883899.150 8               7      3060.150          28.000  
> 2021 03 11 09 02 56.0040000  0 34                     
G13  21650956.890 1 113776558.550 1     -1470.394          44.000                                                                  
G14  23144658.136 1 121625991.238 3     -2483.840          40.000    23144653.208 4  94773485.582 4     -1935.585          37.000  
G15  21491791.868 1 112940123.640 1       375.971          44.000    21491783.838 1  88005275.255 2       293.073          41.000  
S23  39304185.849 1 206544878.309 2       184.869          39.000  
G28  22993533.206 1 120831835.882 2     -2168.915          42.000                                                                  
S36  39117536.876 1 205564034.348 1       185.268          43.000  
C20  24070711.892 1 125342511.788 1      -584.726          44.000                                                                  
C23  24389830.545 1 127004255.252 2     -1870.415          42.000                                                                  
C32  25766764.897 1 134174311.798 2     -3043.961          39.000                                                                  
C28  27162582.467 1 141442691.374 3      3144.427          37.000                                                                  
R15  23308010.146 1 124550937.021 2     -3169.930          42.000    23308001.046 8  96872914.96435     -2465.124          34.000  
R09  22236760.782 1 118743069.871 1      2759.593          44.000    22236759.297 1  92355697.972 2      2146.297          43.000  
R05  24215276.866 2 129444495.698 2     -4370.797          41.000    24215261.523 8               6     -3399.884          32.000  
R06  20702971.047 8 110475019.56425     -1458.123          34.000                                                                  
R16  20422612.601 2 109093938.422 2      -393.794          40.000    20422613.781 8  84850839.30235      -306.240          36.000  
R17  23736297.252 2 127017764.139 3      1740.301          39.000    23736294.288 8               7      1353.344          29.000  
G17  23596717.366 1 124001563.583 2      1714.496          42.000    23596697.503 8               8      1336.638          29.000  
G19  24399808.747 1 128221839.208 2      3386.822          40.000                                                                  
E02  28579622.171 1 150186933.976 4      2918.520          35.000    28579617.771 2 115078277.43514      2236.635          41.000  
G05  26129337.064 1 137310606.602 3     -3359.147          36.000    26129325.738 8               7     -2618.115          32.000  
G23  24316294.787 1 127783001.533 2       782.909          41.000    24316288.239 4  99571134.664 4       610.102          37.000  
C37  23025427.085 1 119899430.516 1       665.693          45.000                                                                  
C10  40304794.437 1 209877632.549 3      -618.977          38.000    40304780.941 4 162290651.95524      -478.795          38.000  
R07  21954021.327 9               9      2734.423          25.000    21954023.743 9               6      2135.999          29.000  
R24  24878855.751 9               7     -1411.594          30.000    24878891.043 9               6     -1098.951          31.000  
E03  25156849.096 1 132200158.265 2      1049.768          41.000    25156846.108 1 101296191.095 1       804.491          47.000  
E05  25384189.508 1 133394807.931 1     -1772.324          44.000    25384186.291 1 102211591.935 2     -1358.022          46.000  
G20  24436081.530 1 128412470.463 2       384.823          41.000                                                                  
E24  25283133.176 1 132863767.664 2     -1290.289          40.000    25283125.629 1 101804670.362 3      -988.790          39.000  
G24  22629859.740 1 118920719.141 1      2506.687          44.000    22629851.736 1  92665457.438 2      1953.328          42.000  
G30  25317342.800 1 133043538.680 2     -2803.796          39.000    25317345.772 8 103670298.05015     -2185.365          34.000  
E25  25008590.936 1 131421043.146 2      1452.334          41.000    25008588.747 1 100699225.319 1      1112.912          48.000  
C11                                                                  26767547.079 8               8       328.057          30.000  
R18                                                                  24883162.443 8               7      3060.461          27.000  
