     3.04           OBSERVATION DATA    M: Mixed            RINEX VERSION / TYPE
CONVBIN demo5 b34a                      20210327 114941 UTC PGM / RUN BY / DATE 
log: 001.ubx                                                COMMENT             
format: u-blox UBX                                          COMMENT             
format: u-blox UBX                                          COMMENT             
log: 001.ubx                                                COMMENT             
                                                            MARKER NAME         
                                                            MARKER NUMBER       
                                                            MARKER TYPE         
                                                            OBSERVER / AGENCY   
                                                            REC # / TYPE / VERS 
                                                            ANT # / TYPE        
  4317285.4395  1016808.3866  4568259.0949                  APPROX POSITION XYZ 
        0.0000        0.0000        0.0000                  ANTENNA: DELTA H/E/N
G    8 C1C L1C D1C S1C C2X L2X D2X S2X                      SYS / # / OBS TYPES 
R    8 C1C L1C D1C S1C C2C L2C D2C S2C                      SYS / # / OBS TYPES 
E    8 C1X L1X D1X S1X C7X L7X D7X S7X                      SYS / # / OBS TYPES 
S    4 C1C L1C D1C S1C                                      SYS / # / OBS TYPES 
C    8 C2I L2I D2I S2I C7I L7I D7I S7I                      SYS / # / OBS TYPES 
  2021    03    11    09    51   20.0030000     GPS         TIME OF FIRST OBS   
  2021    03    11    09    56   49.0030000     GPS         TIME OF LAST OBS    
G L1C                                                       SYS / PHASE SHIFT   
G L2X  0.00000                                              SYS / PHASE SHIFT   
R L1C                                                       SYS / PHASE SHIFT   
R L2C                                                       SYS / PHASE SHIFT   
E L1X  0.00000                                              SYS / PHASE SHIFT   
E L7X  0.00000                                              SYS / PHASE SHIFT   
S L1C                                                       SYS / PHASE SHIFT   
C L2I                                                       SYS / PHASE SHIFT   
C L7I                                                       SYS / PHASE SHIFT   
  9 R06 -4 R07  5 R08  6 R09 -2 R10 -7 R15  0 R16 -1 R17  4 GLONASS SLOT / FRQ #
    R18 -3                                                  GLONASS SLOT / FRQ #
 C1C    0.000 C1P    0.000 C2C    0.000 C2P    0.000        GLONASS COD/PHS/BIS 
                                                            END OF HEADER       
> 2021 03 11 09 51 20.0030000  0 37                     
G13  22835489.215 1 120001296.00012     -2750.928          42.000                                                                  
G14  24712572.513 1 129865473.22413     -3080.762          38.000    24712567.538 2               6     -2400.116          31.000  
G15  21781034.242 1 114460108.44811     -1403.528          43.000    21781025.317 1  89189648.84812     -1093.817          39.000  
G10  25118408.613 1 131998141.26712       971.020          43.000    25118402.791 1 102855670.37514       757.248          34.000  
G28  24379655.605 1 128115958.94012     -2745.776          42.000                                                                  
S36  38997799.372 1 204934814.56512       244.191          42.000  
C20  24803206.889 1 129156804.91411     -1969.482          43.000                                                                  
C23  25534714.035 1 132965960.52412     -2203.846          42.000                                                                  
C28  25505077.529 1 132811640.05713      2663.650          38.000                                                                  
C19  24717335.054 1 128709657.47612       827.161          40.000                                                                  
C11  26962911.384 2 140402944.39214     -1112.346          34.000    26962901.127 1 108568424.92812      -859.583          41.000  
R15  25041723.373 9               9     -3152.880          25.000                                                                  
R09  21018722.572 1 112238804.23211      1702.639          44.000    21018712.047 8  87296805.24134      1324.215          39.000  
R17  23436493.034 1 125413418.15611      -687.683          44.000    23436488.857 4  97543810.71433      -535.046          37.000  
R07  21079417.834 1 112839779.36611       357.876          46.000    21079411.646 2  87764240.04913       278.035          40.000  
R16  20967116.719 1 112002586.40112     -1531.144          41.000                                                                  
G17  23100316.694 1 121392993.09711        28.542          44.000    23100308.400 1  94591905.31312        22.276          38.000  
G19  22826728.004 1 119955265.36511      2144.855          43.000                                                                  
E24  26147480.185 1 137405920.82112     -1783.048          41.000    26147476.775 1 105285053.91611     -1366.092          44.000  
S23  39184956.511 1 205918336.35812       242.882          40.000  
G23  24383500.330 1 128136163.59413      -986.827          38.000    24383493.084 1  99846330.59813      -769.623          38.000  
C37  22879697.907 1 119140593.82711      -130.634          44.000                                                                  
C10  40651920.343 2               7      -614.032          31.000    40651906.542 2               8      -474.314          27.000  
R18  23020252.031 1 122883688.86412      2674.717          42.000                                                                  
R08  23689725.353 1 126857407.93012      3686.198          41.000                                                                  
R06  22080146.539 2 117823879.31713     -3435.279          35.000                                                                  
R10  24495786.397 2 130576328.30613      3483.994          37.000                                                                  
E03  24905880.570 1 130881273.33412      -174.960          42.000    24905877.196 1 100285644.19011      -133.909          47.000  
E05  26594832.511 1 139756768.73712     -2551.281          40.000    26594830.634 1 107086347.92311     -1954.978          46.000  
G20  24696119.681 1 129778984.22813     -1260.114          38.000                                                                  
E12  27032090.466 1 142054600.54214      2123.428          34.000    27032085.783 1 108847005.37113      1627.377          35.000  
G24  21474811.407 1 112850898.37311      1618.796          43.000    21474804.363 1  87935736.91812      1261.331          40.000  
E33  29254277.343 8               7        -8.916          27.000    29254267.025 1 117794803.44914        -7.448          32.000  
E25  24437930.412 1 128422205.85612       624.486          42.000    24437926.399 1  98401408.78211       478.577          44.000  
E08  25384807.313 1 133398054.90512      2435.268          40.000    25384802.777 1 102214090.92312      1865.881          39.000  
E02  27059844.799 1 142200462.33012      2554.789          40.000    27059841.602 1 108958766.11011      1957.533          44.000  
G12  23481060.652 1 123393812.90311      3482.728          43.000    23481052.111 1  96150984.59412      2713.734          39.000  
> 2021 03 11 09 51 21.0030000  0 37                     
G13  22836012.731 1 120004047.282 2     -2751.253          42.000                                                                  
G14  24713158.653 1 129868554.222 3     -3080.719          38.000    24713154.004 2               7     -2400.079          30.000  
G15  21781301.361 1 114461512.223 2     -1403.851          43.000    21781292.463 1  89190742.698 2     -1093.970          39.000  
G10  25118223.957 1 131997170.536 2       970.591          42.000    25118218.085 2 102854913.972 4       756.293          34.000  
G28  24380178.090 1 128118704.888 2     -2746.022          41.000                                                                  
S36  38997752.965 1 204934570.139 2       244.648          42.000  
C20  24803585.196 1 129158774.478 2     -1969.769          43.000                                                                  
C23  25535137.052 1 132968164.241 2     -2203.531          41.000                                                                  
C28  25504566.147 1 132808976.797 3      2662.888          38.000                                                                  
C19  24717176.060 1 128708830.342 2       827.484          40.000                                                                  
C11  26963124.980 2 140404056.707 4     -1112.184          34.000    26963114.793 1 108569285.068 2      -860.141          41.000  
R15  25042311.552 9               9     -3154.711          25.000                                                                  
R09  21018403.644 1 112237101.660 1      1702.520          44.000    21018394.032 8  87295484.02124      1324.052          38.000  
R17  23436621.513 1 125414106.306 1      -688.521          44.000    23436617.279 4  97544278.43534      -535.225          39.000  
R07  21079351.091 1 112839421.967 1       356.972          46.000    21079344.894 2  87763962.065 3       277.671          40.000  
R16  20967403.396 1 112004117.513 2     -1530.944          42.000                                                                  
G17  23100311.363 1 121392964.783 1        28.146          44.000    23100303.051 1  94591883.255 3        21.869          38.000  
G19  22826319.865 1 119953120.683 1      2144.507          43.000                                                                  
E24  26147819.539 1 137407703.934 2     -1783.214          41.000    26147816.113 1 105286420.195 1     -1366.192          44.000  
S23  39184910.290 1 205918093.451 2       243.098          40.000  
G23  24383688.080 1 128137150.848 3      -987.143          38.000    24383680.915 1  99847099.863 3      -769.187          38.000  
C37  22879722.993 1 119140724.472 1      -130.597          44.000                                                                  
C10  40652038.120 2               6      -613.960          31.000    40652024.305 2               8      -474.331          27.000  
R18  23019751.049 1 122881014.467 2      2674.209          42.000                                                                  
R08  23689037.063 1 126853722.199 2      3685.435          41.000                                                                  
R06  22080790.192 2 117827314.708 4     -3435.286          34.000                                                                  
R10  24495132.657 2 130572844.194 3      3484.310          37.000                                                                  
E03  24905913.684 1 130881448.490 2      -175.323          41.000    24905910.711 1 100285778.405 1      -134.317          47.000  
E05  26595318.049 1 139759320.253 2     -2551.724          40.000    26595316.231 1 107088302.961 1     -1955.041          46.000  
G20  24696359.573 1 129780244.774 3     -1260.956          37.000                                                                  
E12  27031686.402 1 142052476.739 4      2123.802          34.000    27031681.505 1 108845378.063 3      1627.504          35.000  
G24  21474503.339 1 112849279.667 1      1618.647          43.000    21474496.302 1  87934475.586 2      1261.440          40.000  
E33  29254277.703 8               7        -9.851          27.000    29254268.993 1 117794810.873 5        -6.944          32.000  
E25  24437811.483 1 128421581.356 2       624.421          42.000    24437807.527 1  98400930.264 1       478.573          44.000  
E08  25384343.896 1 133395619.876 2      2434.978          40.000    25384339.344 1 102212225.130 2      1865.789          39.000  
E02  27059358.507 1 142197907.738 2      2554.626          40.000    27059355.622 1 108956808.695 1      1957.533          44.000  
G12  23480397.994 1 123390330.413 1      3482.453          43.000    23480389.467 1  96148270.962 2      2713.725          38.000  
> 2021 03 11 09 51 22.0030000  0 37                     
G13  22836536.356 1 120006798.949 2     -2751.834          42.000                                                                  
G14  24713744.887 1 129871635.330 3     -3081.366          37.000    24713740.388 2               6     -2401.257          31.000  
G15  21781568.608 1 114462916.609 2     -1404.822          43.000    21781559.729 1  89191837.022 2     -1094.586          40.000  
G10  25118039.295 1 131996200.436 1       969.472          42.000    25118033.533 1 102854158.055 4       755.498          35.000  
G28  24380700.693 1 128121450.955 2     -2746.248          41.000                                                                  
S36  38997706.469 1 204934325.672 2       244.410          42.000  
C20  24803963.536 1 129160744.457 1     -1970.178          43.000                                                                  
C23  25535560.170 1 132970368.084 2     -2203.907          41.000                                                                  
C28  25504054.797 1 132806313.832 3      2662.660          38.000                                                                  
C19  24717017.334 1 128708003.812 2       826.062          40.000                                                                  
C11  26963338.612 2 140405169.567 4     -1113.313          34.000    26963328.563 1 108570145.585 2      -860.435          41.000  
R15  25042899.787 9               9     -3153.692          25.000                                                                  
R09  21018084.941 1 112235399.499 1      1701.797          44.000    21018077.594 8  87294170.12334      1323.738          39.000  
R17  23436750.256 1 125414795.315 1      -689.576          43.000    23436744.349 4  97544814.32524      -535.883          38.000  
R07  21079284.535 1 112839065.454 1       356.041          46.000    21079278.421 2  87763684.774 2       276.896          41.000  
R16  20967690.065 1 112005648.967 2     -1531.920          42.000    20967685.604 8  87115476.02035     -1191.269          35.000  
G17  23100306.027 1 121392937.101 1        27.370          44.000    23100297.793 1  94591861.693 3        21.344          38.000  
G19  22825911.872 1 119950976.600 1      2143.866          43.000                                                                  
E24  26148158.753 1 137409487.156 2     -1783.469          41.000    26148155.458 1 105287786.565 1     -1366.440          44.000  
S23  39184864.048 1 205917850.541 2       242.740          40.000  
G23  24383876.072 1 128138138.667 2      -988.009          38.000    24383868.867 1  99847869.598 2      -770.053          38.000  
C37  22879748.211 1 119140855.400 1      -131.114          44.000                                                                  
C10  40652155.849 2               6      -613.781          30.000    40652141.975 2               8      -474.261          27.000  
R18  23019250.154 1 122878340.777 2      2673.042          42.000    23019245.055 8  95572005.60125      2078.701          35.000  
R08  23688348.894 1 126850036.944 2      3684.839          41.000    23688357.565 9               6      2866.417          36.000  
R06  22081434.101 2 117830750.611 4     -3436.216          34.000                                                                  
R10  24494478.970 2 130569360.239 2      3483.739          37.000                                                                  
E03  24905946.940 1 130881624.081 2      -175.712          42.000    24905944.086 1 100285912.960 1      -134.819          47.000  
E05  26595803.561 1 139761871.944 2     -2551.894          40.000    26595801.850 1 107090258.161 1     -1955.371          46.000  
G20  24696599.364 1 129781505.780 2     -1261.237          38.000                                                                  
E12  27031282.134 1 142050353.294 4      2123.077          33.000    27031277.456 1 108843750.989 3      1626.945          35.000  
G24  21474195.332 1 112847661.319 1      1618.052          43.000    21474188.340 1  87933214.548 2      1260.685          39.000  
E33  29254280.465 8               7       -10.673          28.000    29254270.980 1 117794818.740 5        -7.827          32.000  
E25  24437692.585 1 128420957.129 2       623.999          42.000    24437688.865 1  98400451.965 1       478.145          44.000  
E08  25383880.578 1 133393185.149 2      2434.360          40.000    25383876.073 1 102210359.549 2      1865.361          39.000  
E02  27058872.395 1 142195353.310 2      2554.334          40.000    27058869.431 1 108954851.404 1      1957.168          44.000  
G12  23479735.290 1 123386848.220 1      3481.874          43.000    23479726.886 1  96145557.565 2      2713.287          39.000  
> 2021 03 11 09 51 23.0030000  0 37                     
G13  22837059.984 1 120009550.962 2     -2752.321          42.000                                                                  
G14  24714331.153 1 129874716.524 3     -3081.201          37.000    24714326.700 2               7     -2401.306          31.000  
G15  21781836.020 1 114464321.537 2     -1405.072          43.000    21781827.033 1  89192931.770 2     -1095.013          40.000  
G10  25117854.798 1 131995230.888 1       969.435          42.000    25117849.149 2 102853402.584 4       754.848          34.000  
G28  24381223.263 1 128124197.077 2     -2745.909          41.000                                                                  
S36  38997659.988 1 204934081.185 2       244.474          42.000  
C20  24804341.887 1 129162714.790 1     -1970.416          43.000                                                                  
C23  25535983.384 1 132972571.971 2     -2203.912          41.000                                                                  
C28  25503543.573 1 132803651.156 2      2662.564          38.000                                                                  
C19  24716858.608 1 128707177.793 2       825.690          40.000                                                                  
C11  26963552.359 2 140406282.908 4     -1113.390          34.000    26963542.409 1 108571006.496 2      -861.052          41.000  
R15  25043489.839 9               9     -3154.299          26.000                                                                  
R09  21017766.289 1 112233697.664 1      1701.695          44.000    21017756.887 4  87292846.48723      1323.412          39.000  
R17  23436879.224 1 125415485.162 1      -690.411          43.000    23436872.177 4  97545350.86724      -536.444          38.000  
R07  21079218.078 1 112838709.831 1       355.192          46.000    21079190.484 9  87763321.16835       276.333          41.000  
R16  20967976.823 1 112007180.654 2     -1531.792          42.000    20967970.011 8  87116658.34535     -1191.434          33.000  
G17  23100300.855 1 121392910.022 1        26.597          44.000    23100292.604 1  94591840.569 3        21.324          37.000  
G19  22825504.037 1 119948833.085 1      2143.179          43.000                                                                  
E24  26148498.092 1 137411270.476 2     -1783.309          41.000    26148494.854 1 105289153.001 1     -1366.408          44.000  
S23  39184817.825 1 205917607.567 2       243.256          40.000  
G23  24384064.123 1 128139127.044 3      -988.625          38.000    24384056.926 1  99848639.738 2      -769.936          38.000  
C37  22879773.418 1 119140986.555 1      -131.354          44.000                                                                  
C10  40652273.566 2               6      -613.836          30.000    40652259.596 2               8      -474.716          27.000  
R18  23018749.426 1 122875667.717 2      2672.769          42.000    23018743.945 8  95569924.56435      2078.465          33.000  
R08  23687660.773 1 126846352.180 2      3684.348          41.000                                                                  
R06  22082078.115 2 117834186.969 4     -3437.085          34.000                                                                  
R10  24493825.357 2 130565876.367 3      3484.004          38.000                                                                  
E03  24905980.129 1 130881800.128 2      -176.107          42.000    24905977.502 1 100286047.845 1      -134.977          47.000  
E05  26596289.228 1 139764423.823 2     -2551.911          40.000    26596287.434 1 107092213.504 1     -1955.425          46.000  
G20  24696839.407 1 129782767.268 3     -1262.054          37.000                                                                  
E12  27030878.194 1 142048230.110 4      2122.833          33.000    27030873.491 1 108842124.162 3      1626.649          35.000  
G24  21473887.433 1 112846043.317 1      1617.913          43.000    21473880.459 1  87931953.776 2      1260.458          40.000  
E33  29254282.714 8               7       -10.979          28.000    29254272.918 1 117794826.930 5        -7.750          32.000  
E25  24437574.002 1 128420333.151 1       624.023          41.000    24437570.105 1  98399973.861 1       478.034          44.000  
E08  25383417.447 1 133390750.674 2      2434.088          40.000    25383412.644 1 102208494.161 2      1865.501          39.000  
E02  27058386.376 1 142192799.016 2      2553.903          40.000    27058383.376 1 108952894.213 1      1957.109          44.000  
G12  23479072.706 1 123383366.297 1      3481.757          43.000    23479064.294 1  96142844.365 3      2713.611          39.000  
> 2021 03 11 09 51 24.0030000  0 37                     
G13  22837583.705 1 120012303.292 2     -2752.615          42.000                                                                  
G14  24714917.474 1 129877797.771 3     -3081.281          37.000    24714913.073 2               7     -2401.282          30.000  
G15  21782103.532 1 114465727.003 2     -1405.670          43.000    21782094.470 1  89194026.959 2     -1095.648          40.000  
G10  25117670.377 1 131994261.949 2       968.431          42.000    25117664.783 2 102852647.497 4       755.331          34.000  
G28  24381745.922 1 128126943.295 2     -2746.271          41.000                                                                  
S36  38997613.489 1 204933836.722 2       244.222          42.000  
C20  24804720.266 1 129164685.506 2     -1970.923          43.000                                                                  
C23  25536406.492 1 132974775.922 2     -2203.851          41.000                                                                  
C28  25503032.255 1 132800988.782 2      2661.899          37.000                                                                  
C19  24716699.822 1 128706352.289 2       825.183          40.000                                                                  
C11  26963766.171 1 140407396.708 4     -1113.912          34.000    26963756.327 1 108571867.761 2      -861.528          41.000  
R15  25044079.316 9               7     -3152.514          26.000                                                                  
R09  21017447.665 1 112231996.185 1      1701.441          44.000    21017436.800 8  87291508.11734      1323.242          38.000  
R17  23437008.182 1 125416175.830 1      -691.163          43.000    23437001.418 4  97545888.06724      -536.965          37.000  
R07  21079151.850 1 112838355.105 1       354.177          46.000    21079131.796 9  87763045.26523       275.763          41.000  
R16  20968263.518 1 112008712.620 2     -1532.240          42.000    20968256.254 8               6     -1191.435          33.000  
G17  23100295.889 1 121392883.541 1        26.125          44.000    23100287.529 1  94591819.938 3        20.489          37.000  
G19  22825096.160 1 119946690.131 2      2142.529          43.000                                                                  
E24  26148837.516 1 137413053.872 2     -1783.415          41.000    26148834.269 1 105290519.512 1     -1366.589          44.000  
S23  39184771.568 1 205917364.546 2       243.085          40.000  
G23  24384252.207 1 128140115.916 3      -989.316          38.000    24384245.032 1  99849410.278 2      -770.415          38.000  
C37  22879798.625 1 119141117.949 1      -131.553          44.000                                                                  
C10  40652392.167 8               6      -614.610          31.000    40652377.378 2               8      -475.072          27.000  
R18  23018248.812 1 122872995.302 2      2672.187          41.000    23018243.675 8  95567847.99235      2078.719          32.000  
R08  23686972.854 1 126842667.899 2      3684.120          42.000                                                                  
R06  22082722.075 2 117837623.781 4     -3437.185          34.000                                                                  
R10  24493171.872 2 130562392.622 3      3483.803          38.000                                                                  
E03  24906013.805 1 130881976.593 2      -176.806          41.000    24906011.143 1 100286183.051 1      -135.352          47.000  
E05  26596774.608 1 139766975.909 2     -2552.206          40.000    26596773.086 1 107094168.980 1     -1955.497          46.000  
G20  24697079.586 1 129784029.174 2     -1262.054          38.000                                                                  
E12  27030474.111 1 142046107.215 4      2122.984          33.000    27030469.492 1 108840497.524 4      1626.575          35.000  
G24  21473579.514 1 112844425.658 1      1617.486          43.000    21473572.591 1  87930693.257 2      1260.221          40.000  
E33  29254285.573 8               7       -11.409          28.000    29254275.056 1 117794835.446 5        -8.133          32.000  
E25  24437455.252 1 128419709.423 1       623.773          42.000    24437451.416 1  98399495.937 1       477.774          44.000  
E08  25382954.146 1 133388316.436 2      2433.884          40.000    25382949.481 1 102206628.979 2      1865.073          39.000  
E02  27057900.310 1 142190244.829 2      2554.148          40.000    27057897.392 1 108950937.112 1      1956.957          44.000  
G12  23478410.316 1 123379884.648 1      3481.453          43.000    23478401.842 1  96140131.376 2      2713.340          39.000  
> 2021 03 11 09 51 25.0030000  0 37                     
G13  22838107.577 1 120015056.071 2     -2753.192          42.000                                                                  
G14  24715503.807 1 129880879.204 3     -3081.653          37.000    24715499.652 2               8     -2401.013          30.000  
G15  21782371.220 1 114467133.152 1     -1406.537          42.000    21782362.208 1  89195122.618 2     -1095.447          39.000  
G10  25117486.081 1 131993293.665 2       968.029          42.000    25117480.524 1 102851893.093 4       753.402          35.000  
G28  24382268.507 1 128129689.699 2     -2746.725          42.000                                                                  
S36  38997566.946 1 204933592.304 2       244.353          42.000  
C20  24805098.812 1 129166656.683 1     -1971.594          43.000                                                                  
C23  25536829.643 1 132976980.035 2     -2204.122          41.000                                                                  
C28  25502520.896 1 132798326.768 3      2661.837          38.000                                                                  
C19  24716541.368 1 128705527.417 2       824.585          40.000                                                                  
C11  26963980.096 1 140408511.112 4     -1114.983          34.000    26963970.405 1 108572729.475 2      -862.135          41.000  
R15  25044670.275 8               8     -3153.615          27.000                                                                  
R09  21017129.007 1 112230295.200 1      1700.618          44.000    21017117.342 4  87290181.63624      1322.655          38.000  
R17  23437137.302 1 125416867.440 1      -691.798          43.000    23437130.670 4  97546426.00624      -538.319          37.000  
R07  21079085.844 1 112838001.415 1       353.133          45.000    21079069.110 9  87762770.18722       274.735          41.000  
R16  20968550.357 1 112010244.974 2     -1532.703          42.000    20968541.392 8  87119031.68835     -1192.165          34.000  
G17  23100291.025 1 121392857.750 1        25.283          44.000    23100282.553 1  94591799.824 3        20.054          37.000  
G19  22824688.519 1 119944547.834 1      2141.851          43.000                                                                  
E24  26149176.937 1 137414837.477 1     -1783.742          41.000    26149173.640 1 105291886.155 1     -1366.535          44.000  
S23  39184725.382 1 205917121.603 2       242.723          40.000  
G23  24384440.527 1 128141105.427 3      -989.863          37.000    24384433.344 1  99850181.341 3      -771.469          38.000  
C37  22879823.971 1 119141249.682 1      -131.809          44.000                                                                  
C10  40652509.796 8               7      -614.305          30.000    40652495.262 1               7      -474.406          27.000  
R18  23017748.274 1 122870323.649 2      2671.103          42.000                                                                  
R08  23686284.940 1 126838984.212 2      3683.261          41.000                                                                  
R06  22083366.141 2 117841061.206 4     -3438.156          34.000                                                                  
R10  24492518.371 2 130558909.065 3      3483.408          38.000                                                                  
E03  24906047.367 1 130882153.564 2      -177.403          41.000    24906044.852 1 100286318.668 1      -135.912          47.000  
E05  26597260.323 1 139769528.246 2     -2552.350          40.000    26597258.830 1 107096124.677 1     -1955.834          45.000  
G20  24697319.794 1 129785291.660 3     -1262.701          38.000                                                                  
E12  27030069.869 1 142043984.763 4      2122.203          33.000    27030065.558 1 108838871.222 3      1626.153          35.000  
G24  21473271.656 1 112842808.447 1      1616.899          43.000    21473264.843 1  87929433.085 2      1259.923          40.000  
E33  29254284.667 8               9       -12.109          28.000    29254277.278 1 117794844.418 5        -9.311          32.000  
E25  24437336.694 1 128419086.047 1       623.317          42.000    24437332.932 1  98399018.296 1       477.425          44.000  
E08  25382491.042 1 133385882.557 2      2433.550          40.000    25382486.342 1 102204764.072 2      1864.713          39.000  
E02  27057414.327 1 142187690.865 2      2553.854          40.000    27057411.380 1 108948980.183 1      1956.700          44.000  
G12  23477747.942 1 123376403.358 2      3480.980          43.000    23477739.470 1  96137418.720 2      2712.508          39.000  
> 2021 03 11 09 51 26.0030000  0 37                     
G13  22838631.442 1 120017809.380 2     -2753.527          42.000                                                                  
G14  24716090.115 1 129883960.887 3     -3081.842          37.000    24716085.928 2               7     -2401.349          30.000  
G15  21782638.975 1 114468540.015 2     -1407.269          42.000    21782630.041 1  89196218.893 2     -1096.545          39.000  
G10  25117302.038 1 131992326.191 2       966.869          42.000    25117296.491 2 102851139.185 4       753.749          35.000  
G28  24382791.047 1 128132436.339 2     -2746.735          42.000                                                                  
S36  38997520.491 1 204933348.027 2       243.889          41.000  
C20  24805477.439 1 129168628.419 2     -1972.052          43.000                                                                  
C23  25537252.936 1 132979184.425 2     -2204.649          41.000                                                                  
C28  25502009.713 1 132795665.225 3      2660.948          37.000                                                                  
C19  24716383.061 1 128704703.269 2       823.566          40.000                                                                  
C11  26964194.192 2 140409626.178 4     -1115.929          34.000    26964184.554 1 108573591.692 2      -862.240          41.000  
R15  25045258.333 8               8     -3153.836          27.000                                                                  
R09  21016810.672 1 112228594.751 1      1700.091          44.000    21016799.069 8  87288859.54325      1322.284          39.000  
R17  23437266.694 1 125417560.061 1      -693.360          43.000    23437259.540 4  97546964.69123      -538.820          38.000  
R07  21079020.046 1 112837648.809 1       352.089          45.000    21079005.497 4  87762495.94622       273.686          41.000  
R16  20968837.213 1 112011777.806 2     -1533.245          42.000    20968828.906 8  87120226.41725     -1192.653          34.000  
G17  23100286.158 1 121392832.730 1        24.694          44.000    23100277.806 1  94591780.355 3        19.369          37.000  
G19  22824280.954 1 119942406.272 1      2141.311          43.000                                                                  
E24  26149516.351 1 137416621.352 2     -1783.903          41.000    26149513.120 1 105293253.025 1     -1367.016          44.000  
S23  39184679.173 1 205916878.812 2       242.478          40.000  
G23  24384628.896 1 128142095.658 3      -991.140          37.000    24384621.794 1  99850952.922 3      -771.773          38.000  
C37  22879849.480 1 119141381.857 1      -132.585          44.000                                                                  
C10  40652626.879 4               7      -612.794          30.000    40652612.967 1               6      -474.856          28.000  
R18  23017247.943 1 122867652.823 2      2670.748          41.000    23017243.739 8  95563696.76025      2076.963          33.000  
R08  23685597.140 1 126835301.229 2      3682.285          41.000                                                                  
R06  22084010.353 2 117844499.246 4     -3439.075          34.000                                                                  
R10  24491864.966 2 130555425.825 2      3482.919          38.000                                                                  
E03  24906081.038 1 130882331.167 2      -177.984          41.000    24906078.646 1 100286454.746 1      -136.385          47.000  
E05  26597746.106 1 139772080.968 2     -2553.014          40.000    26597744.430 1 107098080.638 1     -1956.193          46.000  
G20  24697560.142 1 129786554.794 2     -1263.220          38.000                                                                  
E12  27029666.056 2 142041862.740 5      2121.759          33.000    27029661.800 1 108837245.266 3      1625.370          35.000  
G24  21472963.961 1 112841191.753 2      1616.361          43.000    21472957.249 1  87928173.335 2      1259.305          40.000  
E33  29254285.271 8               7       -12.884          28.000    29254279.492 1 117794853.839 5        -9.952          32.000  
E25  24437218.144 1 128418463.109 1       622.709          42.000    24437214.477 1  98398540.968 1       477.070          44.000  
E08  25382028.012 1 133383449.107 2      2433.177          40.000    25382023.398 1 102202899.486 2      1864.347          40.000  
E02  27056928.384 1 142185137.213 2      2553.666          40.000    27056925.384 1 108947023.500 1      1956.601          44.000  
G12  23477085.621 1 123372922.526 1      3480.652          43.000    23477077.099 1  96134706.391 2      2711.958          39.000  
> 2021 03 11 09 51 27.0030000  0 37                     
G13  22839155.368 1 120020563.047 2     -2754.019          42.000                                                                  
G14  24716676.559 1 129887042.676 2     -3081.848          37.000    24716672.191 2               6     -2401.569          29.000  
G15  21782906.798 1 114469947.449 2     -1407.812          42.000    21782897.859 1  89197315.615 2     -1097.052          38.000  
G10  25117118.043 1 131991359.274 2       966.332          42.000    25117112.573 1 102850385.724 4       753.240          35.000  
G28  24383313.766 1 128135183.073 2     -2747.013          42.000                                                                  
S36  38997474.024 1 204933103.694 2       244.220          41.000  
C20  24805856.160 1 129170600.512 2     -1972.351          44.000                                                                  
C23  25537676.336 1 132981388.854 2     -2204.494          41.000                                                                  
C28  25501498.685 1 132793003.988 3      2660.320          37.000                                                                  
C19  24716224.938 1 128703879.628 2       823.456          40.000                                                                  
C11  26964408.536 1 140410741.696 4     -1116.167          34.000    26964398.848 1 108574454.299 2      -862.845          41.000  
R15  25045849.000 8               8     -3153.938          27.000                                                                  
R09  21016492.199 1 112226894.669 1      1699.726          44.000    21016481.715 8  87287541.75824      1321.941          40.000  
R17  23437396.198 1 125418253.485 1      -693.840          43.000    23437389.468 4  97547504.05324      -539.850          37.000  
R07  21078954.305 1 112837297.090 1       351.360          46.000    21078941.124 4  87762222.37922       273.229          41.000  
R16  20969124.138 1 112013310.967 2     -1533.412          42.000    20969117.439 8  87121424.85435     -1192.451          34.000  
G17  23100281.504 1 121392808.325 1        24.007          44.000    23100273.154 1  94591761.330 3        18.949          37.000  
G19  22823873.518 1 119940265.300 1      2140.316          43.000                                                                  
E24  26149855.868 1 137418405.343 2     -1784.185          41.000    26149852.614 1 105294619.975 1     -1367.136          44.000  
S23  39184632.905 1 205916635.958 2       242.891          39.000  
G23  24384817.371 1 128143086.367 3      -990.987          37.000    24384810.314 1  99851724.938 3      -772.416          38.000  
C37  22879874.832 1 119141514.267 2      -132.747          44.000                                                                  
C10  40652745.638 4               7      -614.738          30.000    40652730.733 1               6      -474.478          28.000  
R18  23016747.706 1 122864982.693 2      2669.639          42.000    23016744.938 8  95561625.45334      2076.558          34.000  
R08  23684909.337 1 126831618.700 2      3682.013          41.000                                                                  
R06  22084654.553 2 117847937.712 3     -3438.921          34.000                                                                  
R10  24491211.639 2 130551942.669 2      3482.925          39.000                                                                  
E03  24906114.935 1 130882509.179 2      -178.183          41.000    24906112.549 1 100286591.159 1      -136.593          46.000  
E05  26598232.144 1 139774633.879 2     -2553.127          40.000    26598230.287 1 107100036.764 1     -1956.315          46.000  
G20  24697800.625 1 129787818.381 3     -1263.580          38.000                                                                  
E12  27029262.042 2 142039741.026 4      2121.905          33.000    27029258.120 1 108835619.519 3      1625.613          35.000  
G24  21472656.330 1 112839575.386 1      1616.080          43.000    21472649.692 1  87926913.829 2      1259.090          40.000  
E33  29254283.125 8               7       -12.981          28.000    29254281.904 1 117794863.631 5        -9.412          31.000  
E25  24437099.608 1 128417840.400 2       622.468          42.000    24437095.885 1  98398063.829 1       476.945          44.000  
E08  25381565.070 1 133381015.923 2      2432.992          40.000    25381560.301 1 102201035.094 2      1864.073          39.000  
E02  27056442.405 1 142182583.727 2      2553.336          40.000    27056439.481 1 108945066.923 1      1956.549          44.000  
G12  23476423.307 1 123369441.977 2      3480.298          43.000    23476414.797 1  96131994.242 2      2711.943          39.000  
> 2021 03 11 09 51 28.0030000  0 37                     
G13  22839679.426 1 120023316.909 2     -2754.057          42.000                                                                  
G14  24717262.956 1 129890124.403 2     -3081.677          37.000    24717258.432 2               6     -2401.788          29.000  
G15  21783174.699 1 114471355.308 2     -1408.087          42.000    21783165.733 1  89198412.649 2     -1097.290          38.000  
G10  25116934.112 1 131990392.846 2       965.874          42.000    25116928.722 1 102849632.661 4       752.706          35.000  
G28  24383836.402 1 128137929.754 2     -2746.705          42.000                                                                  
S36  38997427.493 1 204932859.199 2       244.508          41.000  
C20  24806234.817 1 129172572.848 2     -1972.461          43.000                                                                  
C23  25538099.665 1 132983593.233 2     -2204.297          41.000                                                                  
C28  25500987.681 1 132790342.870 3      2661.091          38.000                                                                  
C19  24716066.842 1 128703056.399 2       823.151          40.000                                                                  
C11  26964622.924 1 140411857.570 4     -1116.139          34.000    26964613.172 1 108575317.180 2      -863.174          41.000  
R15  25046439.672 8               8     -3153.769          27.000                                                                  
R09  21016173.937 1 112225194.826 1      1699.655          44.000    21016164.197 8  87286223.16535      1322.014          37.000  
R17  23437525.890 1 125418947.648 1      -694.418          44.000                                                                  
R07  21078888.763 1 112836946.122 1       350.427          46.000    21078875.773 2  87761949.39823       272.865          41.000  
R16  20969411.093 1 112014844.326 2     -1533.475          42.000    20969405.074 8  87122617.49825     -1193.143          32.000  
G17  23100277.043 1 121392784.382 1        23.633          44.000    23100268.614 1  94591742.667 3        18.891          37.000  
G19  22823466.140 1 119938124.753 2      2140.276          43.000                                                                  
E24  26150195.492 1 137420189.300 2     -1784.047          41.000    26150192.062 1 105295986.896 1     -1366.943          44.000  
S23  39184586.627 1 205916392.979 2       242.774          39.000  
G23  24385005.974 1 128144077.531 3      -991.284          37.000    24384998.903 1  99852497.254 3      -772.319          38.000  
C37  22879900.264 1 119141646.787 1      -132.719          44.000                                                                  
C10  40652863.250 4               7      -614.344          30.000    40652848.568 1               6      -473.969          28.000  
R18  23016247.685 1 122862313.051 2      2669.360          42.000    23016244.941 8  95559549.07135      2076.454          33.000  
R08  23684221.768 1 126827936.519 2      3681.640          41.000    23684218.877 9               6      2863.635          35.000  
R06  22085298.802 2 117851376.549 4     -3439.144          34.000                                                                  
R10  24490558.232 2 130548459.485 2      3483.228          39.000                                                                  
E03  24906148.618 1 130882687.519 2      -178.810          41.000    24906146.455 1 100286727.790 1      -136.745          47.000  
E05  26598717.848 1 139777186.834 2     -2552.863          40.000    26598716.125 1 107101992.921 1     -1956.138          46.000  
G20  24698041.126 1 129789082.339 2     -1264.294          38.000                                                                  
E12  27028858.301 1 142037619.483 4      2121.271          34.000    27028854.427 1 108833993.901 3      1625.712          35.000  
G24  21472348.863 1 112837959.252 1      1615.978          43.000    21472342.231 1  87925654.495 2      1259.179          39.000  
E33  29254283.897 8               6       -13.013          28.000    29254284.385 1 117794873.660 5       -10.463          31.000  
E25  24436980.817 1 128417217.850 2       622.368          42.000    24436977.457 1  98397586.805 1       476.758          44.000  
E08  25381102.160 1 133378582.866 2      2433.069          40.000    25381097.358 1 102199170.817 2      1864.209          39.000  
E02  27055956.591 1 142180030.235 2      2553.312          40.000    27055953.604 1 108943110.350 1      1956.608          44.000  
G12  23475761.055 1 123365961.569 1      3480.254          43.000    23475752.383 1  96129282.253 2      2711.815          39.000  
> 2021 03 11 09 51 29.0030000  0 37                     
G13  22840203.607 1 120026071.237 2     -2755.040          42.000                                                                  
G14  24717849.354 1 129893206.305 2     -3082.227          37.000    24717844.815 2               6     -2401.672          29.000  
G15  21783442.774 1 114472763.819 2     -1409.057          42.000    21783433.735 1  89199510.202 2     -1097.809          38.000  
G10  25116750.245 1 131989427.072 2       965.024          42.000    25116744.928 1 102848880.084 4       753.038          34.000  
G28  24384359.144 1 128140676.608 2     -2747.231          42.000                                                                  
S36  38997381.028 1 204932614.774 2       243.989          41.000  
C20  24806613.733 1 129174545.659 2     -1973.175          43.000                                                                  
C23  25538523.005 1 132985797.763 2     -2204.880          41.000                                                                  
C28  25500476.659 1 132787682.165 3      2660.530          38.000                                                                  
C19  24715908.844 1 128702233.797 2       822.076          40.000                                                                  
C11  26964837.296 1 140412974.020 4     -1116.993          34.000    26964827.569 1 108576180.478 2      -863.641          41.000  
R15  25047028.990 8               8     -3154.336          27.000                                                                  
R09  21015855.639 1 112223495.433 1      1698.983          44.000    21015846.632 4  87284901.42123      1321.427          37.000  
R17  23437655.696 1 125419642.762 2      -695.817          43.000                                                                  
R07  21078823.483 1 112836596.119 1       349.231          46.000    21078810.654 2  87761677.19122       271.314          40.000  
R16  20969698.192 1 112016378.089 2     -1534.345          41.000    20969694.329 8  87123821.89535     -1193.189          33.000  
G17  23100272.559 1 121392761.146 1        22.454          44.000    23100264.232 1  94591724.548 3        17.888          37.000  
G19  22823058.975 1 119935984.890 2      2139.003          43.000                                                                  
E24  26150535.120 1 137421973.451 2     -1784.534          41.000    26150531.703 1 105297353.982 1     -1367.518          44.000  
S23  39184540.358 1 205916150.006 2       242.504          40.000  
G23  24385194.638 1 128145069.320 2      -992.354          38.000    24385187.616 1  99853270.065 3      -773.251          38.000  
C37  22879925.751 1 119141779.644 1      -133.392          44.000                                                                  
C10  40652981.036 4               6      -614.792          31.000    40652966.266 1               7      -474.452          28.000  
R18  23015747.716 1 122859644.158 2      2668.077          42.000    23015746.142 8  95557478.30025      2075.361          34.000  
R08  23683534.181 1 126824254.886 2      3680.951          42.000                                                                  
R06  22085943.247 2 117854815.965 5     -3439.754          34.000                                                                  
R10  24489904.797 2 130544976.509 3      3482.231          39.000                                                                  
E03  24906182.492 1 130882866.376 2      -179.769          41.000    24906180.453 1 100286864.848 1      -137.703          47.000  
E05  26599203.725 1 139779740.083 2     -2553.663          40.000    26599202.033 1 107103949.311 1     -1956.896          46.000  
G20  24698281.723 1 129790346.804 2     -1264.771          38.000                                                                  
E12  27028454.527 1 142035498.317 4      2120.572          34.000    27028450.791 1 108832368.619 3      1624.646          35.000  
G24  21472041.371 1 112836343.569 1      1615.084          43.000    21472034.752 1  87924395.524 2      1258.777          40.000  
E33  29254286.103 8               7       -14.007          28.000    29254286.927 1 117794884.127 5       -10.907          32.000  
E25  24436862.633 1 128416595.616 2       621.641          42.000    24436859.004 1  98397110.036 1       476.230          44.000  
E08  25380639.246 1 133376150.186 2      2431.859          40.000    25380634.367 1 102197306.806 2      1863.420          39.000  
E02  27055470.634 1 142177476.962 2      2552.781          40.000    27055467.720 1 108941153.946 1      1956.034          44.000  
G12  23475098.841 1 123362481.527 1      3479.589          43.000    23475090.197 1  96126570.537 2      2711.161          39.000  
> 2021 03 11 09 51 30.0030000  0 37                     
G13  22840727.787 1 120028825.873 1     -2754.901          42.000                                                                  
G14  24718435.797 1 129896288.253 2     -3082.159          37.000    24718431.190 2               6     -2401.556          29.000  
G15  21783710.836 1 114474172.876 2     -1409.528          42.000    21783701.822 1  89200608.143 2     -1098.047          39.000  
G10  25116566.589 1 131988461.859 2       965.081          42.000    25116561.304 2 102848127.996 4       752.064          34.000  
G28  24384881.814 1 128143423.529 2     -2747.127          41.000                                                                  
S36  38997334.557 1 204932370.197 2       244.562          41.000  
C20  24806992.678 1 129176518.815 2     -1973.535          43.000                                                                  
C23  25538946.405 1 132988002.348 2     -2204.379          41.000                                                                  
C28  25499965.763 1 132785021.728 3      2660.491          38.000                                                                  
C19  24715750.945 1 128701411.730 2       821.338          40.000                                                                  
C11  26965051.914 1 140414090.988 4     -1118.000          34.000    26965042.055 1 108577044.158 2      -864.034          40.000  
R15  25047619.401 8               9     -3154.003          27.000                                                                  
R09  21015537.425 1 112221796.375 1      1698.602          45.000    21015528.938 8  87283583.93834      1321.208          38.000  
R17  23437785.726 1 125420338.685 1      -696.384          44.000                                                                  
R07  21078758.176 1 112836247.004 1       348.424          46.000    21078745.679 2  87761405.64522       270.882          41.000  
R16  20969985.412 1 112017912.087 2     -1534.472          41.000    20969977.621 8  87125015.01724     -1192.997          34.000  
G17  23100268.169 1 121392738.464 1        22.206          44.000    23100259.930 1  94591706.934 3        16.859          36.000  
G19  22822651.912 1 119933845.562 2      2138.790          42.000                                                                  
E24  26150874.758 1 137423757.670 2     -1784.377          41.000    26150871.206 1 105298721.103 1     -1367.348          44.000  
S23  39184494.082 1 205915906.971 2       242.956          40.000  
G23  24385383.450 1 128146061.594 3      -992.641          38.000    24385376.389 1  99854043.288 2      -773.740          38.000  
C37  22879951.280 1 119141912.724 1      -133.373          44.000                                                                  
C10  40653098.415 4               7      -613.585          31.000    40653084.033 2               7      -474.545          28.000  
R18  23015247.827 1 122856975.872 1      2667.600          42.000    23015248.134 8  95555410.44435      2075.424          35.000  
R08  23682846.843 1 126820573.704 2      3680.774          42.000    23682844.918 8  98638211.72935      2862.918          33.000  
R06  22086587.853 2 117858255.845 4     -3440.521          33.000                                                                  
R10  24489251.370 2 130541493.615 2      3482.732          39.000                                                                  
E03  24906216.677 1 130883045.628 2      -179.684          41.000    24906214.733 1 100287002.186 1      -137.510          47.000  
E05  26599689.593 1 139782293.495 2     -2553.604          40.000    26599687.962 1 107105905.814 1     -1956.686          46.000  
G20  24698522.505 1 129791611.761 2     -1265.680          38.000                                                                  
E12  27028050.707 1 142033377.425 4      2120.757          33.000    27028047.250 1 108830743.531 3      1624.866          35.000  
G24  21471733.865 1 112834728.237 2      1614.969          43.000    21471727.416 1  87923136.811 2      1258.555          40.000  
E33  29254287.681 8               7       -14.446          28.000    29254289.450 1 117794894.913 5       -10.846          31.000  
E25  24436744.185 1 128415973.618 2       621.891          42.000    24436740.645 1  98396633.444 1       476.279          44.000  
E08  25380176.294 1 133373717.704 2      2432.327          40.000    25380171.562 1 102195442.977 2      1863.407          39.000  
E02  27054984.809 1 142174923.791 2      2553.001          40.000    27054981.848 1 108939197.631 1      1956.254          44.000  
G12  23474436.628 1 123359001.751 1      3479.481          43.000    23474428.055 1  96123859.010 2      2711.485          39.000  
> 2021 03 11 09 51 31.0030000  0 37                     
G13  22841251.960 1 120031580.986 2     -2755.163          42.000                                                                  
G14  24719022.268 1 129899370.430 3     -3082.196          37.000    24719017.509 2               7     -2401.141          29.000  
G15  21783979.063 1 114475582.614 2     -1409.955          42.000    21783970.125 1  89201706.676 2     -1098.669          38.000  
G10  25116382.973 1 131987497.396 2       964.164          42.000    25116377.773 1 102847376.484 4       751.214          34.000  
G28  24385404.558 1 128146170.650 2     -2746.823          42.000                                                                  
S36  38997288.142 1 204932125.791 2       244.574          41.000  
C20  24807371.690 1 129178492.487 2     -1973.907          43.000                                                                  
C23  25539369.759 1 132990207.131 2     -2204.644          41.000                                                                  
C28  25499454.883 1 132782361.728 3      2659.692          38.000                                                                  
C19  24715593.095 1 128700590.298 2       821.179          40.000                                                                  
C11  26965266.607 1 140415208.484 4     -1117.639          34.000    26965256.689 1 108577908.306 2      -864.601          40.000  
R15  25048210.651 8               9     -3153.599          26.000                                                                  
R09  21015219.420 1 112220097.831 1      1698.418          45.000    21015213.406 8  87282274.35324      1320.736          38.000  
R17  23437915.850 1 125421035.536 1      -697.201          44.000                                                                  
R07  21078693.159 1 112835898.938 1       347.842          46.000    21078680.868 2  87761134.92522       270.483          40.000  
R16  20970272.683 1 112019446.488 2     -1534.447          41.000    20970264.619 8  87126190.92035     -1193.005          34.000  
G17  23100264.039 1 121392716.525 1        21.783          44.000    23100255.760 1  94591689.773 3        17.582          36.000  
G19  22822244.974 1 119931706.931 2      2138.472          42.000                                                                  
E24  26151214.424 1 137425542.133 2     -1784.523          41.000    26151210.772 1 105300088.399 1     -1367.160          44.000  
S23  39184447.864 1 205915664.052 2       242.851          40.000  
G23  24385572.408 1 128147054.540 2      -992.750          38.000    24385565.260 1  99854816.987 2      -773.493          38.000  
C37  22879976.820 1 119142046.184 1      -133.571          44.000                                                                  
C10  40653216.962 4 211691969.94515      -615.555          31.000    40653201.751 2               8      -474.591          28.000  
R18  23014748.145 1 122854308.402 2      2667.126          42.000    23014749.497 8  95553340.26924      2074.494          37.000  
R08  23682159.487 1 126816893.146 2      3680.461          41.000    23682158.445 4  98635349.04525      2862.569          34.000  
R06  22087232.502 2 117861696.339 4     -3441.119          33.000                                                                  
R10  24488598.008 2 130538010.952 3      3482.677          39.000                                                                  
E03  24906250.835 1 130883225.439 2      -179.823          41.000    24906248.872 1 100287139.965 1      -137.758          47.000  
E05  26600175.632 1 139784847.222 2     -2553.756          41.000    26600173.909 1 107107862.570 1     -1956.812          46.000  
G20  24698763.323 1 129792877.246 2     -1265.912          38.000                                                                  
E12  27027646.497 1 142031256.978 4      2120.577          34.000    27027643.837 1 108829118.752 3      1624.711          35.000  
G24  21471426.519 1 112833113.348 2      1614.708          43.000    21471420.175 1  87921878.475 2      1258.314          39.000  
E33  29254286.835 8               8       -15.240          28.000    29254292.176 1               6       -11.351          31.000  
E25  24436625.857 1 128415352.018 2       621.611          42.000    24436622.391 1  98396157.140 1       476.253          44.000  
E08  25379713.298 1 133371285.627 2      2432.262          40.000    25379708.699 1 102193579.407 2      1863.787          39.000  
E02  27054498.933 1 142172370.904 2      2552.963          40.000    27054495.986 1 108937241.519 1      1955.994          44.000  
G12  23473774.425 1 123355522.364 1      3479.231          43.000    23473766.068 1  96121147.816 2      2711.080          39.000  
> 2021 03 11 09 51 32.0030000  0 37                     
G13  22841776.260 1 120034336.445 2     -2755.547          41.000                                                                  
G14  24719608.602 1 129902452.683 3     -3082.220          37.000    24719603.982 2               7     -2401.288          30.000  
G15  21784247.489 1 114476992.883 2     -1410.284          42.000    21784238.365 1  89202805.590 2     -1098.962          38.000  
G10  25116199.541 1 131986533.492 1       963.732          42.000    25116194.240 2 102846625.363 4       751.266          34.000  
G28  24385927.375 1 128148917.840 2     -2746.908          42.000                                                                  
S36  38997241.592 1 204931881.331 2       244.769          41.000  
C20  24807750.847 1 129180466.518 1     -1974.115          43.000                                                                  
C23  25539793.205 1 132992411.985 2     -2204.809          41.000                                                                  
C28  25498944.082 1 132779701.994 3      2659.500          38.000                                                                  
C19  24715435.501 1 128699769.407 2       820.984          40.000                                                                  
C11  26965481.401 2 140416326.490 5     -1118.162          34.000    26965471.360 1 108578772.790 2      -864.397          40.000  
R15  25048802.175 8               9     -3154.051          25.000                                                                  
R09  21014901.444 1 112218399.616 1      1698.098          45.000    21014894.347 8  87280948.50135      1321.047          40.000  
R17  23438046.181 1 125421733.235 2      -697.961          43.000                                                                  
R07  21078628.253 1 112835551.801 1       346.848          46.000    21078616.278 2  87760864.92222       270.067          42.000  
R16  20970559.899 1 112020981.166 2     -1534.661          41.000    20970554.474 8  87127395.57625     -1193.261          34.000  
G17  23100259.982 1 121392695.173 1        21.361          44.000    23100251.616 1  94591673.205 3        16.021          36.000  
G19  22821838.033 1 119929568.873 2      2137.998          42.000                                                                  
E24  26151554.042 1 137427326.673 2     -1784.502          42.000    26151550.392 1 105301455.801 1     -1367.458          44.000  
S23  39184401.598 1 205915421.094 2       243.110          40.000  
G23  24385761.495 1 128148048.006 2      -993.385          38.000    24385754.220 1  99855591.117 2      -773.859          38.000  
C37  22880002.538 1 119142179.880 1      -133.385          45.000                                                                  
C10  40653334.955 2               8      -612.788          31.000    40653319.764 1               6      -474.519          29.000  
R18  23014248.590 1 122851641.587 2      2666.714          42.000    23014249.848 8               6      2074.114          36.000  
R08  23681472.223 1 126813213.100 2      3680.022          41.000    23681468.453 4  98632479.31235      2862.390          35.000  
R06  22087877.211 2 117865137.269 5     -3441.525          33.000                                                                  
R10  24487944.658 2 130534528.424 2      3482.392          39.000                                                                  
E03  24906285.041 1 130883405.679 2      -180.292          41.000    24906283.139 1 100287278.089 1      -138.231          47.000  
E05  26600661.570 1 139787401.148 2     -2554.194          41.000    26600659.787 1 107109819.465 1     -1956.892          46.000  
G20  24699004.260 1 129794143.223 2     -1265.491          38.000                                                                  
E12  27027242.811 1 142029136.814 4      2120.293          34.000    27027240.284 1 108827494.226 3      1624.330          35.000  
G24  21471119.225 1 112831498.803 1      1614.689          43.000    21471112.879 1  87920620.382 2      1258.027          39.000  
E33  29254288.506 8               7       -15.545          28.000    29254295.205 1 117794917.762 5       -12.604          31.000  
E25  24436507.523 1 128414730.658 2       621.464          42.000    24436504.160 1  98395681.035 1       476.090          44.000  
E08  25379250.749 1 133368853.819 2      2431.697          40.000    25379245.953 1 102191716.100 2      1863.018          39.000  
E02  27054013.184 1 142169818.142 2      2552.643          40.000    27054010.223 1 108935285.506 1      1955.987          44.000  
G12  23473112.334 1 123352043.254 1      3479.056          43.000    23473104.057 1  96118436.808 2      2710.914          39.000  
> 2021 03 11 09 51 33.0030000  0 37                     
G13  22842300.705 1 120037092.286 2     -2756.032          42.000                                                                  
G14  24720195.094 1 129905535.020 3     -3082.227          37.000    24720190.415 2               7     -2401.819          30.000  
G15  21784515.956 1 114478403.771 2     -1411.096          42.000    21784506.884 1  89203904.965 3     -1099.408          39.000  
G10  25116016.309 1 131985570.234 2       962.826          42.000    25116010.863 2 102845874.740 4       750.523          33.000  
G28  24386450.072 1 128151665.160 2     -2747.384          42.000                                                                  
S36  38997195.073 1 204931636.909 2       244.694          41.000  
C20  24808130.059 1 129182440.942 2     -1974.744          43.000                                                                  
C23  25540216.638 1 132994616.929 2     -2204.950          41.000                                                                  
C28  25498433.231 1 132777042.566 3      2659.167          38.000                                                                  
C19  24715277.994 1 128698949.056 2       820.294          40.000                                                                  
C11  26965696.052 2 140417445.011 5     -1118.584          34.000    26965686.166 1 108579637.710 2      -864.797          40.000  
R15  25049394.025 8               9     -3152.948          25.000                                                                  
R09  21014583.513 1 112216701.776 1      1697.857          45.000    21014576.446 8  87279627.96924      1320.312          41.000  
R17  23438176.582 1 125422431.818 2      -698.676          43.000                                                                  
R07  21078563.538 1 112835205.607 1       345.861          46.000    21078556.752 4  87760682.66234       268.910          43.000  
R16  20970847.189 1 112022516.145 2     -1534.984          41.000    20970842.297 8  87128591.45235     -1193.604          37.000  
G17  23100255.935 1 121392674.460 1        20.407          44.000    23100247.727 1  94591657.037 3        15.974          36.000  
G19  22821431.273 1 119927431.420 2      2137.133          42.000                                                                  
E24  26151893.779 1 137429111.334 2     -1784.510          42.000    26151890.128 1 105302823.255 1     -1367.442          44.000  
S23  39184355.395 1 205915178.132 2       242.769          40.000  
G23  24385950.753 1 128149042.037 2      -993.987          38.000    24385943.404 1  99856365.694 3      -774.764          37.000  
C37  22880028.237 1 119142313.862 1      -134.120          44.000                                                                  
C10  40653452.802 2               6      -613.306          31.000    40653437.702 1 163694579.39215      -474.521          28.000  
R18  23013749.249 1 122848975.462 2      2665.922          42.000    23013749.974 8  95549190.93734      2073.504          36.000  
R08  23680785.066 1 126809533.552 2      3679.426          42.000                                                                  
R06  22088522.060 2 117868578.653 5     -3440.963          34.000                                                                  
R10  24487291.312 2 130531045.996 2      3482.396          40.000                                                                  
E03  24906319.333 1 130883586.378 2      -180.691          41.000    24906317.647 1 100287416.537 1      -138.469          47.000  
E05  26601147.627 1 139789955.263 2     -2554.231          41.000    26601145.812 1 107111776.512 1     -1957.121          45.000  
G20  24699245.237 1 129795409.702 2     -1266.602          38.000                                                                  
E12  27026839.140 1 142027016.947 4      2119.973          34.000    27026837.070 1 108825869.920 3      1623.888          35.000  
G24  21470812.100 1 112829884.638 1      1613.937          43.000    21470805.688 1  87919362.596 2      1257.305          39.000  
E33  29254291.073 8               6       -15.456          28.000    29254298.164 1 117794929.643 5       -11.727          31.000  
E25  24436389.346 1 128414109.560 2       621.243          42.000    24436385.940 1  98395205.134 1       475.898          44.000  
E08  25378788.092 1 133366422.283 2      2431.490          40.000    25378783.200 1 102189852.970 2      1863.075          40.000  
E02  27053527.394 1 142167265.525 2      2552.482          40.000    27053524.447 1 108933329.612 1      1955.875          44.000  
G12  23472450.394 1 123348564.439 1      3478.794          43.000    23472441.952 1  96115726.053 2      2710.789          39.000  
> 2021 03 11 09 51 34.0030000  0 37                     
G13  22842825.257 1 120039848.377 2     -2756.315          42.000                                                                  
G14  24720781.618 1 129908617.380 3     -3082.495          37.000    24720777.057 2               7     -2401.514          30.000  
G15  21784784.460 1 114479815.127 2     -1411.877          42.000    21784775.410 1  89205004.720 3     -1100.006          39.000  
G10  25115833.074 1 131984607.448 2       962.208          42.000    25115827.649 2 102845124.584 5       749.196          33.000  
G28  24386972.914 1 128154412.469 1     -2747.426          42.000                                                                  
S36  38997148.507 1 204931392.411 2       244.378          41.000  
C20  24808509.227 1 129184415.670 2     -1975.385          43.000                                                                  
C23  25540640.110 1 132996821.857 2     -2205.340          41.000                                                                  
C28  25497922.545 1 132774383.356 2      2658.866          38.000                                                                  
C19  24715120.439 1 128698129.181 2       819.403          40.000                                                                  
C11  26965910.989 1 140418563.914 4     -1119.345          34.000    26965901.086 1 108580502.914 2      -865.394          40.000  
R15  25049984.868 9               9     -3153.558          23.000                                                                  
R09  21014265.619 1 112215004.225 1      1697.256          45.000    21014259.053 8  87278310.15425      1319.979          39.000  
R17  23438307.242 1 125423131.210 2      -700.155          43.000                                                                  
R07  21078498.964 1 112834860.203 1       344.781          47.000    21078493.026 4  87760414.01522       268.209          42.000  
R16  20971134.550 1 112024051.369 2     -1535.630          41.000                                                                  
G17  23100252.000 1 121392654.266 1        19.624          44.000    23100243.856 1  94591641.299 3        15.237          36.000  
G19  22821024.612 1 119925294.450 2      2136.506          42.000                                                                  
E24  26152233.511 1 137430896.014 1     -1784.790          42.000    26152229.818 1 105304190.741 1     -1367.616          44.000  
S23  39184309.073 1 205914935.052 2       242.709          40.000  
G23  24386139.971 1 128150036.508 2      -994.617          38.000    24386132.550 1  99857140.597 3      -775.050          37.000  
C37  22880053.907 1 119142447.986 1      -134.305          45.000                                                                  
C10  40653570.679 2               7      -614.252          31.000    40653555.595 1               6      -474.836          29.000  
R18  23013249.967 1 122846309.940 1      2665.154          42.000    23013249.403 8  95547112.26734      2072.769          34.000  
R08  23680097.996 1 126805854.414 2      3678.428          42.000                                                                  
R06  22089167.044 2 117872020.515 5     -3442.023          33.000                                                                  
R10  24486637.984 2 130527563.589 2      3482.429          40.000                                                                  
E03  24906353.859 1 130883767.429 2      -181.305          41.000    24906352.027 1 100287555.273 1      -139.127          47.000  
E05  26601633.686 1 139792509.496 2     -2554.728          40.000    26601631.928 1 107113733.645 1     -1957.426          46.000  
G20  24699486.241 1 129796676.559 2     -1267.627          38.000                                                                  
E12  27026435.344 1 142024897.338 4      2118.993          34.000    27026433.669 1 108824245.783 3      1623.712          36.000  
G24  21470504.991 1 112828270.743 1      1613.368          43.000    21470498.663 1  87918105.019 2      1256.878          39.000  
E33  29254292.431 8               7       -15.825          27.000    29254301.107 1               6       -12.081          31.000  
E25  24436271.166 1 128413488.648 2       620.779          42.000    24436267.801 1  98394729.373 1       475.538          44.000  
E08  25378325.279 1 133363990.928 2      2430.913          40.000    25378320.528 1 102187989.985 2      1862.724          40.000  
E02  27053041.561 1 142164712.964 2      2552.467          39.000    27053038.745 1 108931373.763 1      1955.508          44.000  
G12  23471788.448 1 123345085.827 1      3478.289          43.000    23471779.980 1  96113015.452 2      2710.033          39.000  
> 2021 03 11 09 51 35.0030000  0 37                     
G13  22843349.786 1 120042604.900 2     -2756.806          42.000                                                                  
G14  24721368.204 1 129911699.891 3     -3082.446          38.000    24721363.728 2               7     -2402.863          30.000  
G15  21785053.065 1 114481227.106 1     -1412.378          42.000    21785044.157 1  89206104.961 2     -1100.525          39.000  
G10  25115649.983 1 131983645.347 2       961.689          42.000    25115644.651 2 102844374.864 5       749.416          33.000  
G28  24387495.807 1 128157159.947 1     -2747.751          42.000                                                                  
S36  38997102.054 1 204931147.887 2       244.477          41.000  
C20  24808888.436 1 129186390.832 2     -1975.372          43.000                                                                  
C23  25541063.549 1 132999026.952 2     -2205.595          41.000                                                                  
C28  25497411.905 1 132771724.550 3      2658.123          38.000                                                                  
C19  24714963.073 1 128697309.900 2       818.988          40.000                                                                  
C11  26966125.880 2 140419683.384 5     -1119.693          34.000    26966116.078 1 108581368.550 2      -865.921          40.000  
R15  25050574.864 9               9     -3154.228          22.000                                                                  
R09  21013947.804 1 112213307.094 1      1696.928          45.000    21013943.275 8  87276998.66234      1319.728          39.000  
R17  23438437.955 1 125423831.411 2      -700.509          43.000                                                                  
R07  21078434.725 1 112834515.763 1       343.942          47.000    21078428.594 4  87760146.096 2       267.937          40.000  
R16  20971421.988 1 112025586.983 2     -1536.121          41.000    20971437.469 9               7     -1194.822          33.000  
G17  23100248.270 1 121392634.741 1        19.051          44.000    23100240.109 1  94591626.077 3        14.859          36.000  
G19  22820618.069 1 119923158.114 2      2135.887          42.000                                                                  
E24  26152573.233 1 137432680.893 2     -1784.988          42.000    26152569.405 1 105305558.356 1     -1367.647          44.000  
S23  39184262.853 1 205914691.974 2       242.817          40.000  
G23  24386329.332 1 128151031.609 3      -995.430          38.000    24386321.931 1  99857916.000 3      -775.901          37.000  
C37  22880079.789 1 119142582.446 1      -134.516          45.000                                                                  
C10  40653688.358 2               8      -613.278          30.000    40653673.434 2               7      -474.831          29.000  
R18  23012750.829 1 122843645.155 2      2664.206          42.000    23012749.532 8  95545037.15935      2071.513          31.000  
R08  23679410.976 1 126802175.791 2      3678.226          42.000                                                                  
R06  22089811.961 4 117875462.899 5     -3442.705          33.000    22088256.060 9               9     -2183.518          11.000  
R10  24485984.682 2 130524081.388 2      3481.789          40.000                                                                  
E03  24906388.408 1 130883948.999 2      -182.213          41.000    24906386.467 1 100287694.384 1      -139.326          47.000  
E05  26602119.816 1 139795063.973 2     -2554.581          40.000    26602117.950 1 107115690.970 1     -1957.325          46.000  
G20  24699727.432 1 129797943.930 2     -1267.725          38.000                                                                  
E12  27026032.157 1 142022778.083 4      2118.846          34.000    27026030.450 1 108822621.922 3      1623.643          35.000  
G24  21470197.984 1 112826657.266 1      1613.170          43.000    21470191.573 1  87916847.757 2      1257.005          40.000  
E33  29254293.032 8               8       -17.639          27.000    29254304.178 1 117794954.490 5       -12.219          31.000  
E25  24436152.993 1 128412868.086 2       620.240          42.000    24436149.660 1  98394253.864 1       475.369          44.000  
E08  25377862.706 1 133361559.890 2      2430.946          40.000    25377857.992 1 102186127.236 2      1862.860          39.000  
E02  27052555.831 1 142162160.634 2      2552.078          39.000    27052553.127 1 108929418.066 1      1955.693          44.000  
G12  23471126.522 1 123341607.568 1      3477.868          43.000    23471118.132 1  96110305.106 2      2710.356          39.000  
> 2021 03 11 09 51 36.0030000  0 37                     
G13  22843874.304 1 120045361.796 2     -2756.889          42.000                                                                  
G14  24721954.696 1 129914782.501 3     -3082.245          37.000    24721950.276 2 101232242.42015     -2402.075          31.000  
G15  21785321.924 1 114482639.674 2     -1412.543          42.000    21785312.950 1  89207205.673 2     -1100.787          39.000  
G10  25115467.040 1 131982683.845 2       961.379          42.000    25115461.690 2 102843625.637 4       749.075          33.000  
G28  24388018.606 1 128159907.532 2     -2747.669          42.000                                                                  
S36  38997055.519 1 204930903.333 2       244.674          41.000  
C20  24809267.753 1 129188366.389 2     -1975.690          43.000                                                                  
C23  25541486.944 1 133001232.104 2     -2205.162          41.000                                                                  
C28  25496901.353 1 132769066.004 3      2658.550          38.000                                                                  
C19  24714805.872 1 128696491.185 2       818.402          40.000                                                                  
C11  26966341.048 2 140420803.387 5     -1120.293          34.000    26966331.229 1 108582234.577 2      -866.134          40.000  
R15  25051164.740 9               9     -3154.732          21.000                                                                  
R09  21013630.010 1 112211610.374 1      1696.697          45.000    21013626.844 8  87275684.97024      1319.733          39.000  
R17  23438568.899 1 125424532.495 2      -701.223          42.000                                                                  
R07  21078370.740 1 112834172.243 1       343.137          47.000    21078364.421 4  87759878.914 2       267.022          40.000  
R16  20971709.516 1 112027122.922 2     -1536.023          41.000    20971719.886 9  87132237.97635     -1194.428          32.000  
G17  23100244.721 1 121392615.842 1        18.665          44.000    23100236.389 1  94591611.353 3        14.556          36.000  
G19  22820211.679 1 119921022.377 2      2135.488          42.000                                                                  
E24  26152912.963 1 137434465.882 2     -1785.035          42.000    26152909.057 1 105306926.070 1     -1367.592          44.000  
S23  39184216.602 1 205914448.892 2       243.208          40.000  
G23  24386518.825 1 128152027.234 2      -995.320          37.000    24386511.361 1  99858691.827 3      -775.937          37.000  
C37  22880105.706 1 119142717.179 1      -134.762          45.000                                                                  
C10  40653806.236 2               7      -613.591          31.000    40653791.222 2               7      -475.036          29.000  
R18  23012251.671 1 122840981.004 2      2663.969          42.000    23012249.848 8  95542963.00425      2072.296          30.000  
R08  23678724.069 1 126798497.673 2      3678.084          41.000                                                                  
R06  22090457.155 2 117878905.767 4     -3442.789          34.000                                                                  
R10  24485331.502 2 130520599.299 2      3482.110          40.000                                                                  
E03  24906422.988 1 130884131.013 2      -182.240          41.000    24906421.225 1 100287833.846 1      -139.520          47.000  
E05  26602605.934 1 139797618.678 2     -2554.532          40.000    26602604.154 1 107117648.474 1     -1957.481          45.000  
G20  24699968.595 1 129799211.788 2     -1267.725          38.000                                                                  
E12  27025628.758 2 142020659.160 4      2118.264          34.000    27025627.357 1 108820998.334 3      1623.741          36.000  
G24  21469891.086 1 112825044.162 1      1613.253          43.000    21469884.695 1  87915590.789 2      1256.978          40.000  
E33  29254293.028 8               9       -16.911          27.000    29254307.342 1 117794967.490 5       -12.542          31.000  
E25  24436034.946 1 128412247.772 2       620.419          42.000    24436031.586 1  98393778.570 1       475.263          44.000  
E08  25377400.212 1 133359129.171 2      2430.809          40.000    25377395.367 1 102184264.741 2      1862.545          40.000  
E02  27052069.928 1 142159608.455 2      2552.294          39.000    27052067.304 1 108927462.500 1      1955.567          44.000  
G12  23470464.669 1 123338129.603 1      3477.870          43.000    23470456.225 1  96107595.012 2      2710.026          39.000  
> 2021 03 11 09 51 37.0030000  0 37                     
G13  22844398.956 1 120048118.876 2     -2756.819          42.000                                                                  
G14  24722541.250 1 129917865.055 3     -3081.958          38.000    24722536.783 2               6     -2402.112          30.000  
G15  21785590.729 1 114484052.669 2     -1412.884          42.000    21785581.780 1  89208306.703 2     -1100.909          39.000  
G10  25115284.279 1 131981722.811 2       961.035          42.000    25115278.745 1 102842876.758 4       749.111          33.000  
G28  24388541.461 1 128162655.032 2     -2747.074          42.000                                                                  
S36  38997009.010 1 204930658.579 2       244.905          41.000  
C20  24809647.298 1 129190342.188 1     -1975.635          43.000                                                                  
C23  25541910.310 1 133003437.206 2     -2204.760          40.000                                                                  
C28  25496390.675 1 132766407.628 3      2658.601          38.000                                                                  
C19  24714648.698 1 128695672.858 2       818.146          40.000                                                                  
C11  26966556.178 2 140421923.721 5     -1120.513          33.000    26966546.462 1 108583100.900 2      -866.479          40.000  
R15  25051755.041 9               9     -3145.822          20.000                                                                  
R09  21013312.401 1 112209913.874 1      1696.547          45.000    21013309.578 8  87274366.96934      1319.689          38.000  
R17  23438699.974 1 125425234.297 2      -702.054          43.000    23438693.447 8               6      -546.444          37.000  
R07  21078306.800 1 112833829.473 1       342.554          47.000    21078300.353 4  87759612.328 2       266.450          40.000  
R16  20971997.050 1 112028659.036 2     -1535.848          41.000    20972003.483 9  87133432.77525     -1194.998          33.000  
G17  23100241.285 1 121392597.399 1        18.547          44.000    23100232.894 1  94591596.975 3        14.643          36.000  
G19  22819805.245 1 119918887.070 2      2135.087          42.000                                                                  
E24  26153252.520 1 137436250.836 2     -1784.876          42.000    26153248.739 1 105308293.758 1     -1367.428          44.000  
S23  39184170.334 1 205914205.657 2       243.730          40.000  
G23  24386708.361 1 128153023.293 3      -995.971          37.000    24386700.900 1  99859467.951 3      -776.296          37.000  
C37  22880131.568 1 119142852.007 1      -134.689          45.000                                                                  
C10  40653923.989 2               8      -612.699          30.000    40653909.074 2               6      -474.272          29.000  
R18  23011752.681 1 122838317.358 2      2663.569          42.000    23011750.534 8  95540889.81625      2071.350          33.000  
R08  23678037.258 1 126794819.899 2      3677.975          41.000                                                                  
R06  22091102.419 2 117882348.980 4     -3443.016          33.000                                                                  
R10  24484678.156 2 130517117.220 2      3482.220          40.000    24485732.886 9               9      2566.083          12.000  
E03  24906457.706 1 130884313.305 2      -182.070          41.000    24906455.947 1 100287973.539 1      -139.668          47.000  
E05  26603092.015 1 139800173.434 2     -2554.429          40.000    26603090.233 1 107119606.014 1     -1957.453          45.000  
G20  24700209.967 1 129800479.996 2     -1268.213          38.000                                                                  
E12  27025225.643 1 142018540.354 4      2119.233          34.000    27025224.017 1 108819374.871 3      1622.894          35.000  
G24  21469584.233 1 112823431.281 1      1612.927          43.000    21469577.645 1  87914334.002 2      1256.812          40.000  
E33  29254293.286 8               9       -18.124          27.000    29254310.543 1 117794980.785 5       -13.314          31.000  
E25  24435916.970 1 128411627.600 2       620.218          42.000    24435913.564 1  98393303.361 1       475.341          44.000  
E08  25376937.672 1 133356698.550 2      2430.973          40.000    25376932.835 1 102182402.329 2      1862.393          39.000  
E02  27051584.256 1 142157056.257 2      2552.566          39.000    27051581.638 1 108925506.937 1      1955.578          44.000  
G12  23469802.924 1 123334651.772 1      3478.051          43.000    23469794.458 1  96104885.018 2      2710.191          39.000  
> 2021 03 11 09 51 38.0030000  0 37                     
G13  22844923.653 1 120050876.258 2     -2757.740          42.000                                                                  
G14  24723127.914 1 129920947.633 2     -3083.020          38.000    24723123.287 2               7     -2402.911          30.000  
G15  21785859.616 1 114485466.141 1     -1414.081          42.000    21785850.766 1  89209408.113 2     -1101.715          39.000  
G10  25115101.459 1 131980762.278 2       959.894          42.000    25115095.992 2 102842128.321 4       748.158          32.000  
G28  24389064.265 1 128165402.558 2     -2747.680          42.000                                                                  
S36  38996962.418 1 204930413.673 2       244.614          41.000  
C20  24810026.833 1 129192318.290 1     -1976.453          43.000                                                                  
C23  25542333.786 1 133005642.287 2     -2205.376          40.000                                                                  
C28  25495880.258 1 132763749.465 2      2657.953          38.000                                                                  
C19  24714491.655 1 128694854.991 2       817.493          40.000                                                                  
C11  26966771.500 2 140423044.404 5     -1120.565          34.000    26966761.654 1 108583967.513 2      -867.037          40.000  
R15  25052346.341 9               9     -3160.068          18.000                                                                  
R09  21012994.836 1 112208217.643 1      1695.794          45.000    21012993.844 8  87273047.67723      1318.716          39.000  
R17  23438831.151 1 125425936.851 1      -703.171          43.000    23438824.841 4  97553466.51834      -547.249          38.000  
R07  21078243.030 1 112833487.507 1       341.318          47.000    21078237.381 2  87759346.360 2       265.128          41.000  
R16  20972284.685 1 112030195.348 2     -1536.729          41.000    20972287.072 9  87134627.63025     -1194.735          34.000  
G17  23100237.974 1 121392579.479 1        17.264          45.000    23100229.397 1  94591583.039 3        13.271          36.000  
G19  22819398.952 1 119916752.246 2      2134.195          42.000                                                                  
E24  26153592.230 1 137438035.795 2     -1785.234          42.000    26153588.541 1 105309661.465 1     -1367.816          45.000  
S23  39184123.935 1 205913962.299 2       243.236          40.000  
G23  24386898.040 1 128154019.783 3      -997.114          37.000    24386890.519 1  99860244.436 3      -776.979          37.000  
C37  22880157.523 1 119142987.002 1      -135.278          45.000                                                                  
C10  40654041.750 2               7      -613.761          30.000    40654026.967 2               6      -473.750          29.000  
R18  23011253.762 1 122835654.314 2      2662.345          42.000    23011252.444 8  95538821.52125      2070.978          34.000  
R08  23677350.560 1 126791142.560 2      3676.985          42.000    23677351.414 9               7      2858.840          34.000  
R06  22091747.595 2 117885792.612 5     -3444.597          33.000                                                                  
R10  24484024.852 2 130513635.149 2      3481.855          40.000                                                                  
E03  24906492.557 1 130884495.967 2      -183.019          41.000    24906490.611 1 100288113.489 1      -140.188          47.000  
E05  26603578.069 1 139802728.295 2     -2555.167          40.000    26603576.418 1 107121563.625 1     -1957.769          45.000  
G20  24700451.444 1 129801748.594 2     -1269.275          38.000                                                                  
E12  27024822.749 1 142016421.787 4      2118.370          34.000    27024820.872 1 108817751.513 3      1623.046          35.000  
G24  21469277.400 1 112821818.636 1      1612.328          43.000    21469270.860 1  87913077.402 2      1256.188          40.000  
E33  29254294.078 8               9       -17.519          26.000    29254313.959 1 117794994.299 5       -13.654          31.000  
E25  24435798.962 1 128411007.575 2       619.796          42.000    24435795.616 1  98392828.285 1       474.756          44.000  
E08  25376475.225 1 133354268.127 2      2429.984          40.000    25376470.440 1 102180540.032 2      1862.129          39.000  
E02  27051098.567 1 142154504.135 2      2551.783          39.000    27051096.011 1 108923551.403 1      1955.229          44.000  
G12  23469141.193 1 123331174.144 1      3477.302          43.000    23469132.610 1  96102175.179 2      2709.616          39.000  
> 2021 03 11 09 51 39.0030000  0 37                     
G13  22845448.502 1 120053634.332 2     -2758.360          42.000                                                                  
G14  24723714.595 1 129924030.665 3     -3083.508          38.000    24723710.064 2               7     -2402.191          31.000  
G15  21786128.752 1 114486880.547 1     -1415.057          42.000    21786119.945 1  89210510.243 2     -1102.441          39.000  
G10  25114918.750 1 131979802.718 2       958.974          43.000    25114913.452 2 102841380.608 5       746.485          32.000  
G28  24389587.246 1 128168150.556 2     -2748.155          42.000                                                                  
S36  38996915.927 1 204930169.110 2       244.529          41.000  
C20  24810406.516 1 129194295.125 2     -1977.106          43.000                                                                  
C23  25542757.224 1 133007847.855 2     -2205.949          41.000                                                                  
C28  25495369.928 1 132761091.981 2      2657.553          38.000                                                                  
C19  24714334.747 1 128694038.036 2       816.431          40.000                                                                  
C11  26966986.930 1 140424166.041 4     -1122.459          33.000    26966977.006 1 108584834.794 2      -867.721          40.000  
R15  25052934.976 9               9     -3150.792          17.000                                                                  
R09  21012677.280 1 112206522.165 1      1695.222          44.000    21012675.456 8  87271733.49034      1318.281          39.000  
R17  23438962.568 1 125426640.663 2      -704.458          43.000    23438956.571 4  97554014.90734      -547.756          38.000  
R07  21078179.515 1 112833146.850 1       340.118          47.000    21078173.400 2  87759081.404 2       264.490          40.000  
R16  20972572.383 1 112031732.335 2     -1537.296          41.000                                                                  
G17  23100234.698 1 121392562.555 1        16.276          44.000    23100226.087 1  94591569.839 3        12.943          36.000  
G19  22818992.821 1 119914618.370 2      2133.446          42.000                                                                  
E24  26153932.027 1 137439821.242 2     -1785.769          42.000    26153928.366 1 105311029.544 1     -1368.292          45.000  
S23  39184077.612 1 205913719.309 2       242.799          40.000  
G23  24387087.823 1 128155017.173 3      -997.740          37.000    24387080.245 1  99861021.637 3      -777.569          37.000  
C37  22880183.558 1 119143122.624 1      -135.743          45.000                                                                  
C10  40654159.464 2               7      -613.822          30.000    40654144.864 2               7      -474.671          29.000  
R18  23010754.965 1 122832992.336 2      2661.243          42.000    23010753.634 8  95536750.10034      2069.834          34.000  
R08  23676664.039 1 126787466.110 2      3676.029          42.000                                                                  
R06  22092393.055 2 117889237.052 4     -3444.883          34.000                                                                  
R10  24483371.646 2 130510153.589 2      3481.280          40.000                                                                  
E03  24906527.168 1 130884679.445 2      -183.952          41.000    24906525.547 1 100288254.078 1      -140.948          47.000  
E05  26604064.555 1 139805283.712 2     -2555.644          40.000    26604062.708 1 107123521.686 1     -1958.339          45.000  
G20  24700692.937 1 129803018.014 2     -1269.788          38.000                                                                  
E12  27024419.596 1 142014303.916 4      2117.556          34.000    27024417.832 1 108816128.725 3      1622.627          35.000  
G24  21468970.683 1 112820206.747 2      1611.301          43.000    21468964.056 1  87911821.372 2      1255.428          40.000  
E33  29254296.777 8               9       -18.694          26.000    29254317.467 1 117795008.483 5       -14.446          31.000  
E25  24435680.984 1 128410388.202 2       618.913          41.000    24435677.749 1  98392353.699 1       474.219          44.000  
E08  25376012.820 1 133351838.333 2      2429.400          40.000    25376008.169 1 102178678.261 2      1861.530          39.000  
E02  27050612.918 1 142151952.511 2      2551.252          39.000    27050610.410 1 108921596.264 1      1955.042          44.000  
G12  23468479.517 1 123327697.166 1      3476.764          43.000    23468470.968 1  96099465.853 2      2709.141          39.000  
> 2021 03 11 09 51 40.0030000  0 37                     
G13  22845973.497 1 120056392.798 2     -2758.650          42.000                                                                  
G14  24724301.218 1 129927113.773 3     -3083.240          38.000    24724296.832 2               7     -2402.283          30.000  
G15  21786398.021 1 114488295.518 2     -1415.295          42.000    21786389.240 1  89211612.834 2     -1102.710          39.000  
G10  25114736.291 1 131978843.763 1       958.586          43.000    25114730.973 2 102840633.354 5       747.230          32.000  
G28  24390110.171 1 128170898.618 2     -2748.120          42.000                                                                  
S36  38996869.326 1 204929924.590 2       244.330          41.000  
C20  24810786.173 1 129196272.356 2     -1977.350          43.000                                                                  
C23  25543180.833 1 133010053.458 2     -2205.658          41.000                                                                  
C28  25494859.705 1 132758434.807 2      2657.019          38.000                                                                  
C19  24714178.036 1 128693221.619 2       815.936          40.000                                                                  
C11  26967202.471 1 140425288.087 4     -1122.539          33.000    26967192.523 1 108585702.455 2      -867.994          40.000  
R15  25053524.646 9               9     -3151.982          15.000                                                                  
R09  21012359.831 1 112204827.058 1      1694.883          45.000    21012357.911 8  87270414.06334      1318.404          39.000  
R17  23439094.136 1 125427345.307 2      -705.047          43.000    23439089.066 4  97554562.94923      -548.239          36.000  
R07  21078116.085 1 112832807.126 1       339.082          47.000    21078109.848 2  87758817.176 3       263.568          40.000  
R16  20972860.150 1 112033269.636 2     -1537.517          41.000    20972857.714 9               6     -1196.144          33.000  
G17  23100231.625 1 121392546.248 1        15.912          44.000    23100222.968 1  94591557.122 3        12.145          36.000  
G19  22818586.907 1 119912485.097 2      2132.632          42.000                                                                  
E24  26154272.016 1 137441606.812 2     -1785.917          42.000    26154268.210 1 105312397.703 1     -1368.478          45.000  
S23  39184031.347 1 205913476.303 2       242.507          40.000  
G23  24387277.740 1 128156015.107 3      -998.225          37.000    24387270.028 1  99861799.242 3      -777.794          37.000  
C37  22880209.558 1 119143258.515 1      -136.212          45.000                                                                  
C10  40654277.532 4               6      -614.960          31.000    40654262.664 2               6      -474.531          29.000  
R18  23010256.455 1 122830331.042 2      2660.739          42.000    23010253.860 8  95534675.70724      2069.412          35.000  
R08  23675977.539 1 126783790.125 2      3675.780          41.000                                                                  
R06  22093038.843 2 117892681.959 4     -3444.573          34.000                                                                  
R10  24482718.555 2 130506672.154 2      3481.284          40.000                                                                  
E03  24906562.226 1 130884863.345 2      -184.130          41.000    24906560.488 1 100288394.994 1      -141.161          47.000  
E05  26604550.958 1 139807839.337 2     -2555.759          40.000    26604549.006 1 107125479.884 1     -1958.364          45.000  
G20  24700934.473 1 129804287.913 2     -1270.441          38.000                                                                  
E12  27024016.646 1 142012186.355 4      2117.430          34.000    27024014.863 1 108814506.173 3      1622.466          35.000  
G24  21468663.926 1 112818595.197 2      1611.210          43.000    21468657.292 1  87910565.625 2      1255.406          40.000  
E33  29254301.661 8               9       -19.371          26.000    29254321.087 1 117795023.020 5       -14.448          31.000  
E25  24435563.310 1 128409769.078 2       619.107          42.000    24435559.808 1  98391879.304 1       474.366          44.000  
E08  25375550.448 1 133349408.810 2      2429.250          40.000    25375545.825 1 102176816.680 2      1861.418          39.000  
E02  27050127.498 1 142149401.049 2      2551.191          39.000    27050124.790 1 108919641.245 1      1954.835          44.000  
G12  23467817.902 1 123324220.498 1      3476.330          43.000    23467809.352 1  96096756.744 2      2708.961          39.000  
> 2021 03 11 09 51 41.0030000  0 37                     
G13  22846498.467 1 120059151.533 2     -2758.821          42.000                                                                  
G14  24724887.935 1 129930196.916 3     -3083.148          38.000    24724883.465 2               7     -2402.808          30.000  
G15  21786667.290 1 114489711.001 2     -1415.778          42.000    21786658.596 1  89212715.818 2     -1103.345          39.000  
G10  25114553.858 1 131977885.347 2       957.851          43.000    25114548.536 2 102839886.517 5       746.832          32.000  
G28  24390633.185 1 128173646.726 2     -2748.206          42.000                                                                  
S36  38996822.827 1 204929680.022 2       244.432          41.000  
C20  24811166.014 1 129198249.923 2     -1977.789          43.000                                                                  
C23  25543604.466 1 133012259.100 2     -2205.586          41.000                                                                  
C28  25494349.468 1 132755777.871 2      2656.675          38.000                                                                  
C19  24714021.301 1 128692405.706 2       815.521          40.000                                                                  
C11  26967417.984 1 140426410.621 4     -1123.093          33.000    26967408.065 1 108586570.441 2      -868.134          40.000  
R15  25054115.870 9               9     -3158.500          14.000                                                                  
R09  21012042.377 1 112203132.277 1      1694.616          44.000    21012039.088 4  87269089.91234      1317.826          40.000  
R17  23439225.924 1 125428050.712 1      -705.621          43.000    23439220.722 4  97555111.11913      -549.131          37.000  
R07  21078052.884 1 112832468.255 1       338.271          47.000    21078046.474 2  87758553.598 3       263.074          40.000  
R16  20973147.988 1 112034807.197 2     -1537.841          41.000    20973145.054 8  87138159.16535     -1196.635          33.000  
G17  23100228.628 1 121392530.483 1        15.275          44.000    23100220.019 1  94591544.843 3        12.097          36.000  
G19  22818181.024 1 119910352.322 2      2132.413          42.000                                                                  
E24  26154611.728 1 137443392.412 2     -1785.688          42.000    26154607.970 1 105313765.893 1     -1368.334          45.000  
S23  39183984.996 1 205913233.140 2       242.995          40.000  
G23  24387467.796 1 128157013.522 3      -998.391          37.000    24387459.974 1  99862577.225 3      -778.373          37.000  
C37  22880235.641 1 119143394.589 1      -136.281          45.000                                                                  
C10  40654395.173 4               6      -613.698          31.000    40654380.398 1               6      -474.838          29.000  
R18  23009757.990 1 122827670.351 2      2660.402          42.000    23009755.358 8  95532606.27924      2069.052          34.000  
R08  23675291.140 1 126780114.590 1      3675.094          41.000                                                                  
R06  22093684.473 2 117896127.295 4     -3445.411          34.000                                                                  
R10  24482065.529 2 130503190.807 2      3481.083          40.000                                                                  
E03  24906597.389 1 130885047.657 2      -184.589          41.000    24906595.651 1 100288536.214 1      -141.564          47.000  
E05  26605037.245 1 139810395.101 2     -2555.799          40.000    26605035.263 1 107127438.200 1     -1958.489          45.000  
G20  24701176.234 1 129805558.214 2     -1270.532          38.000                                                                  
E12  27023613.727 1 142010069.031 3      2117.013          34.000    27023611.880 1 108812883.820 3      1622.046          35.000  
G24  21468357.379 1 112816983.958 1      1611.059          43.000    21468350.638 1  87909310.122 2      1255.148          40.000  
E33  29254306.544 8               9       -20.494          26.000    29254324.689 1 117795037.900 5       -15.291          31.000  
E25  24435445.590 1 128409150.179 2       618.588          42.000    24435442.040 1  98391405.077 1       474.123          44.000  
E08  25375088.193 1 133346979.498 2      2429.176          40.000    25375083.473 1 102174955.267 2      1861.177          39.000  
E02  27049642.043 1 142146849.661 2      2551.209          39.000    27049639.426 1 108917686.280 1      1955.031          44.000  
G12  23467156.353 1 123320744.027 2      3476.181          43.000    23467147.875 1  96094047.844 2      2708.250          39.000  
> 2021 03 11 09 51 42.0030000  0 37                     
G13  22847023.438 1 120061910.634 2     -2759.620          43.000                                                                  
G14  24725474.689 1 129933280.145 3     -3083.466          38.000    24725469.941 2               7     -2402.228          30.000  
G15  21786936.717 1 114491127.054 2     -1416.357          42.000    21786928.135 1  89213819.227 2     -1103.540          39.000  
G10  25114371.655 1 131976927.517 2       957.284          43.000    25114366.396 2               7       745.646          32.000  
G28  24391156.143 1 128176394.919 2     -2748.217          42.000                                                                  
S36  38996776.298 1 204929435.358 2       244.582          41.000  
C20  24811545.920 1 129200227.846 2     -1978.150          43.000                                                                  
C23  25544028.122 1 133014464.817 2     -2205.785          41.000                                                                  
C28  25493839.169 1 132753121.227 2      2656.355          38.000                                                                  
C19  24713864.583 1 128691590.306 2       815.057          40.000                                                                  
C11  26967633.577 2 140427533.606 5     -1123.453          33.000    26967623.735 1 108587438.832 2      -868.876          40.000  
R15  25054707.789 9               9     -3154.575          15.000                                                                  
R09  21011725.025 1 112201437.863 1      1694.214          44.000    21011723.091 8  87267777.52235      1317.780          40.000  
R17  23439357.985 1 125428756.969 2      -706.842          43.000    23439343.058 9               7      -549.188          38.000  
R07  21077989.923 1 112832130.272 1       337.534          47.000    21077983.311 2  87758290.726 3       262.543          41.000  
R16  20973435.919 1 112036345.056 2     -1538.013          41.000    20973430.835 8               6     -1195.871          34.000  
G17  23100225.814 1 121392515.320 1        14.697          44.000    23100217.108 1  94591533.030 3        11.415          35.000  
G19  22817775.239 1 119908220.144 2      2131.677          42.000                                                                  
E24  26154951.639 1 137445178.132 2     -1785.894          42.000    26154947.798 1 105315134.171 1     -1368.397          45.000  
S23  39183938.737 1 205912989.988 2       243.021          40.000  
G23  24387657.846 1 128158012.507 3      -999.242          37.000    24387649.937 1  99863355.643 3      -778.688          37.000  
C37  22880261.836 1 119143530.916 1      -136.707          44.000                                                                  
C10  40654513.807 4               6      -614.048          31.000    40654498.208 1               6      -474.663          29.000  
R18  23009259.653 1 122825010.353 2      2659.570          42.000    23009257.231 8  95530537.36935      2068.466          34.000  
R08  23674604.765 1 126776439.483 2      3674.713          41.000                                                                  
R06  22094330.237 2 117899573.111 4     -3446.487          34.000                                                                  
R10  24481412.484 2 130499709.550 2      3481.046          40.000                                                                  
E03  24906632.210 1 130885232.378 2      -185.049          41.000    24906630.830 1 100288677.754 1      -141.761          47.000  
E05  26605523.757 1 139812951.069 2     -2556.334          40.000    26605521.677 1 107129396.649 1     -1958.493          45.000  
G20  24701418.082 1 129806829.003 3     -1271.283          38.000                                                                  
E12  27023211.064 1 142007951.962 4      2117.147          34.000    27023209.100 1 108811261.687 3      1621.633          35.000  
G24  21468050.845 1 112815373.100 1      1610.656          43.000    21468044.014 1  87908054.890 2      1255.138          40.000  
E33  29254310.155 8               9       -20.208          26.000    29254328.311 1 117795053.105 5       -15.934          31.000  
E25  24435327.756 1 128408531.525 2       618.324          41.000    24435324.381 1  98390931.045 1       473.922          44.000  
E08  25374625.854 1 133344550.458 2      2428.786          40.000    25374621.398 1 102173094.056 2      1860.822          39.000  
E02  27049156.669 1 142144298.414 2      2551.315          39.000    27049153.937 1 108915731.437 1      1954.833          44.000  
G12  23466494.837 1 123317267.853 1      3475.884          42.000    23466486.400 1  96091339.098 2      2708.771          39.000  
> 2021 03 11 09 51 43.0030000  0 37                     
G13  22847548.513 1 120064670.165 2     -2759.859          43.000                                                                  
G14  24726061.492 1 129936363.559 3     -3083.624          38.000    24726056.748 2               6     -2402.429          31.000  
G15  21787206.286 1 114492543.773 2     -1417.175          42.000    21787197.693 1  89214923.169 2     -1104.376          39.000  
G10  25114189.583 1 131975970.396 1       956.509          42.000    25114184.238 2 102838394.392 5       745.513          32.000  
G28  24391679.168 1 128179143.290 2     -2748.678          42.000                                                                  
S36  38996729.873 1 204929190.869 2       244.069          41.000  
C20  24811925.770 1 129202206.261 2     -1978.821          43.000                                                                  
C23  25544451.749 1 133016670.698 2     -2205.750          41.000                                                                  
C28  25493328.981 1 132750464.946 2      2656.381          38.000                                                                  
C19  24713708.161 1 128690775.561 2       814.124          39.000                                                                  
C11  26967849.372 2 140428657.212 5     -1124.713          33.000    26967839.507 1 108588307.647 2      -869.173          40.000  
R15  25055301.269 9               9     -3161.312          18.000                                                                  
R09  21011407.731 1 112199743.914 1      1693.629          44.000    21011406.264 8  87266459.99124      1317.536          41.000  
R17  23439490.107 1 125429464.171 2      -707.882          43.000    23439478.103 9  97556185.46534      -550.583          39.000  
R07  21077927.060 1 112831793.294 1       336.251          47.000    21077920.292 2  87758028.622 2       261.642          42.000  
R16  20973723.907 1 112037883.310 2     -1538.463          41.000    20973717.161 8  87140535.68735     -1196.447          36.000  
G17  23100223.121 1 121392500.873 1        13.943          44.000    23100214.275 1  94591521.774 4        11.070          35.000  
G19  22817369.616 1 119906088.638 2      2130.873          42.000                                                                  
E24  26155291.454 1 137446964.048 2     -1786.120          42.000    26155287.626 1 105316502.595 1     -1368.591          45.000  
S23  39183892.473 1 205912746.937 2       242.987          40.000  
G23  24387848.104 1 128159012.113 3     -1000.123          37.000    24387840.078 1  99864134.554 3      -779.321          37.000  
C37  22880288.203 1 119143667.595 1      -136.990          44.000                                                                  
C10  40654632.127 4               6      -613.899          30.000    40654616.123 2               7      -473.595          30.000  
R18  23008761.568 1 122822351.089 2      2658.604          42.000    23008758.332 8               6      2068.143          36.000  
R08  23673918.521 1 126772764.973 2      3674.116          41.000    23673923.432 9               7      2856.034          37.000  
R06  22094976.105 2 117903019.503 4     -3446.567          34.000                                                                  
R10  24480759.499 2 130496228.515 2      3480.919          40.000                                                                  
E03  24906667.468 1 130885417.640 2      -185.560          41.000    24906666.034 1 100288819.722 1      -142.338          47.000  
E05  26606010.171 1 139815507.305 2     -2556.429          41.000    26606008.169 1 107131355.333 1     -1958.778          45.000  
G20  24701659.990 1 129808100.342 2     -1271.539          38.000                                                                  
E12  27022808.582 1 142005835.369 4      2116.310          34.000    27022806.204 1 108809639.860 3      1621.070          35.000  
G24  21467744.346 1 112813762.657 1      1610.156          43.000    21467737.594 1  87906800.025 2      1254.270          40.000  
E33  29254317.218 8               9       -19.973          26.000    29254332.108 2               7       -15.612          31.000  
E25  24435210.199 1 128407913.226 2       618.048          41.000    24435206.840 1  98390457.289 1       473.559          44.000  
E08  25374163.662 1 133342121.778 2      2428.234          40.000    25374159.148 1 102171233.099 2      1860.974          39.000  
E02  27048671.133 1 142141747.398 2      2551.046          39.000    27048668.481 1 108913776.771 1      1954.587          44.000  
G12  23465833.372 1 123313792.064 1      3475.391          42.000    23465824.927 1  96088630.710 2      2708.254          39.000  
> 2021 03 11 09 51 44.0030000  0 37                     
G13  22848073.717 1 120067430.065 2     -2760.197          43.000                                                                  
G14  24726648.284 1 129939447.077 2     -3083.484          38.000    24726643.356 2               6     -2402.386          31.000  
G15  21787475.953 1 114493961.025 2     -1417.212          42.000    21787467.450 1  89216027.520 2     -1104.236          39.000  
G10  25114007.630 1 131975013.847 1       956.682          42.000    25114002.298 2 102837649.033 5       744.825          31.000  
G28  24392202.205 1 128181891.727 2     -2748.100          42.000                                                                  
S36  38996683.404 1 204928946.404 2       244.462          41.000  
C20  24812305.792 1 129204185.033 2     -1978.937          43.000                                                                  
C23  25544875.472 1 133018876.667 2     -2205.862          41.000                                                                  
C28  25492818.861 1 132747808.998 2      2656.019          39.000                                                                  
C19  24713551.743 1 128689961.327 2       814.227          40.000                                                                  
C11  26968065.132 1 140429781.251 4     -1124.056          34.000    26968055.369 1 108589176.841 2      -869.082          40.000  
R15  25055893.618 9               9     -3150.946          19.000                                                                  
R09  21011090.534 1 112198050.330 1      1693.617          44.000    21011087.312 8  87265137.25033      1317.410          41.000  
R17  23439622.379 1 125430172.219 1      -708.382          43.000    23439612.451 9  97556736.15823      -550.781          39.000  
R07  21077864.275 1 112831457.207 1       335.802          47.000    21077857.592 2  87757767.225 2       261.245          41.000  
R16  20974011.929 1 112039421.884 2     -1538.470          41.000    20974005.537 8  87141734.33525     -1196.132          34.000  
G17  23100220.420 1 121392487.010 1        13.600          44.000    23100211.551 1  94591510.955 4        11.130          35.000  
G19  22816964.066 1 119903957.698 2      2130.619          42.000                                                                  
E24  26155631.234 1 137448750.056 2     -1785.798          42.000    26155627.468 1 105317871.088 1     -1368.192          45.000  
S23  39183846.177 1 205912503.824 2       243.378          40.000  
G23  24388038.348 1 128160012.234 3     -1000.337          37.000    24388030.287 1  99864913.863 3      -779.222          37.000  
C37  22880314.459 1 119143804.520 1      -136.924          44.000                                                                  
C10  40654749.327 4               7      -613.686          30.000    40654733.895 2               7      -474.559          30.000  
R18  23008263.497 1 122819692.458 2      2658.363          42.000    23008263.271 9               6      2067.675          36.000  
R08  23673232.272 1 126769090.964 2      3674.039          41.000    23673237.901 9               6      2857.823          37.000  
R06  22095622.036 2 117906466.355 4     -3446.999          34.000                                                                  
R10  24480106.512 2 130492747.586 2      3481.160          40.000                                                                  
E03  24906702.829 1 130885603.368 2      -186.168          41.000    24906701.379 1 100288961.993 1      -142.204          47.000  
E05  26606496.798 1 139818063.749 2     -2556.358          40.000    26606494.617 1 107133314.164 1     -1958.805          45.000  
G20  24701901.962 1 129809372.165 2     -1271.924          38.000                                                                  
E12  27022406.169 1 142003719.045 4      2116.375          35.000    27022403.520 1 108808018.280 3      1621.266          35.000  
G24  21467437.977 1 112812152.572 1      1609.972          43.000    21467431.109 1  87905545.394 2      1254.589          40.000  
E33  29254321.535 8               9       -20.674          26.000    29254336.037 1               6       -16.619          30.000  
E25  24435092.440 1 128407295.181 2       618.186          42.000    24435089.115 1  98389983.723 1       473.667          44.000  
E08  25373701.744 1 133339693.364 2      2428.455          40.000    25373697.049 1 102169372.377 2      1860.714          39.000  
E02  27048185.626 1 142139196.553 2      2550.894          39.000    27048182.950 1 108911822.213 1      1954.662          43.000  
G12  23465172.074 1 123310316.521 1      3475.706          43.000    23465163.544 1  96085922.504 2      2708.110          39.000  
> 2021 03 11 09 51 45.0030000  0 37                     
G13  22848599.002 1 120070190.322 2     -2760.572          42.000                                                                  
G14  24727235.093 1 129942530.644 2     -3083.545          38.000    24727230.153 2               6     -2403.046          31.000  
G15  21787745.681 1 114495378.885 2     -1418.378          42.000    21787737.242 1  89217132.334 2     -1104.883          39.000  
G10  25113825.727 1 131974057.939 2       955.154          42.000    25113820.418 2 102836904.179 5       743.870          32.000  
G28  24392725.264 1 128184640.292 2     -2748.777          42.000                                                                  
S36  38996636.985 1 204928701.908 2       244.187          41.000  
C20  24812685.926 1 129206164.201 1     -1979.559          43.000                                                                  
C23  25545299.052 1 133021082.710 2     -2206.229          41.000                                                                  
C28  25492308.923 1 132745153.369 3      2655.204          39.000                                                                  
C19  24713395.389 1 128689147.676 2       813.202          40.000                                                                  
C11  26968281.096 2 140430905.819 5     -1125.484          33.000    26968271.277 1 108590046.430 2      -869.891          40.000  
R15  25056484.707 9               9     -3147.563          20.000                                                                  
R09  21010773.394 1 112196357.119 1      1692.728          45.000    21010769.364 8  87263816.81524      1316.652          39.000  
R17  23439754.790 1 125430881.159 1      -709.580          43.000    23439747.071 8  97557287.53223      -551.237          37.000  
R07  21077801.716 1 112831122.072 1       334.490          47.000    21077794.894 2  87757506.556 3       259.999          40.000  
R16  20974300.026 1 112040960.790 2     -1539.279          42.000    20974293.719 8  87142931.27935     -1196.829          32.000  
G17  23100217.823 1 121392473.775 1        12.760          44.000    23100208.946 1  94591500.660 4         9.933          35.000  
G19  22816558.673 1 119901827.361 1      2129.707          42.000                                                                  
E24  26155971.345 1 137450536.199 2     -1786.337          42.000    26155967.380 1 105319239.707 1     -1368.812          45.000  
S23  39183799.838 1 205912260.698 2       242.664          40.000  
G23  24388228.749 1 128161012.908 4     -1001.076          37.000    24388220.626 1  99865693.616 3      -780.185          37.000  
C37  22880340.834 1 119143941.702 1      -137.512          44.000                                                                  
C10  40654866.265 4               7      -614.109          31.000    40654851.685 2               7      -475.035          30.000  
R18  23007765.595 1 122817034.494 2      2657.302          42.000    23007767.343 8  95524351.47135      2066.865          34.000  
R08  23672546.288 1 126765417.490 2      3673.022          41.000                                                                  
R06  22096267.997 2 117909913.729 4     -3448.166          34.000                                                                  
R10  24479453.496 2 130489266.794 2      3480.391          40.000                                                                  
E03  24906738.380 1 130885789.493 2      -186.536          41.000    24906736.721 1 100289104.633 1      -142.878          47.000  
E05  26606983.322 1 139820620.390 2     -2557.010          40.000    26606981.061 1 107135273.135 1     -1959.054          45.000  
G20  24702144.057 1 129810644.461 2     -1272.668          38.000                                                                  
E12  27022003.669 2 142001603.022 4      2115.991          34.000    27022000.635 1 108806396.901 3      1621.350          35.000  
G24  21467131.712 1 112810542.866 1      1609.094          43.000    21467124.725 1  87904291.083 2      1254.020          40.000  
E33  29254326.031 8               7       -21.155          26.000    29254340.118 1 117795101.009 5       -16.370          31.000  
E25  24434974.730 1 128406677.414 2       617.587          42.000    24434971.560 1  98389510.372 1       473.073          44.000  
E08  25373239.685 1 133337265.220 2      2427.846          40.000    25373235.017 1 102167511.859 2      1860.214          39.000  
E02  27047700.239 1 142136645.829 2      2550.484          39.000    27047697.644 1 108909867.769 1      1954.251          44.000  
G12  23464510.706 1 123306841.309 2      3474.680          42.000    23464502.318 1  96083214.534 2      2707.681          39.000  
> 2021 03 11 09 51 46.0030000  0 37                     
G13  22849124.291 1 120072950.917 2     -2760.992          43.000                                                                  
G14  24727821.945 1 129945614.322 2     -3083.923          38.000    24727816.865 2               6     -2402.716          31.000  
G15  21788015.592 1 114496797.278 2     -1419.080          42.000    21788007.219 1  89218237.581 2     -1105.603          39.000  
G10  25113643.858 1 131973102.579 2       954.882          42.000    25113638.280 2               6       743.410          31.000  
G28  24393248.327 1 128187388.920 2     -2749.040          42.000                                                                  
S36  38996590.432 1 204928457.380 2       244.332          41.000  
C20  24813065.987 1 129208143.724 2     -1979.895          43.000                                                                  
C23  25545722.799 1 133023288.816 2     -2206.473          41.000                                                                  
C28  25491798.861 1 132742498.003 3      2654.661          39.000                                                                  
C19  24713239.156 1 128688334.540 2       812.488          40.000                                                                  
C11  26968497.248 2 140432030.871 5     -1125.928          33.000    26968487.313 1 108590916.390 2      -870.432          40.000  
R15  25057075.967 9               9     -3153.743          20.000                                                                  
R09  21010456.435 1 112194664.254 1      1692.405          45.000    21010453.340 8  87262503.64824      1316.267          38.000  
R17  23439887.379 1 125431590.896 1      -710.375          43.000    23439879.901 4  97557858.06634      -552.412          36.000  
R07  21077739.370 1 112830787.823 1       333.496          47.000    21077732.461 2  87757246.589 3       259.407          39.000  
R16  20974588.056 1 112042499.980 2     -1539.550          41.000    20974580.312 8               6     -1197.622          33.000  
G17  23100215.399 1 121392461.142 1        11.949          44.000    23100206.535 1  94591490.812 4         9.337          35.000  
G19  22816153.395 1 119899697.570 1      2129.053          42.000                                                                  
E24  26156310.994 1 137452322.428 2     -1786.719          42.000    26156307.199 1 105320608.357 1     -1368.784          45.000  
S23  39183753.475 1 205912017.502 2       242.815          40.000  
G23  24388419.284 1 128162014.100 3     -1001.681          37.000    24388411.112 1  99866473.748 3      -780.353          37.000  
C37  22880367.199 1 119144079.123 1      -137.720          44.000                                                                  
C10  40654984.199 4               8      -613.408          31.000    40654969.563 2               7      -475.473          30.000  
R18  23007267.789 1 122814377.192 2      2656.818          42.000    23007268.627 8  95522281.17435      2065.968          34.000  
R08  23671860.386 1 126761744.483 2      3672.691          41.000    23671855.028 9               7      2856.847          34.000  
R06  22096914.082 2 117913361.525 4     -3448.242          34.000                                                                  
R10  24478800.596 2 130485786.107 2      3480.209          40.000                                                                  
E03  24906773.951 1 130885976.066 2      -187.099          41.000    24906772.176 1 100289247.591 1      -143.384          47.000  
E05  26607469.950 1 139823177.200 2     -2557.207          40.000    26607467.666 1 107137232.253 1     -1959.420          45.000  
G20  24702386.179 1 129811917.205 3     -1273.462          38.000                                                                  
E12  27021601.512 2 141999487.311 4      2115.495          34.000    27021598.059 1 108804775.754 3      1621.124          35.000  
G24  21466825.500 1 112808933.487 1      1609.019          43.000    21466818.477 1  87903037.028 2      1253.678          39.000  
E33  29254330.322 8               9       -21.966          26.000    29254344.252 1               6       -16.715          30.000  
E25  24434857.274 1 128406059.890 2       617.148          41.000    24434853.982 1  98389037.198 1       472.939          44.000  
E08  25372777.760 1 133334837.317 2      2427.547          40.000    25372772.874 1 102165651.526 2      1860.027          39.000  
E02  27047214.881 1 142134095.227 2      2550.305          39.000    27047212.219 1 108907913.427 1      1953.903          44.000  
G12  23463849.485 1 123303366.332 2      3474.426          42.000    23463841.002 1  96080506.767 3      2707.473          39.000  
> 2021 03 11 09 51 47.0030000  0 37                     
G13  22849649.654 1 120075711.873 2     -2761.391          43.000                                                                  
G14  24728408.843 1 129948698.081 2     -3083.875          38.000    24728403.744 2               6     -2403.113          31.000  
G15  21788285.663 1 114498216.232 2     -1419.122          42.000    21788277.229 1  89219343.261 2     -1105.811          39.000  
G10  25113462.193 1 131972147.828 1       954.385          42.000    25113456.012 4               7       743.771          31.000  
G28  24393771.349 1 128190137.647 2     -2748.939          42.000                                                                  
S36  38996543.942 1 204928212.807 2       244.739          41.000  
C20  24813446.103 1 129210123.653 2     -1980.267          43.000                                                                  
C23  25546146.313 1 133025494.999 2     -2206.031          41.000                                                                  
C28  25491289.067 1 132739842.924 3      2655.089          39.000                                                                  
C19  24713083.093 1 128687521.929 2       812.347          40.000                                                                  
C11  26968713.484 2 140433156.395 5     -1126.029          34.000    26968703.469 1 108591786.715 2      -870.720          40.000  
R15  25057667.651 9               9     -3156.430          21.000                                                                  
R09  21010139.523 1 112192971.792 1      1691.989          45.000    21010135.887 8  87261185.26734      1316.247          38.000  
R17  23440020.143 1 125432301.473 1      -711.123          43.000    23440013.396 4  97558413.73824      -552.945          36.000  
R07  21077677.101 1 112830454.479 1       332.692          47.000    21077670.195 2  87756987.308 3       259.027          39.000  
R16  20974876.241 1 112044039.499 2     -1539.836          41.000                                                                  
G17  23100212.976 1 121392449.117 1        11.641          44.000    23100204.173 1  94591481.430 3         9.497          35.000  
G19  22815748.166 1 119897568.368 1      2128.777          42.000                                                                  
E24  26156651.042 1 137454108.769 2     -1786.570          42.000    26156647.118 1 105321977.118 1     -1368.861          44.000  
S23  39183707.170 1 205911774.301 2       243.265          40.000  
G23  24388609.979 1 128163015.833 2     -1001.700          38.000    24388601.782 1  99867254.346 3      -780.854          38.000  
C37  22880393.761 1 119144216.806 1      -137.801          44.000                                                                  
C10  40655102.431 4               7      -614.309          31.000    40655087.329 2               7      -474.324          30.000  
R18  23006770.110 1 122811720.590 2      2656.168          42.000    23006768.778 8  95520205.90325      2065.822          35.000  
R08  23671174.574 1 126758071.988 2      3672.233          41.000    23671171.130 9  98589583.29335      2856.183          33.000  
R06  22097560.354 2 117916809.809 4     -3448.493          34.000                                                                  
R10  24478147.710 2 130482305.525 2      3480.450          40.000                                                                  
E03  24906809.542 1 130886163.077 2      -187.238          41.000    24906807.766 1 100289390.887 1      -143.498          47.000  
E05  26607956.523 1 139825734.204 2     -2556.994          40.000    26607954.180 1 107139191.525 1     -1959.364          45.000  
G20  24702628.523 1 129813190.426 3     -1273.352          38.000                                                                  
E12  27021199.211 1 141997371.872 4      2115.631          34.000    27021195.426 1 108803154.851 4      1621.059          35.000  
G24  21466519.238 1 112807324.458 1      1608.868          43.000    21466512.330 1  87901783.229 2      1253.860          39.000  
E33  29254335.901 8               9       -22.338          26.000    29254348.464 2               6       -17.079          30.000  
E25  24434739.746 1 128405442.634 2       616.949          42.000    24434736.601 1  98388564.235 1       472.785          44.000  
E08  25372315.992 1 133332409.724 2      2427.342          40.000    25372310.853 1 102163791.402 2      1860.033          39.000  
E02  27046729.576 1 142131544.787 2      2550.495          39.000    27046726.763 1 108905959.178 1      1954.211          43.000  
G12  23463188.222 1 123299891.672 1      3474.458          42.000    23463179.904 1  96077799.206 2      2707.811          39.000  
> 2021 03 11 09 51 48.0030000  0 37                     
G13  22850175.086 1 120078473.194 2     -2761.648          43.000                                                                  
G14  24728995.636 1 129951781.933 3     -3084.088          38.000    24728990.638 2               7     -2403.027          31.000  
G15  21788555.786 1 114499635.775 1     -1419.830          42.000    21788547.396 1  89220449.400 2     -1106.403          40.000  
G10  25113280.580 1 131971193.697 2       953.887          42.000    25113273.690 4               6       743.131          31.000  
G28  24394294.499 1 128192886.465 2     -2749.147          42.000                                                                  
S36  38996497.473 1 204927968.192 2       244.246          41.000  
C20  24813826.358 1 129212103.951 2     -1980.524          43.000                                                                  
C23  25546569.918 1 133027701.277 2     -2206.279          41.000                                                                  
C28  25490779.196 1 132737188.197 2      2654.136          38.000                                                                  
C19  24712927.204 1 128686709.893 2       811.694          40.000                                                                  
C11  26968929.789 1 140434282.433 4     -1126.445          34.000    26968919.790 1 108592657.443 2      -871.030          40.000  
R15  25058259.567 9               9     -3151.358          22.000                                                                  
R09  21009822.653 1 112191279.674 1      1691.784          45.000    21009818.535 8  87259867.20024      1315.706          38.000  
R17  23440153.083 1 125433012.882 1      -711.838          43.000    23440146.145 4  97558966.05734      -553.702          37.000  
R07  21077615.049 1 112830122.033 1       332.013          47.000    21077608.096 2  87756728.772 3       257.980          39.000  
R16  20975164.437 1 112045579.311 2     -1539.956          41.000    20975161.587 8  87146536.96435     -1197.777          33.000  
G17  23100210.791 1 121392437.702 1        10.914          44.000    23100201.967 1  94591472.535 3         8.929          35.000  
G19  22815343.029 1 119895439.759 2      2128.229          42.000                                                                  
E24  26156990.899 1 137455895.223 2     -1786.769          42.000    26156987.021 1 105323345.952 1     -1368.962          45.000  
S23  39183660.827 1 205911531.095 2       243.101          40.000  
G23  24388800.731 1 128164018.148 3     -1002.599          38.000    24388792.611 1  99868035.367 3      -781.514          38.000  
C37  22880420.273 1 119144354.767 1      -138.410          44.000                                                                  
C10  40655220.161 4               7      -613.779          31.000    40655205.177 2               8      -474.957          30.000  
R18  23006272.536 1 122809064.686 2      2655.329          42.000    23006273.583 8  95518149.68925      2065.458          36.000  
R08  23670488.771 1 126754399.977 2      3671.492          41.000    23670484.600 9  98586727.29725      2855.411          33.000  
R06  22098206.634 2 117920258.618 4     -3449.505          34.000                                                                  
R10  24477494.888 2 130478825.083 2      3480.175          40.000                                                                  
E03  24906845.266 1 130886350.545 2      -187.652          41.000    24906843.437 1 100289534.544 1      -144.081          47.000  
E05  26608443.277 1 139828291.434 2     -2557.373          40.000    26608440.824 1 107141150.952 1     -1959.613          45.000  
G20  24702870.863 1 129814464.123 3     -1273.755          37.000                                                                  
E12  27020796.884 1 141995256.845 3      2114.269          35.000    27020792.850 1 108801534.209 4      1620.246          35.000  
G24  21466213.149 1 112805715.795 2      1608.423          43.000    21466206.150 1  87900529.734 2      1253.210          39.000  
E33  29254341.468 8               9       -23.074          26.000    29254352.733 1               6       -16.850          30.000  
E25  24434622.307 1 128404825.650 2       616.695          41.000    24434619.153 1  98388091.466 1       472.655          44.000  
E08  25371853.986 1 133329982.390 2      2426.924          40.000    25371848.908 1 102161931.500 2      1859.652          40.000  
E02  27046244.218 1 142128994.491 2      2550.173          39.000    27046241.474 1 108904005.069 1      1953.869          43.000  
G12  23462527.103 1 123296417.294 2      3474.145          42.000    23462518.630 1  96075091.918 2      2707.015          39.000  
> 2021 03 11 09 51 49.0030000  0 37                     
G13  22850700.547 1 120081234.876 2     -2761.682          43.000                                                                  
G14  24729582.501 1 129954865.869 2     -3083.350          38.000    24729577.563 2               6     -2403.088          31.000  
G15  21788825.992 1 114501055.880 2     -1420.007          42.000    21788817.678 1  89221555.983 2     -1106.781          40.000  
G10  25113099.175 1 131970240.174 2       953.357          42.000    25113092.112 2               7       743.079          31.000  
G28  24394817.550 1 128195635.377 2     -2748.701          42.000                                                                  
S36  38996451.033 1 204927723.548 2       245.206          41.000  
C20  24814206.762 1 129214084.651 2     -1980.750          43.000                                                                  
C23  25546993.618 1 133029907.639 2     -2205.959          41.000                                                                  
C28  25490269.394 1 132734533.754 2      2654.523          38.000                                                                  
C19  24712771.428 1 128685898.395 2       811.493          39.000                                                                  
C11  26969146.182 1 140435408.941 4     -1126.041          34.000    26969136.168 1 108593528.539 2      -871.018          40.000  
R15  25058851.035 9               9     -3155.022          23.000                                                                  
R09  21009505.797 1 112189587.939 1      1691.895          45.000    21009500.990 8  87258548.38524      1315.946          38.000  
R17  23440286.193 1 125433725.126 2      -712.373          43.000    23440280.395 4  97559525.02824      -554.026          37.000  
R07  21077553.046 1 112829790.500 1       331.504          47.000    21077546.085 2  87756470.912 2       257.650          40.000  
R16  20975452.827 1 112047119.415 2     -1539.781          41.000    20975448.910 8  87147734.83825     -1198.073          34.000  
G17  23100208.715 1 121392426.902 1        10.837          44.000    23100199.819 1  94591464.135 3         8.335          35.000  
G19  22814938.106 1 119893311.738 2      2128.123          42.000                                                                  
E24  26157330.910 1 137457681.772 1     -1786.118          42.000    26157327.039 1 105324714.880 1     -1368.644          44.000  
S23  39183614.509 1 205911287.864 2       243.229          40.000  
G23  24388991.596 1 128165020.977 3     -1002.568          38.000    24388983.421 1  99868816.774 3      -781.379          38.000  
C37  22880446.832 1 119144492.962 1      -137.898          45.000                                                                  
C10  40655337.979 4               7      -612.671          31.000    40655323.058 2               7      -473.670          30.000  
R18  23005775.181 1 122806409.458 2      2654.792          42.000    23005778.362 8  95516094.03234      2065.171          37.000  
R08  23669803.137 1 126750728.462 2      3671.676          41.000    23669857.878 9               6      2855.600          34.000  
R06  22098852.987 2 117923707.884 4     -3449.365          34.000                                                                  
R10  24476842.086 2 130475344.746 2      3480.626          40.000                                                                  
E03  24906880.959 1 130886538.457 2      -187.717          41.000    24906879.052 1 100289678.513 1      -143.832          46.000  
E05  26608929.949 1 139830848.848 2     -2556.892          40.000    26608927.462 1 107143110.536 1     -1959.353          45.000  
G20  24703113.287 1 129815738.319 2     -1273.950          38.000                                                                  
E12  27020394.355 1 141993142.030 4      2115.084          35.000    27020390.417 1 108799913.820 4      1620.548          35.000  
G24  21465907.147 1 112804107.509 2      1608.354          43.000    21465900.173 1  87899276.522 2      1252.948          39.000  
E33  29254345.812 8               9       -22.884          26.000    29254357.139 2               7       -18.724          30.000  
E25  24434504.979 1 128404208.924 2       617.002          42.000    24434501.757 1  98387618.926 1       472.807          44.000  
E08  25371392.079 1 133327555.317 2      2427.217          40.000    25371387.080 1 102160071.813 2      1859.965          39.000  
E02  27045758.815 1 142126444.347 2      2550.542          39.000    27045756.123 1 108902051.049 1      1954.291          43.000  
G12  23461865.956 1 123292943.203 2      3474.196          42.000    23461857.562 1  96072384.862 2      2707.214          39.000  
> 2021 03 11 09 51 50.0030000  0 37                     
G13  22851226.134 1 120083996.897 2     -2762.539          43.000                                                                  
G14  24730169.406 1 129957949.922 2     -3084.253          38.000    24730164.422 2 101265879.297 5     -2402.960          31.000  
G15  21789096.315 1 114502476.537 2     -1421.203          42.000    21789088.026 1  89222662.983 2     -1107.269          39.000  
G10  25112917.827 1 131969287.207 1       952.388          42.000    25112910.177 4               6       742.930          32.000  
G28  24395340.720 1 128198384.375 2     -2749.644          42.000                                                                  
S36  38996404.459 1 204927478.917 2       244.317          41.000  
C20  24814587.101 1 129216065.717 2     -1981.824          42.000                                                                  
C23  25547417.319 1 133032114.058 2     -2206.656          41.000                                                                  
C28  25489759.688 1 132731879.607 3      2653.489          38.000                                                                  
C19  24712615.493 1 128685087.411 2       810.388          40.000                                                                  
C11  26969362.936 1 140436535.970 4     -1127.974          34.000    26969352.612 1 108594399.999 2      -871.733          40.000  
R15  25059441.790 9               9     -3154.318          24.000                                                                  
R09  21009189.015 1 112187896.564 1      1690.952          46.000    21009186.340 8  87257232.85323      1315.431          39.000  
R17  23440419.455 1 125434438.226 2      -713.803          44.000    23440413.609 4  97560079.68524      -555.583          36.000  
R07  21077491.244 1 112829459.872 1       329.840          47.000    21077484.213 2  87756213.747 3       256.784          40.000  
R16  20975741.209 1 112048659.784 2     -1540.859          42.000                                                                  
G17  23100206.871 1 121392416.705 1         9.608          44.000    23100197.702 1  94591456.187 3         7.761          35.000  
G19  22814533.143 1 119891184.283 2      2126.875          42.000                                                                  
E24  26157670.943 1 137459468.458 2     -1787.196          42.000    26157667.014 1 105326083.897 1     -1369.399          45.000  
S23  39183568.173 1 205911044.592 2       242.943          40.000  
G23  24389182.568 1 128166024.356 3     -1003.970          38.000    24389174.277 1  99869598.610 3      -782.155          38.000  
C37  22880473.504 1 119144631.414 1      -138.884          44.000                                                                  
C10  40655456.030 2               7      -613.611          31.000    40655440.874 2               8      -474.467          30.000  
R18  23005277.932 1 122803754.866 2      2653.884          42.000    23005281.581 8  95514031.36724      2063.929          37.000  
R08  23669117.633 1 126747057.459 2      3670.444          41.000                                                                  
R06  22099499.446 2 117927157.621 4     -3449.981          34.000                                                                  
R10  24476189.275 2 130471864.527 2      3480.159          40.000                                                                  
E03  24906916.705 1 130886726.796 2      -188.921          41.000    24906914.913 1 100289822.822 1      -144.808          47.000  
E05  26609416.708 1 139833406.467 2     -2557.970          40.000    26609414.206 1 107145070.264 1     -1960.090          45.000  
G20  24703355.781 1 129817012.959 3     -1274.792          37.000                                                                  
E12  27019992.384 1 141991027.551 4      2113.943          35.000    27019988.031 1 108798293.619 4      1620.080          35.000  
G24  21465601.155 1 112802499.565 2      1607.414          43.000    21465594.254 1  87898023.548 2      1252.606          40.000  
E33  29254352.012 8               9       -23.534          26.000    29254361.730 1               6       -18.808          30.000  
E25  24434387.776 1 128403592.467 2       615.888          42.000    24434384.679 1  98387146.574 1       472.045          44.000  
E08  25370930.406 1 133325128.510 2      2426.330          40.000    25370925.300 1 102158212.319 2      1859.176          39.000  
E02  27045273.632 1 142123894.357 2      2549.323          39.000    27045270.892 1 108900097.150 1      1953.711          43.000  
G12  23461204.916 1 123289469.386 2      3473.490          42.000    23461196.542 1  96069677.996 2      2706.281          38.000  
> 2021 03 11 09 51 51.0030000  0 37                     
G13  22851751.821 1 120086759.394 1     -2762.747          43.000                                                                  
G14  24730756.256 1 129961034.144 2     -3084.314          38.000    24730751.412 2               6     -2403.034          31.000  
G15  21789366.810 1 114503897.873 2     -1421.674          42.000    21789358.517 1  89223770.520 2     -1108.087          39.000  
G10  25112736.566 1 131968334.969 2       951.994          42.000    25112728.181 4 102832444.751 5       741.497          32.000  
G28  24395863.890 1 128201133.556 2     -2749.299          42.000                                                                  
S36  38996357.994 1 204927234.386 2       244.445          41.000  
C20  24814967.691 1 129218047.258 2     -1981.659          42.000                                                                  
C23  25547841.075 1 133034320.691 2     -2206.990          41.000                                                                  
C28  25489250.142 1 132729225.849 3      2653.742          39.000                                                                  
C19  24712459.849 1 128684277.100 2       809.717          40.000                                                                  
C11  26969579.513 1 140437663.582 4     -1127.963          34.000    26969569.105 1 108595271.948 2      -872.386          40.000  
R15  25060034.303 9               9     -3156.144          24.000                                                                  
R09  21008872.297 1 112186205.685 1      1690.685          46.000    21008868.773 4  87255917.74623      1314.739          40.000  
R17  23440552.878 1 125435152.314 1      -714.492          44.000    23440546.610 4  97560633.03434      -555.535          36.000  
R07  21077429.737 1 112829130.243 1       329.197          47.000    21077422.595 2  87755957.371 3       255.966          39.000  
R16  20976029.627 1 112050200.542 2     -1540.959          42.000                                                                  
G17  23100205.184 1 121392407.232 1         8.987          44.000    23100195.875 1  94591448.781 3         7.381          35.000  
G19  22814128.347 1 119889057.537 1      2126.430          42.000                                                                  
E24  26158011.052 1 137461255.334 2     -1787.031          42.000    26158006.924 1 105327453.061 1     -1369.337          45.000  
S23  39183521.988 1 205910801.419 2       243.325          39.000  
G23  24389373.639 1 128167028.354 3     -1004.145          37.000    24389365.349 1  99870380.962 3      -782.290          38.000  
C37  22880500.188 1 119144770.221 1      -138.949          44.000                                                                  
C10  40655573.800 2               6      -613.037          31.000    40655558.734 2               7      -475.186          30.000  
R18  23004780.871 1 122801101.016 2      2653.742          42.000    23004784.243 8               6      2064.023          34.000  
R08  23668432.291 1 126743387.062 2      3669.997          42.000    23668469.248 9  98578337.73234      2853.613          34.000  
R06  22100146.084 2 117930607.980 4     -3450.379          34.000                                                                  
R10  24475536.509 2 130468384.533 2      3479.993          40.000                                                                  
E03  24906952.446 1 130886915.680 2      -189.294          40.000    24906950.884 1 100289967.550 1      -145.061          47.000  
E05  26609903.511 1 139835964.388 2     -2558.169          40.000    26609901.005 1 107147030.218 1     -1960.180          45.000  
G20  24703598.501 1 129818288.176 3     -1275.018          37.000                                                                  
E12  27019590.351 1 141988913.474 3      2113.722          35.000    27019585.696 1 108796673.760 3      1619.821          35.000  
G24  21465295.182 1 112800892.087 2      1607.262          43.000    21465288.579 1  87896770.968 2      1252.249          40.000  
E33  29254356.586 8               9       -24.467          26.000    29254366.376 1 117795206.587 5       -18.550          31.000  
E25  24434270.415 1 128402976.358 2       615.975          42.000    24434267.438 1  98386674.498 1       472.058          45.000  
E08  25370468.600 1 133322702.071 2      2426.372          40.000    25370463.510 1 102156353.100 2      1859.075          39.000  
E02  27044788.399 1 142121344.588 2      2549.565          39.000    27044785.452 1 108898143.442 1      1953.607          43.000  
G12  23460544.031 1 123285995.973 2      3473.185          42.000    23460535.572 1  96066971.435 2      2706.459          38.000  
> 2021 03 11 09 51 52.0030000  0 37                     
G13  22852277.668 1 120089522.248 2     -2763.186          43.000                                                                  
G14  24731343.171 1 129964118.462 3     -3084.723          38.000    24731338.358 2               6     -2403.912          31.000  
G15  21789637.411 1 114505319.777 2     -1422.375          42.000    21789629.219 1  89224878.498 2     -1108.411          39.000  
G10  25112555.612 1 131967383.340 2       950.898          42.000    25112546.520 4               6       741.229          32.000  
G28  24396387.101 1 128203882.845 2     -2749.523          42.000                                                                  
S36  38996311.480 1 204926989.892 2       243.888          41.000  
C20  24815348.422 1 129220029.182 2     -1982.117          42.000                                                                  
C23  25548264.842 1 133036527.371 2     -2207.082          41.000                                                                  
C28  25488740.658 1 132726572.402 3      2653.358          38.000                                                                  
C19  24712304.323 1 128683467.314 2       809.583          40.000                                                                  
C11  26969796.119 1 140438791.718 4     -1128.956          34.000    26969785.755 1 108596144.263 2      -872.713          40.000  
R15  25060626.418 9               9     -3152.904          25.000                                                                  
R09  21008555.787 1 112184515.169 1      1690.082          46.000    21008552.751 4  87254610.39234      1314.633          39.000  
R17  23440686.512 1 125435867.239 1      -715.504          44.000    23440692.803 9  97561241.09535      -556.501          35.000  
R07  21077368.286 1 112828801.523 1       327.940          47.000    21077361.224 2  87755701.694 3       254.969          38.000  
R16  20976318.168 1 112051741.594 2     -1541.373          42.000                                                                  
G17  23100203.521 1 121392398.364 1         8.246          43.000    23100194.098 1  94591441.879 3         6.643          36.000  
G19  22813723.743 1 119886931.377 2      2125.620          42.000                                                                  
E24  26158350.961 1 137463042.325 2     -1787.409          42.000    26158347.075 1 105328822.322 1     -1369.693          45.000  
S23  39183475.704 1 205910558.224 2       243.013          40.000  
G23  24389564.755 1 128168032.918 3     -1005.090          37.000    24389556.486 1  99871163.741 2      -783.340          38.000  
C37  22880526.863 1 119144909.285 1      -139.305          44.000                                                                  
C10  40655691.586 2               6      -614.233          31.000    40655676.729 2               8      -474.847          30.000  
R18  23004283.801 1 122798447.843 2      2652.693          42.000    23004289.011 8  95509910.70335      2062.912          33.000  
R08  23667746.953 1 126739717.172 2      3669.257          42.000                                                                  
R06  22100792.823 2 117934058.842 4     -3451.769          35.000                                                                  
R10  24474883.705 2 130464904.669 2      3479.838          41.000                                                                  
E03  24906988.490 1 130887105.013 2      -189.833          41.000    24906986.947 1 100290112.616 1      -145.378          47.000  
E05  26610390.218 1 139838522.480 2     -2558.403          40.000    26610387.701 1 107148990.329 1     -1960.535          45.000  
G20  24703841.182 1 129819563.895 3     -1276.324          37.000                                                                  
E12  27019188.461 1 141986799.728 4      2113.150          35.000    27019183.392 1 108795054.120 4      1619.333          35.000  
G24  21464989.357 1 112799284.978 2      1606.467          43.000    21464982.739 1  87895518.680 2      1251.664          40.000  
E33  29254362.111 8               9       -25.004          27.000    29254371.057 1               6       -19.620          31.000  
E25  24434153.331 1 128402360.523 2       615.484          42.000    24434150.260 1  98386202.631 1       471.379          45.000  
E08  25370006.843 1 133320275.930 2      2425.806          40.000    25370001.913 1 102154494.119 2      1858.521          39.000  
E02  27044303.167 1 142118794.987 2      2549.043          39.000    27044300.317 1 108896189.851 1      1953.312          43.000  
G12  23459883.078 1 123282522.855 2      3472.651          42.000    23459874.676 1  96064265.102 2      2705.795          38.000  
> 2021 03 11 09 51 53.0030000  0 37                     
G13  22852803.458 1 120092285.508 2     -2763.419          43.000                                                                  
G14  24731930.199 1 129967202.924 3     -3084.735          38.000    24731925.337 2               6     -2403.448          31.000  
G15  21789908.157 1 114506742.309 1     -1423.169          43.000    21789899.928 1  89225986.955 2     -1108.807          40.000  
G10  25112374.589 1 131966432.352 2       950.431          42.000    25112365.060 4               6       740.241          32.000  
G28  24396910.303 1 128206632.285 2     -2749.580          42.000                                                                  
S36  38996265.001 1 204926745.467 2       244.230          41.000  
C20  24815729.226 1 129222011.553 2     -1982.654          42.000                                                                  
C23  25548688.620 1 133038734.208 2     -2206.983          41.000                                                                  
C28  25488231.068 1 132723919.324 2      2652.656          38.000                                                                  
C19  24712148.965 1 128682658.172 2       808.557          40.000                                                                  
C11  26970012.886 1 140439920.325 4     -1128.772          34.000    26970002.557 1 108597017.008 2      -873.136          40.000  
R15  25061215.603 9               9     -3154.681          25.000                                                                  
R09  21008239.326 1 112182825.060 1      1689.795          45.000    21008236.953 4  87253295.88723      1314.086          41.000  
R17  23440820.212 1 125436583.046 1      -716.359          44.000    23440823.098 9  97561783.84024      -557.163          38.000  
R07  21077307.091 1 112828473.759 1       327.012          47.000    21077299.988 2  87755446.763 3       254.613          38.000  
R16  20976606.744 1 112053283.029 2     -1541.835          42.000                                                                  
G17  23100201.942 1 121392390.152 1         7.704          43.000    23100192.527 1  94591435.510 3         5.893          36.000  
G19  22813319.266 1 119884805.840 2      2125.020          42.000                                                                  
E24  26158690.984 1 137464829.482 2     -1787.353          42.000    26158687.126 1 105330191.693 1     -1369.532          45.000  
S23  39183429.515 1 205910315.086 2       243.082          40.000  
G23  24389755.963 1 128169038.073 3     -1005.477          38.000    24389747.726 1  99871946.969 3      -783.431          38.000  
C37  22880553.665 1 119145048.674 1      -139.808          44.000                                                                  
C10  40655809.489 2               7      -614.177          31.000    40655794.726 2               6      -475.300          31.000  
R18  23003786.813 1 122795795.391 2      2652.094          42.000    23003789.240 8  95507835.68324      2062.734          34.000  
R08  23667061.824 1 126736047.813 2      3669.064          42.000                                                                  
R06  22101439.598 2 117937510.249 4     -3452.574          34.000                                                                  
R10  24474230.909 2 130461424.997 2      3479.328          40.000                                                                  
E03  24907024.650 1 130887294.834 2      -190.239          41.000    24907023.025 1 100290258.064 1      -145.577          47.000  
E05  26610877.149 1 139841080.839 2     -2558.600          40.000    26610874.626 1 107150950.626 1     -1960.491          45.000  
G20  24704083.935 1 129820840.105 3     -1276.556          37.000                                                                  
E12  27018786.407 1 141984686.322 4      2113.208          35.000    27018781.178 1 108793434.755 3      1619.544          35.000  
G24  21464683.628 1 112797678.242 1      1606.438          43.000    21464677.030 1  87894266.682 2      1251.584          40.000  
E33  29254367.012 8               9       -25.247          27.000    29254375.934 1               6       -20.179          30.000  
E25  24434036.106 1 128401745.016 2       615.236          41.000    24434033.078 1  98385731.004 1       471.337          45.000  
E08  25369545.246 1 133317850.098 2      2425.672          40.000    25369540.291 1 102152635.357 2      1858.560          39.000  
E02  27043818.148 1 142116245.581 2      2548.908          40.000    27043815.156 1 108894236.406 1      1953.254          43.000  
G12  23459222.224 1 123279050.062 1      3472.443          42.000    23459213.868 1  96061559.033 2      2705.858          38.000  
> 2021 03 11 09 51 54.0030000  0 37                     
G13  22853329.484 1 120095049.161 1     -2763.786          44.000                                                                  
G14  24732517.204 1 129970287.512 2     -3084.241          38.000    24732512.463 2               6     -2403.662          31.000  
G15  21790178.937 1 114508165.442 1     -1423.486          43.000    21790170.778 1  89227095.899 2     -1109.088          40.000  
G10  25112193.678 1 131965482.030 1       949.803          42.000    25112183.823 4               6       740.283          32.000  
G28  24397433.561 1 128209381.860 2     -2749.789          42.000                                                                  
S36  38996218.559 1 204926501.128 2       244.367          41.000  
C20  24816109.952 1 129223994.362 2     -1983.099          43.000                                                                  
C23  25549112.470 1 133040941.164 2     -2207.123          41.000                                                                  
C28  25487721.622 1 132721266.575 2      2652.795          38.000                                                                  
C19  24711993.775 1 128681849.592 2       808.173          40.000                                                                  
C11  26970229.576 2 140441049.513 4     -1129.062          34.000    26970219.400 1 108597890.153 2      -873.435          39.000  
R15  25061807.474 9               9     -3152.090          26.000                                                                  
R09  21007922.759 1 112181135.367 1      1689.535          44.000    21007920.745 8  87251985.20534      1313.929          41.000  
R17  23440954.181 1 125437299.758 1      -717.303          44.000    23440954.276 9  97562341.26423      -557.547          37.000  
R07  21077245.992 1 112828146.975 1       326.346          47.000    21077238.946 2  87755192.612 3       253.998          40.000  
R16  20976895.488 1 112054824.803 2     -1541.883          42.000                                                                  
G17  23100200.565 1 121392382.608 2         7.126          43.000    23100191.104 1  94591429.613 3         5.826          36.000  
G19  22812914.910 1 119882680.936 2      2124.926          41.000                                                                  
E24  26159031.004 1 137466616.805 1     -1787.593          42.000    26159027.362 1 105331561.184 1     -1369.454          45.000  
S23  39183383.147 1 205910071.910 2       243.017          40.000  
G23  24389947.463 1 128170043.787 3     -1005.404          38.000    24389939.126 1  99872730.674 2      -784.129          38.000  
C37  22880580.642 1 119145188.346 1      -139.747          45.000                                                                  
C10  40655927.374 2               6      -613.798          31.000    40655912.729 2               6      -473.605          31.000  
R18  23003290.171 1 122793143.682 2      2651.495          42.000    23003292.205 8  95505771.74824      2062.224          35.000  
R08  23666376.683 1 126732378.979 2      3668.631          42.000    23666380.484 9               6      2853.520          35.000  
R06  22102086.384 2 117940962.112 3     -3452.124          34.000                                                                  
R10  24473578.231 2 130457945.474 2      3479.522          40.000                                                                  
E03  24907060.866 1 130887485.145 2      -190.713          41.000    24907059.237 1 100290403.895 1      -145.997          47.000  
E05  26611364.096 1 139843639.440 2     -2558.634          40.000    26611361.481 1 107152911.110 1     -1960.422          45.000  
G20  24704326.917 1 129822116.842 3     -1277.136          37.000                                                                  
E12  27018384.584 1 141982573.278 4      2112.930          35.000    27018379.134 1 108791815.669 3      1619.331          35.000  
G24  21464377.976 1 112796071.890 1      1606.034          43.000    21464371.355 1  87893015.009 2      1251.494          40.000  
E33  29254372.137 8               8       -26.288          27.000    29254380.838 1               6       -20.233          30.000  
E25  24433919.129 1 128401129.781 2       615.340          41.000    24433916.017 1  98385259.597 1       471.448          44.000  
E08  25369083.731 1 133315424.606 2      2425.327          40.000    25369078.763 1 102150776.843 2      1858.466          39.000  
E02  27043332.994 1 142113696.345 2      2549.148          40.000    27043330.055 1 108892283.115 1      1953.134          43.000  
G12  23458561.388 1 123275577.596 2      3472.393          42.000    23458553.121 1  96058853.220 3      2705.723          38.000  
> 2021 03 11 09 51 55.0030000  0 37                     
G13  22853855.462 1 120097813.126 2     -2763.835          43.000                                                                  
G14  24733104.170 1 129973372.183 2     -3084.771          38.000    24733099.620 2 101277896.656 5     -2403.638          31.000  
G15  21790449.854 1 114509589.115 2     -1423.901          43.000    21790441.816 1  89228205.272 2     -1109.918          40.000  
G10  25112012.971 1 131964532.251 2       949.606          42.000    25112002.543 2               6       740.808          31.000  
G28  24397956.785 1 128212131.486 2     -2749.750          42.000                                                                  
S36  38996172.027 1 204926256.716 2       244.718          41.000  
C20  24816490.701 1 129225977.509 2     -1983.466          42.000                                                                  
C23  25549536.395 1 133043148.147 2     -2206.870          41.000                                                                  
C28  25487212.071 1 132718614.109 3      2652.730          38.000                                                                  
C19  24711838.582 1 128681041.515 2       807.648          40.000                                                                  
C11  26970446.440 1 140442179.154 4     -1130.008          34.000    26970436.367 1 108598763.681 2      -873.725          40.000  
R15  25062398.960 9               9     -3152.178          26.000                                                                  
R09  21007606.488 1 112179446.021 1      1689.266          45.000    21007605.112 8  87250674.76935      1313.635          39.000  
R17  23441088.347 1 125438017.290 1      -717.852          44.000    23441110.035 9               6      -558.435          37.000  
R07  21077185.083 1 112827821.095 1       325.560          47.000    21077177.950 2  87754939.147 3       253.027          40.000  
R16  20977184.311 1 112056366.905 2     -1542.239          42.000                                                                  
G17  23100199.203 1 121392375.631 2         6.922          43.000    23100189.718 1  94591424.190 3         4.947          36.000  
G19  22812510.630 1 119880556.584 2      2124.392          41.000                                                                  
E24  26159371.099 1 137468404.188 1     -1787.455          42.000    26159367.453 1 105332930.754 1     -1369.750          45.000  
S23  39183336.858 1 205909828.689 2       243.195          39.000  
G23  24390139.035 1 128171050.057 3     -1006.555          38.000    24390130.667 1  99873514.747 2      -784.204          39.000  
C37  22880607.448 1 119145328.238 1      -140.010          45.000                                                                  
C10  40656045.365 2               7      -613.895          31.000    40656030.768 2               6      -473.643          31.000  
R18  23002793.525 1 122790492.642 2      2650.640          42.000    23002793.816 8  95503702.32424      2061.527          34.000  
R08  23665691.599 1 126728710.605 2      3668.136          42.000    23665695.551 9               6      2853.155          34.000  
R06  22102733.411 2 117944414.460 4     -3452.980          35.000                                                                  
R10  24472925.408 2 130454466.061 2      3479.512          40.000                                                                  
E03  24907097.225 1 130887675.852 2      -190.855          41.000    24907095.462 1 100290550.032 1      -146.375          47.000  
E05  26611851.060 1 139846198.213 2     -2558.820          40.000    26611848.502 1 107154871.732 1     -1960.792          45.000  
G20  24704569.805 1 129823394.038 3     -1277.771          37.000                                                                  
E12  27017982.513 1 141980460.510 4      2112.607          35.000    27017977.007 1 108790196.811 3      1618.435          35.000  
G24  21464072.309 1 112794465.882 1      1606.008          43.000    21464065.729 1  87891763.568 2      1251.634          39.000  
E33  29254378.048 8               7       -26.531          27.000    29254385.575 1               7       -20.553          30.000  
E25  24433802.014 1 128400514.823 1       614.765          42.000    24433798.956 1  98384788.389 1       471.053          44.000  
E08  25368622.133 1 133312999.333 2      2425.088          40.000    25368617.213 1 102148918.520 2      1858.236          39.000  
E02  27042847.857 1 142111147.254 2      2548.925          40.000    27042845.054 1 108890329.895 1      1953.177          43.000  
G12  23457900.575 1 123272105.393 2      3472.441          42.000    23457892.356 1  96056147.618 2      2705.280          38.000  
> 2021 03 11 09 51 56.0030000  0 37                     
G13  22854381.552 1 120100577.505 2     -2764.179          43.000                                                                  
G14  24733691.380 1 129976456.953 2     -3084.607          38.000    24733686.637 2 101280300.402 5     -2403.803          32.000  
G15  21790720.935 1 114511013.397 2     -1424.487          43.000    21790712.887 1  89229315.074 2     -1109.906          40.000  
G10  25111832.391 1 131963583.124 2       948.988          42.000    25111821.657 2               6       740.657          31.000  
G28  24398479.998 1 128214881.245 2     -2749.914          42.000                                                                  
S36  38996125.539 1 204926012.364 2       244.218          41.000  
C20  24816871.679 1 129227961.059 2     -1983.478          42.000                                                                  
C23  25549960.264 1 133045355.266 2     -2206.922          41.000                                                                  
C28  25486702.754 1 132715962.005 3      2651.998          37.000                                                                  
C19  24711683.655 1 128680234.021 2       807.574          40.000                                                                  
C11  26970663.384 2 140443309.330 4     -1130.127          34.000    26970653.460 1 108599637.595 2      -873.665          40.000  
R15  25062989.223 9               9     -3151.866          25.000                                                                  
R09  21007290.124 1 112177757.081 1      1688.940          45.000    21007287.233 8  87249354.61324      1313.772          38.000  
R17  23441222.663 1 125438735.691 1      -718.593          44.000                                                                  
R07  21077124.431 1 112827496.143 1       324.752          46.000    21077117.275 2  87754686.413 3       252.356          39.000  
R16  20977473.163 1 112057909.374 2     -1542.621          42.000                                                                  
G17  23100198.055 1 121392369.313 2         6.211          43.000    23100188.512 1  94591419.249 3         5.158          36.000  
G19  22812106.497 1 119878432.850 2      2123.880          41.000                                                                  
E24  26159711.173 1 137470191.713 1     -1787.391          42.000    26159707.545 1 105334300.415 1     -1369.655          44.000  
S23  39183290.564 1 205909585.479 2       243.538          40.000  
G23  24390330.637 1 128172056.888 3     -1006.983          38.000    24390322.326 1  99874299.288 2      -784.652          39.000  
C37  22880634.450 1 119145468.431 1      -139.868          45.000                                                                  
C10  40656163.334 2               6      -612.305          31.000    40656148.645 2               7      -474.000          30.000  
R18  23002296.962 1 122787842.281 2      2650.310          41.000    23002294.555 8  95501629.93935      2061.207          35.000  
R08  23665006.707 1 126725042.771 2      3667.827          42.000                                                                  
R06  22103380.548 2 117947867.279 4     -3453.287          35.000                                                                  
R10  24472272.682 2 130450986.801 2      3479.548          40.000                                                                  
E03  24907133.729 1 130887867.059 2      -191.269          41.000    24907131.882 1 100290696.533 1      -146.542          47.000  
E05  26612338.015 1 139848757.201 2     -2558.800          40.000    26612335.348 1 107156832.519 1     -1960.867          45.000  
G20  24704812.947 1 129824671.717 3     -1278.149          37.000                                                                  
E12  27017580.587 1 141978348.070 4      2113.105          34.000    27017575.010 1 108788578.208 4      1618.495          35.000  
G24  21463766.752 1 112792860.310 1      1605.787          43.000    21463760.187 1  87890512.474 2      1251.134          39.000  
E33  29254384.584 8               8       -26.144          26.000    29254390.742 2               7       -19.185          30.000  
E25  24433685.219 1 128399900.137 1       614.902          42.000    24433681.876 1  98384317.394 1       471.131          44.000  
E08  25368160.974 1 133310574.356 2      2425.110          40.000    25368155.630 1 102147060.419 2      1858.296          39.000  
E02  27042362.950 1 142108598.318 2      2549.016          40.000    27042359.931 1 108888376.824 1      1953.266          43.000  
G12  23457239.955 1 123268633.530 2      3471.821          42.000    23457231.738 1  96053442.250 2      2704.985          38.000  
> 2021 03 11 09 51 57.0030000  0 37                     
G13  22854907.686 1 120103342.083 2     -2764.620          44.000                                                                  
G14  24734278.436 1 129979541.681 2     -3084.656          38.000    24734273.783 2               6     -2404.315          32.000  
G15  21790992.080 1 114512438.084 1     -1424.896          43.000    21790984.060 1  89230425.234 2     -1110.730          40.000  
G10  25111651.806 1 131962634.436 2       948.492          43.000    25111640.553 4               6       739.009          32.000  
G28  24399003.178 1 128217630.921 2     -2749.701          42.000                                                                  
S36  38996079.123 1 204925767.869 2       244.532          41.000  
C20  24817252.729 1 129229944.854 2     -1984.137          42.000                                                                  
C23  25550384.102 1 133047562.298 2     -2207.010          41.000                                                                  
C28  25486193.487 1 132713310.026 3      2651.958          38.000                                                                  
C19  24711528.611 1 128679426.930 2       806.671          39.000                                                                  
C11  26970880.443 2 140444439.863 5     -1130.396          34.000    26970870.583 1 108600511.780 2      -874.133          39.000  
R15  25063580.423 9               9     -3152.364          25.000                                                                  
R09  21006973.992 1 112176068.379 1      1688.308          45.000    21006971.233 8  87248042.17624      1313.340          39.000  
R17  23441356.942 1 125439454.776 1      -719.586          45.000    23441357.886 9               6      -559.464          36.000  
R07  21077063.742 1 112827171.942 1       323.848          46.000    21077056.721 2  87754434.246 3       251.982          38.000  
R16  20977761.991 1 112059451.937 2     -1542.700          42.000                                                                  
G17  23100196.896 1 121392363.454 1         5.503          43.000    23100187.299 1  94591414.696 3         4.357          36.000  
G19  22811702.466 1 119876309.565 2      2122.625          41.000                                                                  
E24  26160051.463 1 137471979.205 2     -1787.594          42.000    26160047.600 1 105335670.053 1     -1369.751          44.000  
S23  39183244.234 1 205909342.099 2       243.166          40.000  
G23  24390522.455 1 128173064.113 3     -1008.067          38.000    24390514.101 1  99875084.129 2      -785.139          39.000  
C37  22880661.496 1 119145608.725 1      -140.308          44.000                                                                  
C10  40656281.188 2               6      -613.850          31.000    40656266.362 4               8      -474.548          30.000  
R18  23001800.566 1 122785192.417 2      2649.638          41.000    23001797.865 8  95499567.45435      2060.369          36.000  
R08  23664321.880 1 126721375.271 2      3667.264          42.000                                                                  
R06  22104027.668 2 117951320.381 3     -3453.246          35.000                                                                  
R10  24471620.039 2 130447507.517 2      3478.909          39.000                                                                  
E03  24907170.235 1 130888058.531 2      -191.453          41.000    24907168.257 1 100290843.247 1      -146.856          46.000  
E05  26612824.847 1 139851316.254 2     -2559.209          40.000    26612822.364 1 107158793.328 1     -1960.884          45.000  
G20  24705056.110 1 129825949.731 3     -1278.729          36.000                                                                  
E12  27017178.667 1 141976235.820 4      2112.385          34.000    27017173.009 1 108786959.708 3      1618.474          35.000  
G24  21463461.187 1 112791254.947 1      1605.169          43.000    21463454.737 1  87889261.529 2      1250.799          39.000  
E33  29254389.380 8               9       -27.456          26.000    29254395.709 1               7       -22.113          30.000  
E25  24433568.346 1 128399285.565 1       614.521          42.000    24433564.961 1  98383846.486 1       470.927          44.000  
E08  25367699.405 1 133308149.526 2      2424.547          40.000    25367694.048 1 102145202.446 2      1857.894          39.000  
E02  27041877.938 1 142106049.372 2      2549.190          40.000    27041874.834 1 108886423.745 1      1952.970          43.000  
G12  23456579.341 1 123265161.769 2      3471.624          42.000    23456571.100 1  96050736.994 2      2705.002          38.000  
> 2021 03 11 09 51 58.0030000  0 37                     
G13  22855433.809 1 120106107.145 2     -2765.121          44.000                                                                  
G14  24734865.511 1 129982626.608 2     -3085.193          38.000    24734860.845 2               6     -2403.833          32.000  
G15  21791263.392 1 114513863.460 2     -1425.586          43.000    21791255.280 1  89231535.890 2     -1110.468          40.000  
G10  25111471.388 1 131961686.488 2       947.542          42.000    25111459.704 2 102827264.177 5       738.148          32.000  
G28  24399526.413 1 128220380.834 2     -2749.946          42.000                                                                  
S36  38996032.657 1 204925523.330 2       244.909          41.000  
C20  24817633.701 1 129231929.144 2     -1984.418          42.000                                                                  
C23  25550808.057 1 133049769.550 2     -2207.105          41.000                                                                  
C28  25485684.318 1 132710658.484 3      2651.705          38.000                                                                  
C19  24711373.634 1 128678620.481 2       806.531          39.000                                                                  
C11  26971097.741 1 140445570.973 4     -1131.104          34.000    26971087.779 1 108601386.451 2      -874.905          39.000  
R15  25064170.391 8               9     -3152.162          25.000                                                                  
R09  21006657.768 1 112174380.139 1      1688.010          45.000    21006653.917 4  87246724.12634      1312.823          39.000  
R17  23441491.624 1 125440174.859 1      -720.615          45.000                                                                  
R07  21077003.352 1 112826848.785 1       322.709          46.000    21076996.402 2  87754182.902 3       250.926          38.000  
R16  20978050.851 1 112060994.933 2     -1543.002          42.000                                                                  
G17  23100195.800 1 121392358.327 1         4.777          43.000    23100186.343 1  94591410.708 3         3.621          36.000  
G19  22811298.505 1 119874186.962 2      2122.241          42.000                                                                  
E24  26160391.730 1 137473766.930 2     -1787.797          42.000    26160387.823 1 105337039.864 1     -1369.893          44.000  
S23  39183197.918 1 205909098.831 2       243.388          40.000  
G23  24390714.238 1 128174071.947 3     -1007.908          37.000    24390705.891 1  99875869.490 2      -785.719          39.000  
C37  22880688.604 1 119145749.407 1      -140.822          44.000                                                                  
C10  40656399.101 2               6      -612.730          31.000    40656384.196 2               8      -473.688          30.000  
R18  23001304.343 1 122782543.346 2      2648.911          42.000    23001301.168 8  95497505.54324      2060.045          36.000  
R08  23663637.078 1 126717708.448 2      3666.345          43.000                                                                  
R06  22104675.033 2 117954774.116 4     -3454.282          35.000                                                                  
R10  24470967.439 2 130444028.470 2      3478.795          39.000                                                                  
E03  24907206.866 1 130888250.603 2      -192.325          41.000    24907204.819 1 100290990.412 1      -147.371          47.000  
E05  26613311.933 1 139853875.613 2     -2559.569          40.000    26613309.396 1 107160754.392 1     -1961.143          45.000  
G20  24705299.358 1 129827228.325 3     -1279.108          37.000                                                                  
E12  27016776.904 1 141974123.980 4      2111.550          34.000    27016771.300 1 108785341.579 4      1617.676          35.000  
G24  21463155.753 1 112789650.067 1      1604.520          43.000    21463149.241 1  87888010.973 2      1250.210          39.000  
E33  29254393.260 8               9       -27.719          26.000    29254400.979 2               7       -21.524          30.000  
E25  24433451.419 1 128398671.391 2       613.918          42.000    24433447.994 1  98383375.887 1       470.449          44.000  
E08  25367237.947 1 133305725.066 2      2424.451          40.000    25367232.867 1 102143344.740 2      1857.648          39.000  
E02  27041392.917 1 142103500.720 2      2548.481          40.000    27041389.876 1 108884470.875 1      1952.586          43.000  
G12  23455918.746 1 123261690.450 2      3471.359          42.000    23455910.528 1  96048032.075 3      2704.378          38.000  
> 2021 03 11 09 51 59.0030000  0 37                     
G13  22855959.975 1 120108872.595 2     -2765.781          43.000                                                                  
G14  24735452.522 1 129985711.659 2     -3085.180          38.000    24735447.989 2 101287511.818 5     -2404.248          32.000  
G15  21791534.725 1 114515289.436 2     -1426.337          43.000    21791526.702 1  89232647.063 2     -1111.798          40.000  
G10  25111291.102 1 131960739.138 2       947.045          42.000    25111279.212 4               6       737.241          32.000  
G28  24400049.712 1 128223130.878 2     -2750.455          42.000                                                                  
S36  38995986.128 1 204925278.817 2       244.369          41.000  
C20  24818014.847 1 129233913.857 2     -1985.144          42.000                                                                  
C23  25551231.889 1 133051976.904 2     -2207.534          41.000                                                                  
C28  25485175.105 1 132708007.290 3      2650.789          37.000                                                                  
C19  24711218.970 1 128677814.636 2       805.560          39.000                                                                  
C11  26971315.070 1 140446702.620 4     -1131.590          33.000    26971305.066 1 108602261.501 2      -875.190          39.000  
R15  25064760.204 9               9     -3152.872          24.000                                                                  
R09  21006341.719 1 112172692.326 1      1687.531          44.000    21006337.202 8  87245408.39124      1312.325          40.000  
R17  23441626.393 1 125440895.876 1      -721.910          45.000                                                                  
R07  21076943.140 1 112826526.543 1       321.668          46.000    21076936.225 2  87753932.285 3       250.193          40.000  
R16  20978339.840 1 112062538.276 2     -1543.810          42.000                                                                  
G17  23100194.924 1 121392353.830 2         4.125          43.000    23100185.421 1  94591407.181 3         3.309          36.000  
G19  22810894.735 1 119872064.970 2      2121.512          42.000                                                                  
E24  26160732.160 1 137475554.790 1     -1788.167          42.000    26160728.005 1 105338409.764 1     -1369.917          44.000  
S23  39183151.632 1 205908855.541 2       242.886          40.000  
G23  24390906.129 1 128175080.396 3     -1008.951          38.000    24390897.869 1  99876655.291 2      -786.158          39.000  
C37  22880715.755 1 119145890.370 1      -141.232          44.000                                                                  
C10  40656517.147 2               6      -614.261          31.000    40656501.992 2               6      -474.658          30.000  
R18  23000808.294 1 122779895.014 2      2647.566          42.000    23000804.505 8  95495443.72224      2059.400          36.000  
R08  23662952.327 1 126714042.133 2      3665.826          42.000    23662974.640 9               9      2856.432          34.000  
R06  22105322.370 2 117958228.297 3     -3454.062          35.000                                                                  
R10  24470314.697 2 130440549.534 2      3478.659          39.000                                                                  
E03  24907243.696 1 130888443.115 2      -192.805          41.000    24907241.369 1 100291137.920 1      -147.659          47.000  
E05  26613798.946 1 139856435.200 2     -2559.861          40.000    26613796.384 1 107162715.635 1     -1961.339          45.000  
G20  24705542.799 1 129828507.426 3     -1279.535          37.000                                                                  
E12  27016375.300 1 141972012.497 4      2110.992          35.000    27016369.434 1 108783723.632 4      1618.132          35.000  
G24  21462850.412 1 112788045.540 2      1604.208          43.000    21462843.930 1  87886760.698 2      1250.004          40.000  
E33  29254398.390 8               9       -28.991          25.000    29254406.257 2               6       -21.165          30.000  
E25  24433334.648 1 128398057.502 2       613.557          42.000    24433331.168 1  98382905.510 1       470.137          44.000  
E08  25366776.890 1 133303300.931 2      2423.827          40.000    25366771.592 1 102141487.283 2      1857.124          39.000  
E02  27040907.919 1 142100952.216 2      2548.463          40.000    27040904.835 1 108882518.127 1      1952.626          43.000  
G12  23455258.304 1 123258219.447 1      3470.649          42.000    23455250.047 1  96045327.366 3      2704.483          38.000  
> 2021 03 11 09 52 00.0030000  0 37                     
G13  22856486.288 1 120111638.507 2     -2766.302          43.000                                                                  
G14  24736039.774 1 129988796.912 2     -3085.730          39.000    24736035.124 2 101289915.905 5     -2404.102          32.000  
G15  21791806.149 1 114516716.082 1     -1427.100          43.000    21791798.261 1  89233758.732 2     -1112.158          40.000  
G10  25111110.938 1 131959792.529 1       946.084          42.000    25111099.085 2               6       737.469          32.000  
G28  24400573.111 1 128225881.077 2     -2750.270          42.000                                                                  
S36  38995939.699 1 204925034.416 2       244.128          41.000  
C20  24818396.094 1 129235899.044 2     -1985.577          42.000                                                                  
C23  25551655.725 1 133054184.444 2     -2207.557          41.000                                                                  
C28  25484666.153 1 132705356.482 3      2650.455          37.000                                                                  
C19  24711064.300 1 128677009.430 2       804.761          39.000                                                                  
C11  26971532.511 1 140447834.873 4     -1133.103          33.000    26971522.562 1 108603137.005 2      -875.774          39.000  
R15  25065348.893 9               9     -3152.740          24.000                                                                  
R09  21006025.701 1 112171004.965 1      1687.237          45.000    21006021.060 8  87244094.98923      1312.126          40.000  
R17  23441761.384 1 125441617.810 1      -722.487          45.000                                                                  
R07  21076883.140 1 112826205.334 1       320.611          46.000    21076876.229 2  87753682.444 2       249.735          40.000  
R16  20978628.907 1 112064082.019 2     -1544.184          42.000                                                                  
G17  23100194.121 1 121392350.055 1         3.237          43.000    23100184.667 1  94591404.267 3         2.283          36.000  
G19  22810491.063 1 119869943.669 2      2120.910          42.000                                                                  
E24  26161072.464 1 137477342.868 1     -1788.262          42.000    26161068.314 1 105339779.863 1     -1370.218          44.000  
S23  39183105.280 1 205908612.340 2       243.200          40.000  
G23  24391098.122 1 128176089.470 3     -1009.277          38.000    24391090.022 1  99877441.573 2      -786.617          39.000  
C37  22880742.790 1 119146031.682 1      -141.638          44.000                                                                  
C10  40656635.077 2               6      -613.798          31.000    40656619.947 2               7      -474.762          30.000  
R18  23000312.217 1 122777247.440 2      2647.228          42.000    23000306.435 8  95493375.01435      2058.562          36.000  
R08  23662267.682 1 126710376.397 1      3665.400          43.000    23662288.523 9  98552595.74035      2850.931          35.000  
R06  22105969.735 2 117961683.147 3     -3455.394          35.000                                                                  
R10  24469662.074 2 130437070.839 2      3478.626          39.000                                                                  
E03  24907280.632 1 130888636.183 2      -193.281          41.000    24907278.182 1 100291285.856 1      -148.156          47.000  
E05  26614286.020 1 139858995.086 2     -2560.162          40.000    26614283.436 1 107164677.109 1     -1961.746          45.000  
G20  24705786.251 1 129829787.104 3     -1280.164          37.000                                                                  
E12  27015973.725 1 141969901.431 4      2110.512          34.000    27015967.727 1 108782106.065 3      1617.588          35.000  
G24  21462545.150 1 112786441.483 1      1603.641          43.000    21462538.768 1  87885510.775 2      1249.649          40.000  
E33  29254403.142 8               9       -28.725          25.000    29254411.910 2               7       -22.285          30.000  
E25  24433217.846 1 128397443.989 2       613.147          42.000    24433214.364 1  98382435.412 1       469.847          44.000  
E08  25366315.515 1 133300877.150 2      2423.674          40.000    25366310.394 1 102139630.101 2      1856.890          39.000  
E02  27040423.126 1 142098404.000 2      2547.840          40.000    27040419.905 1 108880565.578 1      1952.438          43.000  
G12  23454597.931 1 123254748.827 1      3470.265          42.000    23454589.665 1  96042623.015 3      2703.614          38.000  
> 2021 03 11 09 52 01.0030000  0 37                     
G13  22857012.715 1 120114404.900 2     -2766.957          43.000                                                                  
G14  24736626.970 1 129991882.373 2     -3085.724          38.000    24736622.348 2 101292320.171 5     -2405.115          32.000  
G15  21792077.740 1 114518143.437 1     -1428.149          43.000    21792069.992 1  89234870.954 2     -1112.805          40.000  
G10  25110930.990 1 131958846.659 2       944.939          42.000    25110919.124 2 102825051.269 5       737.266          32.000  
G28  24401096.442 1 128228631.522 2     -2750.661          42.000                                                                  
S36  38995893.210 1 204924790.093 2       243.947          41.000  
C20  24818777.476 1 129237884.766 2     -1986.383          42.000                                                                  
C23  25552079.644 1 133056392.197 2     -2208.075          41.000                                                                  
C28  25484157.039 1 132702706.108 3      2649.894          38.000                                                                  
C19  24710909.929 1 128676204.882 2       804.053          40.000                                                                  
C11  26971750.203 2 140448967.739 5     -1133.635          34.000    26971740.135 1 108604013.014 2      -876.703          39.000  
R15  25065937.312 9               9     -3152.297          23.000                                                                  
R09  21005709.764 1 112169318.119 1      1686.463          45.000    21005705.079 8  87242782.98435      1311.623          39.000  
R17  23441896.584 1 125442340.715 1      -723.883          45.000                                                                  
R07  21076823.284 1 112825885.187 1       319.303          46.000    21076816.442 2  87753433.441 3       248.267          39.000  
R16  20978918.060 1 112065626.223 2     -1544.624          42.000                                                                  
G17  23100193.489 1 121392347.038 1         2.355          43.000    23100184.063 1  94591401.903 3         1.952          36.000  
G19  22810087.515 1 119867823.101 2      2120.060          41.000                                                                  
E24  26161412.982 1 137479131.200 2     -1788.828          42.000    26161408.579 1 105341150.129 1     -1370.476          44.000  
S23  39183059.058 1 205908369.262 2       242.864          40.000  
G23  24391290.340 1 128177099.261 3     -1010.841          38.000    24391282.238 1  99878228.405 2      -787.431          39.000  
C37  22880769.989 1 119146173.392 1      -142.209          44.000                                                                  
C10  40656753.106 2               6      -614.007          32.000    40656737.747 2               7      -475.237          30.000  
R18  22999816.437 1 122774600.702 2      2645.886          42.000    22999808.699 8  95491308.91524      2058.035          34.000  
R08  23661583.319 1 126706711.292 2      3664.290          43.000    23661601.923 9               6      2850.477          34.000  
R06  22106617.254 2 117965138.605 4     -3456.209          35.000                                                                  
R10  24469009.624 2 130433592.398 2      3478.129          39.000                                                                  
E03  24907317.366 1 130888829.842 2      -194.236          41.000    24907315.019 1 100291434.236 1      -148.770          47.000  
E05  26614773.226 1 139861555.316 2     -2560.842          40.000    26614770.607 1 107166638.847 1     -1962.160          45.000  
G20  24706029.915 1 129831067.405 3     -1280.951          36.000                                                                  
E12  27015572.126 1 141967790.779 4      2110.422          34.000    27015566.169 1 108780488.853 3      1616.811          35.000  
G24  21462240.079 1 112784837.918 1      1602.981          43.000    21462233.666 1  87884261.262 2      1248.798          40.000  
E33  29254408.440 8               9       -29.406          25.000    29254417.443 1               7       -22.239          30.000  
E25  24433101.221 1 128396830.865 2       612.685          42.000    24433097.678 1  98381965.616 1       469.505          44.000  
E08  25365854.659 1 133298453.796 2      2422.779          41.000    25365849.303 1 102137773.238 2      1856.776          39.000  
E02  27039938.247 1 142095856.026 2      2547.625          40.000    27039934.937 1 108878613.269 1      1951.952          43.000  
G12  23453937.593 1 123251278.643 1      3469.562          42.000    23453929.313 1  96039918.951 3      2703.796          38.000  
> 2021 03 11 09 52 02.0030000  0 37                     
G13  22857539.178 1 120117171.733 2     -2767.229          43.000                                                                  
G14  24737214.178 1 129994967.997 3     -3085.474          38.000    24737209.612 2 101294724.568 5     -2404.291          32.000  
G15  21792349.465 1 114519571.416 2     -1428.467          43.000    21792341.755 1  89235983.658 2     -1112.982          40.000  
G10  25110751.094 1 131957901.447 2       944.435          42.000    25110739.344 2 102824314.777 4       735.667          33.000  
G28  24401619.809 1 128231382.139 2     -2750.752          42.000                                                                  
S36  38995846.721 1 204924545.789 2       244.424          42.000  
C20  24819159.016 1 129239870.921 1     -1986.475          42.000                                                                  
C23  25552503.770 1 133058600.098 2     -2207.925          41.000                                                                  
C28  25483647.971 1 132700056.124 3      2649.799          38.000                                                                  
C19  24710755.628 1 128675400.985 2       803.436          40.000                                                                  
C11  26971967.692 2 140450101.129 5     -1133.721          34.000    26971957.831 1 108604889.462 2      -876.906          39.000  
R15  25066527.038 9               9     -3152.825          23.000                                                                  
R09  21005394.041 1 112167631.737 1      1685.998          45.000    21005389.446 8  87241472.36734      1311.207          39.000  
R17  23442032.060 1 125443064.490 1      -724.221          45.000                                                                  
R07  21076763.805 1 112825566.022 1       318.655          46.000    21076756.783 2  87753185.204 3       248.053          40.000  
R16  20979207.323 1 112067170.804 1     -1544.727          42.000                                                                  
G17  23100193.001 1 121392344.698 1         1.848          43.000    23100183.589 1  94591400.074 3         1.430          35.000  
G19  22809684.089 1 119865703.184 2      2119.545          41.000                                                                  
E24  26161753.405 1 137480919.687 2     -1788.540          42.000    26161748.786 1 105342520.554 1     -1370.574          44.000  
S23  39183012.814 1 205908126.228 2       243.225          39.000  
G23  24391482.511 1 128178109.628 3     -1011.153          38.000    24391474.647 1  99879015.703 3      -787.179          39.000  
C37  22880797.313 1 119146315.417 1      -141.967          45.000                                                                  
C10  40656871.109 2               7      -614.881          31.000    40656855.557 2               7      -474.553          30.000  
R18  22999320.805 1 122771954.669 2      2645.587          42.000    22999316.129 8  95489263.90935      2057.511          34.000  
R08  23660898.876 1 126703046.727 2      3664.330          42.000                                                                  
R06  22107264.941 2 117968594.607 4     -3456.269          35.000                                                                  
R10  24468357.133 2 130430114.141 3      3478.153          39.000                                                                  
E03  24907354.413 1 130889023.992 2      -194.297          41.000    24907351.943 1 100291583.014 1      -149.035          47.000  
E05  26615260.292 1 139864115.794 2     -2560.641          40.000    26615257.915 1 107168600.765 1     -1961.932          45.000  
G20  24706273.586 1 129832348.246 2     -1281.451          36.000                                                                  
E12  27015170.585 1 141965680.508 4      2109.954          35.000    27015164.535 1 108778871.889 3      1617.038          35.000  
G24  21461934.995 1 112783234.781 1      1602.817          43.000    21461928.737 1  87883012.057 2      1249.135          40.000  
E33  29254414.501 8               9       -29.336          26.000    29254423.043 1               6       -22.813          30.000  
E25  24432984.474 1 128396218.083 2       612.694          42.000    24432981.064 1  98381496.085 1       469.420          44.000  
E08  25365393.812 1 133296030.787 2      2422.750          41.000    25365388.158 1 102135916.654 2      1856.322          39.000  
E02  27039453.567 1 142093308.295 2      2547.530          40.000    27039450.073 1 108876661.096 1      1951.931          43.000  
G12  23453277.238 1 123247808.801 2      3469.571          42.000    23453268.980 1  96037215.182 2      2703.602          38.000  
> 2021 03 11 09 52 03.0030000  0 37                     
G13  22858065.742 1 120119938.812 2     -2767.041          44.000                                                                  
G14  24737801.371 1 129998053.631 3     -3085.589          38.000    24737796.825 2 101297128.940 5     -2404.706          32.000  
G15  21792621.303 1 114520999.863 2     -1428.442          42.000    21792613.665 1  89237096.722 2     -1113.037          40.000  
G10  25110571.376 1 131956956.729 2       944.560          42.000    25110559.767 2 102823578.637 5       735.579          33.000  
G28  24402143.234 1 128234132.729 2     -2750.607          42.000                                                                  
S36  38995800.313 1 204924301.443 2       244.360          41.000  
C20  24819540.480 1 129241857.362 2     -1986.371          42.000                                                                  
C23  25552927.752 1 133060807.971 2     -2207.588          41.000                                                                  
C28  25483139.030 1 132697406.345 3      2649.528          37.000                                                                  
C19  24710601.433 1 128674597.502 2       803.406          40.000                                                                  
C11  26972185.484 1 140451234.966 4     -1133.992          34.000    26972175.581 1 108605766.199 2      -876.882          39.000  
R15  25067116.273 9               9     -3156.356          23.000                                                                  
R09  21005078.345 1 112165945.623 1      1686.103          45.000    21005075.032 8  87240166.43524      1311.381          39.000  
R17  23442167.603 1 125443789.026 1      -724.816          45.000                                                                  
R07  21076704.351 1 112825247.666 1       318.133          46.000    21076697.295 2  87752937.599 3       247.325          39.000  
R16  20979496.622 1 112068715.544 2     -1544.782          42.000                                                                  
G17  23100192.593 1 121392342.848 1         1.945          43.000    23100183.139 1  94591398.641 3         1.530          35.000  
G19  22809280.795 1 119863583.742 2      2119.361          41.000                                                                  
E24  26162093.808 1 137482708.205 2     -1788.427          42.000    26162089.247 1 105343890.960 1     -1370.293          44.000  
S23  39182966.598 1 205907883.060 2       243.276          40.000  
G23  24391674.823 1 128179120.421 3     -1010.475          38.000    24391667.026 1  99879803.367 2      -787.825          39.000  
C37  22880824.701 1 119146457.625 1      -142.206          45.000                                                                  
C10  40656988.995 2               7      -613.223          31.000    40656973.407 2               8      -475.800          30.000  
R18  22998825.239 1 122769309.194 1      2645.386          42.000    22998820.851 8  95487207.80135      2057.330          35.000  
R08  23660214.631 1 126699382.580 2      3663.903          43.000                                                                  
R06  22107912.606 2 117972051.011 4     -3456.545          35.000                                                                  
R10  24467704.692 2 130426635.915 2      3478.388          39.000                                                                  
E03  24907391.407 1 130889218.503 2      -194.635          41.000    24907388.911 1 100291732.039 1      -148.936          47.000  
E05  26615747.596 1 139866676.376 2     -2560.465          40.000    26615745.116 1 107170562.773 1     -1961.987          45.000  
G20  24706517.378 1 129833629.446 3     -1281.610          36.000                                                                  
E12  27014769.224 2 141963570.469 4      2110.545          33.000    27014763.043 1 108777255.097 3      1617.054          35.000  
G24  21461629.946 1 112781631.903 1      1602.948          43.000    21461623.754 1  87881763.066 2      1248.930          40.000  
E33  29254420.031 8               8       -30.098          26.000    29254428.809 1 117795458.390 5       -22.801          30.000  
E25  24432867.858 1 128395605.472 1       612.677          42.000    24432864.447 1  98381026.674 1       469.486          44.000  
E08  25364932.720 1 133293607.943 2      2422.726          41.000    25364927.090 1 102134060.178 2      1856.471          39.000  
E02  27038968.861 1 142090760.583 2      2548.047          40.000    27038965.131 1 108874708.946 1      1952.435          43.000  
G12  23452616.935 1 123244339.152 1      3469.824          42.000    23452608.794 1  96034511.577 3      2703.688          38.000  
> 2021 03 11 09 52 04.0030000  0 37                     
G13  22858592.388 1 120122706.239 2     -2767.663          44.000                                                                  
G14  24738388.468 1 130001139.331 2     -3085.669          38.000    24738383.985 2               6     -2404.449          32.000  
G15  21792893.260 1 114522428.850 2     -1429.163          42.000    21792885.590 1  89238210.209 2     -1113.452          40.000  
G10  25110391.721 1 131956012.581 2       943.832          42.000    25110380.423 2 102822842.925 5       735.374          33.000  
G28  24402666.736 1 128236883.399 2     -2750.708          42.000                                                                  
S36  38995753.803 1 204924057.003 2       244.111          41.000  
C20  24819922.009 1 129243844.159 2     -1986.920          42.000                                                                  
C23  25553351.831 1 133063015.915 2     -2207.942          41.000                                                                  
C28  25482630.096 1 132694756.823 3      2649.408          38.000                                                                  
C19  24710447.388 1 128673794.542 2       802.820          40.000                                                                  
C11  26972403.361 2 140452369.275 4     -1134.709          34.000    26972393.383 1 108606643.307 3      -877.212          39.000  
R15  25067706.219 9               9     -3157.302          23.000                                                                  
R09  21004762.597 1 112164259.851 1      1685.526          45.000    21004759.606 8  87238856.29134      1311.116          39.000  
R17  23442303.254 1 125444514.429 1      -725.709          45.000                                                                  
R07  21076644.930 1 112824930.167 1       317.095          46.000    21076637.912 2  87752690.654 3       246.599          41.000  
R16  20979785.889 1 112070260.568 2     -1545.250          42.000                                                                  
G17  23100192.321 1 121392341.620 1         0.912          43.000    23100182.817 1  94591397.688 4         0.735          35.000  
G19  22808877.566 1 119861464.867 2      2118.682          41.000                                                                  
E24  26162434.084 1 137484496.804 1     -1788.718          42.000    26162429.605 1 105345261.443 1     -1370.598          44.000  
S23  39182920.391 1 205907639.895 2       243.157          40.000  
G23  24391867.288 1 128180131.752 3     -1011.282          38.000    24391859.512 1  99880591.411 2      -788.233          39.000  
C37  22880852.090 1 119146600.051 1      -142.605          44.000                                                                  
C10  40657106.882 2               6      -614.029          32.000    40657091.164 2               7      -474.162          30.000  
R18  22998329.840 1 122766664.402 2      2644.333          42.000    22998328.748 8  95485164.23025      2056.875          36.000  
R08  23659530.594 1 126695718.917 1      3663.433          43.000    23659548.113 9               6      2849.331          34.000  
R06  22108560.458 2 117975507.858 3     -3456.653          35.000                                                                  
R10  24467052.245 2 130423157.789 2      3478.009          40.000                                                                  
E03  24907428.704 1 130889413.411 2      -194.909          41.000    24907425.978 1 100291881.397 1      -149.457          47.000  
E05  26616234.994 1 139869237.142 2     -2560.928          40.000    26616232.372 1 107172524.909 1     -1962.123          45.000  
G20  24706761.160 1 129834911.074 3     -1281.531          36.000                                                                  
E12  27014367.792 1 141961460.696 4      2109.713          34.000    27014361.617 1 108775638.530 3      1616.633          35.000  
G24  21461324.973 1 112780029.364 1      1602.213          44.000    21461318.752 1  87880514.331 2      1248.515          40.000  
E33  29254425.996 8               9       -30.785          26.000    29254434.788 2               7       -23.125          30.000  
E25  24432751.487 1 128394993.086 2       612.415          42.000    24432748.017 1  98380557.451 1       469.256          44.000  
E08  25364471.673 1 133291185.339 2      2422.529          41.000    25364466.036 1 102132203.895 2      1856.309          39.000  
E02  27038484.105 1 142088213.016 2      2547.665          40.000    27038480.374 1 108872756.914 1      1952.103          42.000  
G12  23451956.728 1 123240869.777 2      3469.186          43.000    23451948.631 1  96031808.149 3      2703.512          37.000  
> 2021 03 11 09 52 05.0030000  0 37                     
G13  22859119.157 1 120125473.970 2     -2768.176          43.000                                                                  
G14  24738975.625 1 130004225.058 3     -3085.669          38.000    24738971.277 2               6     -2404.230          32.000  
G15  21793165.315 1 114523858.376 2     -1430.035          42.000    21793157.684 1  89239324.142 2     -1114.374          40.000  
G10  25110212.220 1 131955069.015 2       942.984          42.000    25110201.201 2 102822107.716 5       734.054          33.000  
G28  24403190.183 1 128239634.106 2     -2750.917          42.000                                                                  
S36  38995707.279 1 204923812.527 2       244.267          41.000  
C20  24820303.527 1 129245831.312 1     -1987.573          43.000                                                                  
C23  25553775.757 1 133065223.904 2     -2208.265          41.000                                                                  
C28  25482121.466 1 132692107.579 3      2649.030          38.000                                                                  
C19  24710293.178 1 128672992.114 2       801.874          39.000                                                                  
C11  26972621.278 1 140453504.054 4     -1135.922          34.000    26972611.298 1 108607520.763 2      -877.971          39.000  
R15  25068296.405 9               9     -3154.769          22.000                                                                  
R09  21004447.021 1 112162574.416 1      1684.998          45.000    21004445.071 8  87237549.89625      1310.609          41.000  
R17  23442438.944 1 125445240.670 1      -727.001          45.000                                                                  
R07  21076585.874 1 112824613.529 1       315.772          46.000    21076578.626 2  87752444.376 2       245.653          41.000  
R16  20980075.255 1 112071805.876 1     -1546.039          42.000                                                                  
G17  23100192.130 1 121392340.942 1         0.011          43.000    23100182.707 1  94591397.169 3        -0.467          35.000  
G19  22808474.423 1 119859346.543 2      2117.632          41.000                                                                  
E24  26162774.323 1 137486285.460 1     -1788.930          42.000    26162769.949 1 105346631.979 1     -1370.763          44.000  
S23  39182874.061 1 205907396.611 2       243.073          40.000  
G23  24392059.830 1 128181143.581 3     -1012.042          38.000    24392052.109 1  99881379.845 2      -788.691          39.000  
C37  22880879.555 1 119146742.687 1      -143.023          45.000                                                                  
C10  40657224.791 2               6      -614.183          32.000    40657208.977 2               7      -474.618          30.000  
R18  22997834.557 1 122764020.250 1      2643.630          42.000    22997831.291 8  95483099.18224      2056.016          38.000  
R08  23658846.540 1 126692055.726 2      3662.673          43.000    23658848.595 9               6      2848.732          35.000  
R06  22109208.419 2 117978965.185 3     -3457.939          35.000                                                                  
R10  24466399.733 2 130419679.741 2      3477.922          39.000                                                                  
E03  24907466.011 1 130889608.745 2      -195.895          41.000    24907463.091 1 100292031.064 1      -150.043          47.000  
E05  26616722.333 1 139871798.046 2     -2561.098          40.000    26616719.727 1 107174487.158 1     -1962.223          45.000  
G20  24707005.154 1 129836193.174 3     -1282.410          36.000                                                                  
E12  27013966.540 1 141959351.196 4      2109.313          35.000    27013960.211 1 108774022.171 3      1615.994          35.000  
G24  21461020.004 1 112778427.133 1      1601.920          43.000    21461013.920 1  87879265.851 2      1248.087          40.000  
E33  29254433.289 8               9       -31.457          26.000    29254440.688 1               7       -23.750          30.000  
E25  24432635.032 1 128394380.932 2       611.895          42.000    24432631.393 1  98380088.397 1       468.830          44.000  
E08  25364010.718 1 133288762.982 2      2421.759          41.000    25364005.006 1 102130347.797 2      1855.936          39.000  
E02  27037999.542 1 142085665.551 2      2547.156          40.000    27037995.617 1 108870804.965 1      1951.784          42.000  
G12  23451296.606 1 123237400.636 2      3468.780          42.000    23451288.480 1  96029104.942 3      2702.651          38.000  
> 2021 03 11 09 52 06.0030000  0 37                     
G13  22859645.873 1 120128242.158 1     -2768.513          44.000                                                                  
G14  24739562.756 1 130007310.978 2     -3085.858          37.000    24739558.595 2               6     -2404.962          32.000  
G15  21793437.422 1 114525288.559 1     -1430.560          43.000    21793429.864 1  89240438.565 2     -1114.526          40.000  
G10  25110032.842 1 131954126.130 2       942.594          42.000    25110022.323 2 102821372.989 4       733.835          34.000  
G28  24403713.591 1 128242385.008 2     -2751.088          42.000                                                                  
S36  38995660.881 1 204923568.078 2       244.223          42.000  
C20  24820685.377 1 129247818.908 2     -1987.689          43.000                                                                  
C23  25554199.845 1 133067432.032 2     -2208.123          41.000                                                                  
C28  25481612.704 1 132689458.734 3      2648.514          38.000                                                                  
C19  24710139.333 1 128672190.302 2       801.459          39.000                                                                  
C11  26972839.229 1 140454639.351 4     -1135.912          34.000    26972829.321 1 108608398.669 2      -878.047          39.000  
R15  25068886.066 9               9     -3153.507          22.000                                                                  
R09  21004131.440 1 112160889.445 1      1684.772          45.000    21004126.541 8  87236226.88224      1310.159          39.000  
R17  23442574.877 1 125445967.817 1      -727.593          45.000                                                                  
R07  21076526.904 1 112824297.903 1       314.879          47.000    21076519.741 2  87752198.894 2       244.974          40.000  
R16  20980364.694 1 112073351.569 1     -1545.913          42.000                                                                  
G17  23100192.163 1 121392340.967 2        -0.350          43.000    23100182.622 1  94591397.189 4        -0.613          35.000  
G19  22808071.496 1 119857228.888 2      2117.298          41.000                                                                  
E24  26163114.692 1 137488074.326 1     -1789.025          43.000    26163110.297 1 105348002.672 1     -1370.849          44.000  
S23  39182827.851 1 205907153.389 2       243.516          39.000  
G23  24392252.534 1 128182156.048 3     -1012.702          38.000    24392244.872 1  99882168.786 2      -789.377          39.000  
C37  22880907.025 1 119146885.667 1      -143.133          44.000                                                                  
C10  40657342.811 2               6      -613.843          31.000    40657326.827 2               8      -474.931          30.000  
R18  22997339.388 1 122761376.891 2      2642.990          43.000    22997336.984 8  95481046.74235      2055.392          37.000  
R08  23658162.523 1 126688393.127 1      3662.260          43.000                                                                  
R06  22109856.571 2 117982423.099 3     -3459.070          35.000                                                                  
R10  24465747.308 2 130416201.946 2      3477.525          39.000                                                                  
E03  24907503.384 1 130889804.608 2      -196.338          41.000    24907500.539 1 100292181.126 1      -150.223          47.000  
E05  26617209.672 1 139874359.265 2     -2561.486          40.000    26617207.115 1 107176449.658 1     -1962.773          45.000  
G20  24707249.321 1 129837475.840 3     -1282.812          36.000                                                                  
E12  27013565.180 1 141957242.145 3      2108.841          34.000    27013558.828 1 108772406.143 4      1615.538          35.000  
G24  21460715.240 1 112776825.392 1      1601.346          43.000    21460709.138 1  87878017.733 2      1247.832          39.000  
E33  29254438.869 8               9       -31.858          26.000    29254446.746 1               7       -24.691          29.000  
E25  24432518.769 1 128393769.136 2       611.531          42.000    24432515.016 1  98379619.632 1       468.327          44.000  
E08  25363549.778 1 133286340.967 2      2421.643          40.000    25363544.119 1 102128491.991 2      1855.585          39.000  
E02  27037514.791 1 142083118.325 2      2546.974          40.000    27037510.828 1 108868853.197 2      1951.502          42.000  
G12  23450636.497 1 123233931.891 1      3468.322          43.000    23450628.419 1  96026401.992 2      2703.031          37.000  
> 2021 03 11 09 52 07.0030000  0 37                     
G13  22860172.723 1 120131010.733 2     -2768.918          44.000                                                                  
G14  24740149.944 1 130010397.046 3     -3086.334          37.000    24740145.892 2               6     -2404.987          32.000  
G15  21793709.680 1 114526719.346 1     -1431.116          43.000    21793702.220 1  89241553.455 2     -1115.057          40.000  
G10  25109853.599 1 131953183.902 2       941.837          41.000    25109843.595 2 102820638.739 5       733.996          34.000  
G28  24404237.141 1 128245136.020 2     -2750.989          42.000                                                                  
S36  38995614.315 1 204923323.641 2       244.465          41.000  
C20  24821067.117 1 129249806.950 1     -1988.397          43.000                                                                  
C23  25554623.878 1 133069640.302 2     -2208.060          41.000                                                                  
C28  25481104.049 1 132686810.227 2      2648.571          37.000                                                                  
C19  24709985.475 1 128671389.074 2       800.983          39.000                                                                  
C11  26973057.485 1 140455775.227 3     -1136.762          34.000    26973047.461 1 108609276.993 3      -878.654          39.000  
R15  25069474.487 9               9     -3150.104          23.000                                                                  
R09  21003815.989 1 112159204.897 1      1684.264          45.000    21003811.234 8  87234917.66424      1310.208          39.000  
R17  23442710.964 1 125446695.814 1      -728.484          45.000                                                                  
R07  21076468.051 1 112823983.224 1       314.219          46.000    21076460.981 2  87751954.145 2       244.322          39.000  
R16  20980654.037 1 112074897.644 2     -1546.342          42.000                                                                  
G17  23100192.255 1 121392341.646 2        -0.858          43.000    23100182.826 1  94591397.694 3        -0.685          35.000  
G19  22807668.527 1 119855111.854 2      2116.585          42.000                                                                  
E24  26163455.134 1 137489863.349 1     -1789.215          42.000    26163450.818 1 105349373.481 1     -1370.932          44.000  
S23  39182781.567 1 205906910.210 2       243.125          39.000  
G23  24392445.273 1 128183169.107 3     -1013.595          38.000    24392437.673 1  99882958.152 2      -789.446          39.000  
C37  22880934.608 1 119147028.955 1      -143.617          45.000                                                                  
C10  40657460.990 2               6      -613.862          31.000    40657444.639 2               7      -474.608          30.000  
R18  22996844.328 1 122758734.230 1      2642.305          43.000    22996841.955 8  95478991.36535      2054.852          37.000  
R08  23657478.636 1 126684731.054 2      3661.832          43.000                                                                  
R06  22110504.589 2 117985881.467 4     -3458.989          35.000                                                                  
R10  24465094.974 2 130412724.288 2      3477.409          39.000                                                                  
E03  24907540.868 1 130890000.931 2      -196.416          41.000    24907537.821 1 100292331.574 1      -150.693          46.000  
E05  26617697.095 1 139876920.701 2     -2561.707          40.000    26617694.559 1 107178412.306 1     -1962.785          45.000  
G20  24707493.503 1 129838759.003 3     -1283.813          36.000                                                                  
E12  27013164.351 1 141955133.390 4      2108.744          34.000    27013157.650 1 108770790.317 4      1615.733          35.000  
G24  21460410.463 1 112775224.023 1      1601.060          44.000    21460404.439 1  87876769.893 2      1247.902          40.000  
E33  29254445.581 8               9       -32.253          26.000    29254452.891 1               6       -24.851          29.000  
E25  24432402.493 1 128393157.637 1       611.333          42.000    24432398.729 1  98379151.067 1       468.410          44.000  
E08  25363088.968 1 133283919.284 2      2421.509          40.000    25363083.466 1 102126636.406 2      1855.299          39.000  
E02  27037030.180 1 142080571.287 2      2546.824          40.000    27037026.242 1 108866901.560 1      1951.469          42.000  
G12  23449976.559 1 123230463.457 1      3468.286          43.000    23449968.372 1  96023699.352 2      2702.227          37.000  
> 2021 03 11 09 52 08.0030000  0 37                     
G13  22860699.707 1 120133779.786 2     -2769.221          44.000                                                                  
G14  24740737.058 1 130013483.292 3     -3085.907          37.000    24740733.286 2               6     -2404.669          32.000  
G15  21793982.027 1 114528150.816 2     -1431.659          42.000    21793974.659 1  89242668.900 2     -1115.680          40.000  
G10  25109674.368 1 131952242.378 2       941.320          41.000    25109664.560 2 102819905.111 5       733.309          34.000  
G28  24404760.570 1 128247887.263 2     -2751.031          42.000                                                                  
S36  38995567.897 1 204923079.381 2       244.333          41.000  
C20  24821448.965 1 129251795.484 2     -1988.501          43.000                                                                  
C23  25555048.078 1 133071848.773 2     -2208.326          41.000                                                                  
C28  25480595.588 1 132684162.138 3      2648.586          37.000                                                                  
C19  24709831.755 1 128670588.515 2       800.330          39.000                                                                  
C11  26973275.921 1 140456911.645 4     -1136.030          35.000    26973265.738 1 108610155.777 3      -878.847          39.000  
R15  25070063.038 9               9     -3150.825          23.000                                                                  
R09  21003500.688 1 112157520.836 1      1684.139          46.000    21003496.743 8  87233610.84934      1309.901          39.000  
R17  23442847.236 1 125447424.785 1      -729.269          45.000                                                                  
R07  21076409.407 1 112823669.618 1       313.366          47.000    21076402.411 2  87751710.227 2       243.874          39.000  
R16  20980943.568 1 112076444.146 2     -1546.498          42.000                                                                  
G17  23100192.382 1 121392343.067 2        -1.617          43.000    23100183.070 1  94591398.812 3        -1.583          35.000  
G19  22807265.698 1 119852995.537 2      2116.171          42.000                                                                  
E24  26163795.466 1 137491652.584 1     -1789.042          43.000    26163791.220 1 105350744.454 1     -1370.792          44.000  
S23  39182735.329 1 205906667.136 2       243.218          40.000  
G23  24392638.160 1 128184182.805 3     -1013.837          38.000    24392630.623 1  99883748.064 2      -790.009          39.000  
C37  22880962.093 1 119147172.613 1      -143.626          44.000                                                                  
C10  40657578.972 2 211714673.90415      -612.996          31.000    40657562.536 2               6      -474.814          30.000  
R18  22996349.454 1 122756092.370 1      2641.680          42.000    22996346.674 8  95476936.56324      2054.642          37.000  
R08  23656794.919 1 126681069.635 2      3661.331          43.000                                                                  
R06  22111152.958 2 117989340.462 3     -3458.968          35.000                                                                  
R10  24464442.649 2 130409246.885 2      3477.355          39.000                                                                  
E03  24907578.277 1 130890197.829 2      -196.849          42.000    24907575.242 1 100292482.436 1      -150.818          47.000  
E05  26618184.524 1 139879482.451 2     -2561.495          40.000    26618182.034 1 107180375.210 1     -1962.770          45.000  
G20  24707737.653 1 129840042.743 3     -1283.899          36.000                                                                  
E12  27012763.473 1 141953025.075 4      2108.534          34.000    27012756.285 1 108769174.890 4      1615.215          34.000  
G24  21460105.795 1 112773623.133 1      1600.996          43.000    21460099.858 1  87875522.464 2      1247.659          40.000  
E33  29254454.634 8               9       -32.797          26.000    29254458.998 1               6       -24.930          29.000  
E25  24432286.230 1 128392546.526 1       611.256          42.000    24432282.434 1  98378682.815 1       468.330          44.000  
E08  25362628.274 1 133281497.984 2      2421.320          41.000    25362622.713 1 102124781.121 2      1855.520          39.000  
E02  27036545.553 1 142078024.503 2      2546.813          40.000    27036541.429 1 108864950.132 2      1951.557          42.000  
G12  23449316.610 1 123226995.446 1      3467.979          43.000    23449308.477 1  96020996.974 3      2702.297          37.000  
> 2021 03 11 09 52 09.0030000  0 37                     
G13  22861226.766 1 120136549.239 2     -2769.826          44.000                                                                  
G14  24741324.383 1 130016569.702 3     -3086.920          37.000    24741320.723 2               6     -2404.932          32.000  
G15  21794254.552 1 114529582.893 2     -1432.452          42.000    21794247.220 1  89243784.778 2     -1115.851          40.000  
G10  25109495.368 1 131951301.490 2       940.661          41.000    25109486.177 2 102819171.983 5       732.503          34.000  
G28  24405284.176 1 128250638.630 2     -2751.639          42.000                                                                  
S36  38995521.443 1 204922835.210 2       244.293          41.000  
C20  24821830.917 1 129253784.444 1     -1989.447          43.000                                                                  
C23  25555472.207 1 133074057.360 2     -2208.695          41.000                                                                  
C28  25480087.000 1 132681514.428 3      2647.631          38.000                                                                  
C19  24709678.234 1 128669788.527 2       799.530          39.000                                                                  
C11  26973494.261 1 140458048.675 3     -1137.321          35.000    26973484.053 1 108611034.964 2      -879.497          39.000  
R15  25070652.215 9               9     -3151.925          24.000                                                                  
R09  21003185.433 1 112155837.198 1      1683.295          45.000    21003182.411 8  87232305.37434      1309.109          40.000  
R17  23442983.694 1 125448154.666 1      -730.454          45.000                                                                  
R07  21076351.037 1 112823356.989 1       312.055          47.000    21076344.047 2  87751467.074 2       242.844          41.000  
R16  20981233.185 1 112077990.983 2     -1547.050          42.000                                                                  
G17  23100192.746 1 121392345.127 1        -2.577          43.000    23100183.465 1  94591400.412 3        -1.611          35.000  
G19  22806863.078 1 119850879.836 2      2115.181          42.000                                                                  
E24  26164135.996 1 137493441.980 1     -1789.491          43.000    26164131.682 1 105352115.551 1     -1371.219          44.000  
S23  39182689.109 1 205906424.064 2       243.361          40.000  
G23  24392831.101 1 128185197.089 3     -1014.464          38.000    24392823.681 1  99884538.414 2      -790.644          39.000  
C37  22880989.634 1 119147316.567 1      -144.159          44.000                                                                  
C10  40657697.053 2 211715287.803 5      -614.582          31.000    40657680.540 2               6      -475.517          30.000  
R18  22995854.666 1 122753451.197 2      2640.617          42.000    22995851.348 4  95474882.33323      2053.797          36.000  
R08  23656111.248 1 126677408.749 2      3660.517          43.000                                                                  
R06  22111801.297 2 117992799.998 4     -3459.951          35.000                                                                  
R10  24463790.386 2 130405769.630 2      3476.864          39.000                                                                  
E03  24907616.091 1 130890395.219 2      -197.807          42.000    24907612.868 1 100292633.683 1      -151.552          46.000  
E05  26618672.321 1 139882044.446 2     -2562.268          40.000    26618669.506 1 107182338.304 1     -1963.457          45.000  
G20  24707982.134 1 129841327.009 3     -1284.619          36.000                                                                  
E12  27012362.500 1 141950917.119 3      2108.061          34.000    27012355.296 1 108767559.707 4      1614.933          34.000  
G24  21459801.184 1 112772022.622 2      1600.391          43.000    21459795.216 1  87874275.325 2      1246.879          40.000  
E33  29254462.123 8               9       -33.477          26.000    29254465.445 1               6       -25.356          29.000  
E25  24432170.173 1 128391935.721 2       610.604          42.000    24432166.161 1  98378214.784 1       467.944          44.000  
E08  25362167.734 1 133279077.003 2      2420.876          41.000    25362162.030 1 102122926.093 2      1854.853          39.000  
E02  27036061.104 1 142075477.908 2      2546.401          40.000    27036056.839 1 108862998.847 1      1951.125          42.000  
G12  23448656.769 1 123223527.757 2      3467.357          42.000    23448648.403 1  96018294.878 3      2701.869          37.000  
> 2021 03 11 09 52 10.0030000  0 37                     
G13  22861753.857 1 120139319.018 2     -2769.888          43.000                                                                  
G14  24741911.664 1 130019656.154 3     -3086.865          37.000    24741908.096 2               6     -2404.669          32.000  
G15  21794527.162 1 114531015.529 2     -1433.014          42.000    21794519.933 1  89244901.133 2     -1116.638          40.000  
G10  25109316.409 1 131950361.210 2       939.899          41.000    25109307.918 2 102818439.269 5       731.977          34.000  
G28  24405807.732 1 128253390.073 2     -2751.569          42.000                                                                  
S36  38995474.998 1 204922590.962 2       243.942          41.000  
C20  24822213.034 1 129255773.751 1     -1989.557          43.000                                                                  
C23  25555896.244 1 133076266.028 2     -2208.870          41.000                                                                  
C28  25479578.609 1 132678867.005 3      2646.858          37.000                                                                  
C19  24709524.702 1 128668989.092 2       798.846          39.000                                                                  
C11  26973712.927 1 140459186.123 4     -1137.224          35.000    26973702.512 1 108611914.538 2      -879.931          38.000  
R15  25071242.574 9               9     -3157.746          24.000                                                                  
R09  21002870.327 1 112154153.920 1      1682.984          45.000    21002867.874 8  87230999.63424      1309.121          43.000  
R17  23443120.352 1 125448885.393 1      -731.246          45.000                                                                  
R07  21076292.825 1 112823045.227 1       311.273          47.000    21076285.899 2  87751224.587 2       242.395          42.000  
R16  20981522.714 1 112079538.099 2     -1547.303          42.000                                                                  
G17  23100193.217 1 121392347.776 1        -2.894          43.000    23100183.858 1  94591402.464 3        -2.138          35.000  
G19  22806460.606 1 119848764.711 2      2114.611          41.000                                                                  
E24  26164476.711 1 137495231.479 1     -1789.784          43.000    26164472.251 1 105353486.711 1     -1371.284          44.000  
S23  39182642.769 1 205906180.954 2       243.328          39.000  
G23  24393024.249 1 128186211.887 3     -1015.020          38.000    24393016.789 1  99885329.171 2      -791.084          39.000  
C37  22881017.393 1 119147460.777 1      -144.393          45.000                                                                  
C10  40657814.992 2               6      -613.604          31.000    40657798.338 2               7      -474.935          30.000  
R18  22995360.040 1 122750810.694 2      2639.877          42.000    22995358.669 8  95472833.08035      2053.606          38.000  
R08  23655427.782 1 126673748.347 2      3660.131          43.000                                                                  
R06  22112449.844 2 117996259.978 3     -3460.485          36.000                                                                  
R10  24463138.110 2 130402292.472 2      3476.984          39.000                                                                  
E03  24907654.008 1 130890593.023 2      -198.191          41.000    24907650.559 1 100292785.245 1      -151.892          47.000  
E05  26619159.914 1 139884606.618 2     -2562.334          40.000    26619157.026 1 107184301.511 1     -1963.361          44.000  
G20  24708226.600 1 129842611.736 3     -1285.114          36.000                                                                  
E12  27011961.966 1 141948809.459 3      2107.443          35.000    27011954.110 1 108765944.735 4      1614.609          34.000  
G24  21459496.679 1 112770422.467 1      1599.785          44.000    21459490.735 1  87873028.455 2      1246.539          40.000  
E33  29254471.147 8               9       -34.109          26.000    29254471.702 1               6       -25.231          29.000  
E25  24432053.964 1 128391325.163 2       610.048          42.000    24432049.952 1  98377746.959 1       467.639          44.000  
E08  25361707.066 1 133276656.272 2      2420.487          41.000    25361701.435 1 102121071.250 2      1854.512          39.000  
E02  27035576.830 1 142072931.463 2      2546.062          40.000    27035572.306 1 108861047.653 1      1951.093          42.000  
G12  23447996.944 1 123220060.346 2      3467.025          42.000    23447988.480 1  96015592.996 3      2701.869          37.000  
> 2021 03 11 09 52 11.0030000  0 37                     
G13  22862280.990 1 120142089.107 2     -2770.253          43.000                                                                  
G14  24742498.952 1 130022742.632 3     -3086.505          37.000    24742495.504 2               6     -2404.669          32.000  
G15  21794799.861 1 114532448.669 2     -1433.429          42.000    21794792.689 1  89246017.848 2     -1116.803          40.000  
G10  25109137.556 1 131949421.447 2       939.607          41.000    25109129.669 2 102817706.962 4       732.159          34.000  
G28  24406331.239 1 128256141.540 2     -2751.490          42.000                                                                  
S36  38995428.509 1 204922346.648 2       243.940          41.000  
C20  24822595.004 1 129257763.391 1     -1989.795          43.000                                                                  
C23  25556320.268 1 133078474.671 2     -2208.366          41.000                                                                  
C28  25479070.224 1 132676219.802 3      2647.103          37.000                                                                  
C19  24709371.213 1 128668190.113 3       798.950          39.000                                                                  
C11  26973931.415 1 140460324.063 4     -1138.240          35.000    26973921.025 1 108612794.442 2      -880.027          39.000  
R15  25071830.058 9               9     -3152.365          25.000                                                                  
R09  21002555.109 1 112152470.931 1      1683.017          45.000    21002552.791 8  87229690.14524      1308.973          40.000  
R17  23443257.036 1 125449616.894 1      -731.793          45.000                                                                  
R07  21076234.664 1 112822734.279 1       310.569          47.000    21076227.787 2  87750982.752 2       241.647          40.000  
R16  20981812.355 1 112081085.460 2     -1547.603          42.000                                                                  
G17  23100193.689 1 121392350.989 1        -3.532          43.000    23100184.502 1  94591404.991 3        -2.892          35.000  
G19  22806058.186 1 119846650.089 2      2114.383          41.000                                                                  
E24  26164817.181 1 137497021.014 1     -1789.710          43.000    26164812.694 1 105354857.909 1     -1371.031          44.000  
S23  39182596.468 1 205905937.761 2       242.919          39.000  
G23  24393217.332 1 128187227.201 3     -1015.570          38.000    24393209.987 1  99886120.287 2      -791.230          39.000  
C37  22881045.203 1 119147605.155 1      -144.406          45.000                                                                  
C10  40657932.963 2               6      -613.908          32.000    40657916.215 2               6      -474.673          30.000  
R18  22994865.508 1 122748170.780 2      2639.796          42.000    22994868.508 8  95470797.84124      2053.039          36.000  
R08  23654744.279 1 126670088.349 1      3660.092          43.000                                                                  
R06  22113098.367 2 117999720.351 3     -3460.523          35.000                                                                  
R10  24462485.910 2 130398815.384 2      3476.656          38.000                                                                  
E03  24907691.811 1 130890791.212 2      -198.503          42.000    24907688.232 1 100292937.096 1      -152.001          46.000  
E05  26619647.437 1 139887168.925 2     -2562.582          40.000    26619644.672 1 107186264.835 1     -1963.486          44.000  
G20  24708471.199 1 129843896.868 3     -1285.431          36.000                                                                  
E12  27011561.068 1 141946702.050 4      2107.453          35.000    27011553.054 1 108764329.960 4      1614.797          35.000  
G24  21459192.258 1 112768822.610 1      1599.682          43.000    21459186.233 1  87871781.804 2      1246.582          40.000  
E33  29254479.186 8               8       -34.470          26.000    29254478.142 1               7       -26.186          29.000  
E25  24431937.832 1 128390714.808 2       610.135          42.000    24431933.821 1  98377279.270 1       467.804          44.000  
E08  25361246.405 1 133274235.746 2      2420.435          41.000    25361240.703 1 102119216.564 2      1854.380          39.000  
E02  27035092.175 1 142070385.077 2      2546.289          40.000    27035087.716 1 108859096.540 2      1951.007          42.000  
G12  23447337.047 1 123216593.143 2      3467.211          42.000    23447328.756 1  96012891.295 3      2701.802          37.000  
> 2021 03 11 09 52 12.0030000  0 37                     
G13  22862808.087 1 120144859.463 2     -2770.586          43.000                                                                  
G14  24743086.314 1 130025829.148 3     -3086.578          37.000    24743082.833 2 101318772.190 5     -2404.877          32.000  
G15  21795072.714 1 114533882.301 2     -1433.844          42.000    21795065.540 1  89247134.976 2     -1117.407          39.000  
G10  25108958.866 1 131948482.237 2       938.696          41.000    25108951.514 2 102816975.130 4       731.741          35.000  
G28  24406854.853 1 128258893.038 2     -2751.293          42.000                                                                  
S36  38995381.971 1 204922102.244 2       244.406          41.000  
C20  24822977.114 1 129259753.342 2     -1989.948          43.000                                                                  
C23  25556744.405 1 133080683.355 2     -2208.326          41.000                                                                  
C28  25478561.736 1 132673572.825 3      2646.931          37.000                                                                  
C19  24709217.666 1 128667391.637 2       798.138          39.000                                                                  
C11  26974150.087 1 140461462.396 4     -1138.804          35.000    26974139.614 1 108613674.668 2      -880.635          39.000  
R15  25072419.863 9               9     -3150.530          25.000                                                                  
R09  21002240.104 1 112150788.237 1      1682.553          45.000    21002237.237 8  87228380.38534      1308.551          40.000  
R17  23443393.772 1 125450349.138 1      -732.462          45.000                                                                  
R07  21076176.819 1 112822424.171 1       309.582          46.000    21076170.026 2  87750741.552 2       240.672          40.000  
R16  20982102.148 1 112082633.057 2     -1547.974          42.000                                                                  
G17  23100194.322 1 121392354.734 1        -3.980          43.000    23100185.317 1  94591407.913 3        -3.138          35.000  
G19  22805655.845 1 119844536.009 2      2113.825          41.000                                                                  
E24  26165157.707 1 137498810.578 1     -1789.521          42.000    26165153.264 1 105356229.145 1     -1371.072          44.000  
S23  39182550.152 1 205905694.460 2       243.288          40.000  
G23  24393410.531 1 128188242.949 3     -1015.833          38.000    24393403.346 1  99886911.790 2      -791.646          39.000  
C37  22881072.926 1 119147749.735 1      -144.626          45.000                                                                  
C10  40658050.903 2               6      -614.139          31.000    40658034.152 2               8      -476.074          30.000  
R18  22994371.142 1 122745531.513 2      2639.258          42.000    22994372.995 8  95468741.09524      2052.341          37.000  
R08  23654060.867 1 126666428.796 1      3659.377          43.000                                                                  
R06  22113746.921 2 118003181.122 3     -3460.708          35.000                                                                  
R10  24461833.676 2 130395338.339 2      3476.858          38.000                                                                  
E03  24907729.716 1 130890989.761 2      -198.637          42.000    24907725.895 1 100293089.241 1      -152.301          46.000  
E05  26620135.089 1 139889731.353 2     -2562.573          40.000    26620132.288 1 107188228.260 1     -1963.553          44.000  
G20  24708715.776 1 129845182.404 3     -1285.938          36.000                                                                  
E12  27011160.077 1 141944594.865 3      2107.234          35.000    27011152.167 1 108762715.353 4      1614.507          35.000  
G24  21458887.895 1 112767223.060 1      1599.555          44.000    21458881.873 1  87870535.392 2      1246.442          40.000  
E33  29254486.239 8               8       -34.617          26.000    29254484.574 1               7       -26.385          29.000  
E25  24431821.746 1 128390104.631 2       610.183          42.000    24431817.687 1  98376811.741 1       467.577          44.000  
E08  25360785.809 1 133271815.449 2      2420.228          40.000    25360780.211 1 102117362.036 2      1854.378          39.000  
E02  27034607.617 1 142067838.768 2      2546.238          40.000    27034603.047 1 108857145.472 1      1951.030          42.000  
G12  23446677.238 1 123213126.181 2      3466.683          42.000    23446669.033 1  96010189.769 3      2701.366          37.000  
> 2021 03 11 09 52 13.0030000  0 37                     
G13  22863335.430 1 120147630.368 2     -2771.179          43.000                                                                  
G14  24743673.654 1 130028915.925 3     -3086.725          37.000    24743670.203 2 101321177.485 5     -2406.061          32.000  
G15  21795345.665 1 114535316.657 2     -1434.332          43.000    21795338.466 1  89248252.663 2     -1117.773          40.000  
G10  25108780.145 1 131947543.776 1       938.227          41.000    25108773.587 2 102816243.859 4       731.217          35.000  
G28  24407378.494 1 128261644.790 2     -2751.707          42.000                                                                  
S36  38995335.412 1 204921858.010 2       244.047          41.000  
C20  24823359.411 1 129261743.859 1     -1990.766          43.000                                                                  
C23  25557168.504 1 133082892.301 2     -2209.148          41.000                                                                  
C28  25478053.443 1 132670926.360 3      2646.084          37.000                                                                  
C19  24709064.393 1 128666593.860 2       797.437          39.000                                                                  
C11  26974368.838 1 140462601.389 4     -1139.485          35.000    26974358.385 1 108614555.399 2      -880.801          39.000  
R15  25073008.078 9               9     -3151.592          24.000                                                                  
R09  21001925.257 1 112149106.092 1      1681.845          46.000    21001922.800 8  87227072.05223      1308.298          39.000  
R17  23443530.773 1 125451082.402 1      -733.713          45.000                                                                  
R07  21076119.108 1 112822115.138 1       308.581          46.000    21076112.227 2  87750501.198 2       239.828          39.000  
R16  20982392.072 1 112084181.131 2     -1548.352          42.000                                                                  
G17  23100195.143 1 121392359.276 1        -4.839          43.000    23100186.245 1  94591411.463 3        -4.176          36.000  
G19  22805253.784 1 119842422.672 2      2112.906          41.000                                                                  
E24  26165498.115 1 137500600.437 1     -1789.998          43.000    26165493.905 1 105357600.600 1     -1371.583          44.000  
S23  39182503.853 1 205905451.305 2       243.206          40.000  
G23  24393603.981 1 128189259.421 3     -1016.822          38.000    24393596.851 1  99887703.830 2      -792.072          39.000  
C37  22881100.834 1 119147894.751 1      -145.297          44.000                                                                  
C10  40658169.073 2               6      -614.154          32.000    40658151.992 2               7      -474.276          30.000  
R18  22993876.920 1 122742893.138 2      2637.966          42.000                                                                  
R08  23653377.632 1 126662769.902 2      3658.513          43.000                                                                  
R06  22114395.602 2 118006642.549 3     -3461.505          35.000                                                                  
R10  24461181.422 2 130391861.601 2      3476.444          39.000                                                                  
E03  24907767.561 1 130891188.953 2      -199.522          42.000    24907763.882 1 100293241.858 1      -152.846          46.000  
E05  26620622.905 1 139892294.164 2     -2562.874          40.000    26620619.979 1 107190191.969 1     -1963.884          44.000  
G20  24708960.453 1 129846468.581 3     -1286.554          36.000                                                                  
E12  27010758.960 1 141942488.180 4      2106.539          35.000    27010751.085 1 108761101.163 3      1613.787          34.000  
G24  21458583.636 1 112765624.066 1      1598.921          44.000    21458577.661 1  87869289.429 2      1245.799          40.000  
E33  29254494.361 8               8       -35.787          26.000    29254491.168 1               6       -26.997          29.000  
E25  24431705.835 1 128389494.905 2       609.612          42.000    24431701.519 1  98376344.555 1       467.170          44.000  
E08  25360325.324 1 133269395.573 2      2419.857          40.000    25360319.692 1 102115507.851 2      1854.086          39.000  
E02  27034123.042 1 142065292.778 2      2546.021          40.000    27034118.603 1 108855194.657 1      1950.836          42.000  
G12  23446017.452 1 123209659.651 2      3466.514          42.000    23446009.275 1  96007488.572 2      2701.568          37.000  
> 2021 03 11 09 52 14.0030000  0 37                     
G13  22863862.722 1 120150401.760 2     -2771.440          43.000                                                                  
G14  24744261.029 1 130032002.947 3     -3087.537          37.000    24744257.675 2 101323582.942 5     -2405.420          32.000  
G15  21795618.724 1 114536751.769 2     -1435.571          43.000    21795611.630 1  89249370.927 2     -1118.719          40.000  
G10  25108601.673 1 131946606.102 2       937.163          41.000    25108595.895 2 102815513.219 4       729.599          34.000  
G28  24407902.279 1 128264396.817 2     -2752.350          42.000                                                                  
S36  38995288.950 1 204921613.875 2       244.055          41.000  
C20  24823741.671 1 129263734.908 1     -1991.626          42.000                                                                  
C23  25557592.723 1 133085101.472 2     -2209.353          41.000                                                                  
C28  25477545.248 1 132668280.331 3      2645.421          37.000                                                                  
C19  24708911.236 1 128665796.796 2       796.606          39.000                                                                  
C11  26974587.694 1 140463741.044 4     -1140.151          36.000    26974577.253 1 108615436.647 2      -881.721          39.000  
R15  25073596.907 9               9     -3152.851          24.000                                                                  
R09  21001610.329 1 112147424.480 1      1681.185          46.000    21001606.958 4  87225764.14923      1307.706          40.000  
R17  23443668.092 1 125451816.711 1      -735.003          45.000                                                                  
R07  21076061.627 1 112821807.219 1       307.329          46.000    21076054.733 2  87750261.688 3       239.129          40.000  
R16  20982681.947 1 112085729.689 2     -1549.000          42.000                                                                  
G17  23100196.089 1 121392364.586 1        -5.848          43.000    23100187.240 1  94591415.604 3        -4.933          36.000  
G19  22804851.845 1 119840310.092 1      2111.859          41.000                                                                  
E24  26165839.002 1 137502390.563 1     -1790.328          43.000    26165834.692 1 105358972.261 1     -1371.945          44.000  
S23  39182457.518 1 205905208.294 2       242.918          40.000  
G23  24393797.603 1 128190276.590 3     -1017.537          38.000    24393790.558 1  99888496.443 2      -793.095          39.000  
C37  22881128.823 1 119148040.165 1      -145.695          44.000                                                                  
C10  40658287.021 2 211718356.916 4      -614.200          31.000    40658269.895 2               8      -475.455          30.000  
R18  22993382.723 1 122740255.559 2      2636.870          42.000    22993392.502 9  95464669.55835      2050.961          38.000  
R08  23652694.509 1 126659111.677 1      3657.699          43.000                                                                  
R06  22115044.385 2 118010104.605 3     -3462.049          35.000                                                                  
R10  24460529.343 2 130388385.144 2      3476.109          38.000                                                                  
E03  24907805.529 1 130891388.716 2      -200.083          42.000    24907801.867 1 100293394.938 1      -153.445          46.000  
E05  26621110.705 1 139894857.329 2     -2563.500          40.000    26621107.743 1 107192155.949 1     -1964.229          44.000  
G20  24709205.231 1 129847755.399 3     -1287.457          36.000                                                                  
E12  27010357.891 1 141940381.940 3      2106.206          35.000    27010350.237 1 108759487.289 3      1613.597          34.000  
G24  21458279.445 1 112764025.594 1      1598.100          44.000    21458273.574 1  87868043.875 2      1245.331          40.000  
E33  29254501.991 8               9       -35.509          26.000    29254498.022 1               6       -27.794          29.000  
E25  24431590.005 1 128388885.603 2       608.898          42.000    24431585.632 1  98375877.690 1       466.492          44.000  
E08  25359864.816 1 133266976.150 2      2419.212          40.000    25359859.236 1 102113654.012 2      1853.486          39.000  
E02  27033638.652 1 142062747.123 2      2545.184          40.000    27033634.162 1 108853244.077 2      1950.336          42.000  
G12  23445357.899 1 123206193.590 2      3465.849          42.000    23445349.776 1  96004787.755 3      2700.662          37.000  
> 2021 03 11 09 52 15.0030000  0 37                     
G13  22864390.240 1 120153173.566 2     -2771.794          43.000                                                                  
G14  24744848.385 1 130035090.087 3     -3087.067          36.000    24744845.266 2 101325988.505 5     -2405.273          32.000  
G15  21795891.826 1 114538187.449 2     -1435.712          43.000    21795884.744 1  89250489.635 2     -1118.719          40.000  
G10  25108423.315 1 131945669.021 2       936.932          41.000    25108418.375 2 102814783.012 4       729.953          35.000  
G28  24408425.903 1 128267148.906 2     -2751.868          42.000                                                                  
S36  38995242.610 1 204921369.775 2       244.198          41.000  
C20  24824124.105 1 129265726.339 2     -1991.376          42.000                                                                  
C23  25558016.986 1 133087310.747 2     -2209.338          41.000                                                                  
C28  25477037.075 1 132665634.612 3      2645.767          38.000                                                                  
C19  24708758.389 1 128665000.289 2       796.545          39.000                                                                  
C11  26974806.673 1 140464881.175 4     -1140.133          36.000    26974796.199 1 108616318.276 2      -881.458          39.000  
R15  25074186.394 9               9     -3152.682          24.000                                                                  
R09  21001295.439 1 112145743.272 1      1681.301          46.000    21001291.737 4  87224453.04134      1307.651          43.000  
R17  23443805.544 1 125452551.903 1      -735.515          45.000                                                                  
R07  21076004.305 1 112821500.264 1       306.694          46.000    21075997.378 2  87750022.947 3       238.639          42.000  
R16  20982972.004 1 112087278.536 1     -1548.740          42.000                                                                  
G17  23100197.135 1 121392370.510 1        -6.103          43.000    23100188.299 1  94591420.218 3        -5.026          36.000  
G19  22804450.036 1 119838198.100 2      2111.726          41.000                                                                  
E24  26166179.789 1 137504180.814 1     -1790.009          43.000    26166175.334 1 105360344.003 1     -1371.629          44.000  
S23  39182411.240 1 205904965.307 2       243.214          39.000  
G23  24393991.294 1 128191294.336 3     -1017.965          38.000    24393984.263 1  99889289.472 2      -793.090          39.000  
C37  22881156.680 1 119148185.859 1      -145.591          44.000                                                                  
C10  40658405.059 2               6      -612.938          32.000    40658387.906 2               6      -474.566          30.000  
R18  22992888.802 1 122737618.628 1      2636.764          42.000    22992895.373 9  95462606.11124      2050.856          40.000  
R08  23652011.446 1 126655453.977 2      3657.540          43.000                                                                  
R06  22115693.486 2 118013567.186 4     -3462.560          35.000                                                                  
R10  24459877.374 2 130384908.816 2      3476.680          39.000                                                                  
E03  24907843.607 1 130891588.960 2      -200.386          42.000    24907840.033 1 100293548.361 1      -153.501          46.000  
E05  26621598.637 1 139897420.693 2     -2563.196          40.000    26621595.442 1 107194120.073 1     -1963.871          44.000  
G20  24709450.233 1 129849042.681 3     -1287.207          36.000                                                                  
E12  27009956.839 1 141938276.054 4      2106.218          35.000    27009949.482 1 108757873.683 3      1613.620          34.000  
G24  21457975.274 1 112762427.484 1      1597.971          44.000    21457969.374 1  87866798.582 2      1245.387          40.000  
E33  29254507.788 8               9       -36.865          26.000    29254504.784 1               6       -27.675          29.000  
E25  24431473.980 1 128388276.582 1       609.098          42.000    24431469.751 1  98375411.031 1       466.740          44.000  
E08  25359404.580 1 133264557.006 2      2419.313          40.000    25359398.850 1 102111800.367 2      1853.838          39.000  
E02  27033154.035 1 142060201.588 2      2545.762          40.000    27033149.731 1 108851293.611 1      1950.538          42.000  
G12  23444698.490 1 123202727.829 2      3466.064          42.000    23444690.284 1  96002087.173 3      2700.672          37.000  
> 2021 03 11 09 52 16.0030000  0 37                     
G13  22864917.691 1 120155945.504 2     -2771.646          43.000                                                                  
G14  24745435.855 1 130038177.093 4     -3086.554          36.000    24745432.758 2 101328393.987 5     -2405.371          32.000  
G15  21796165.061 1 114539623.517 2     -1436.169          43.000    21796158.129 1  89251608.656 2     -1119.135          40.000  
G10  25108245.014 1 131944732.370 2       936.571          41.000    25108240.508 2 102814053.137 3       729.993          34.000  
G28  24408949.542 1 128269900.926 2     -2751.794          42.000                                                                  
S36  38995196.125 1 204921125.425 2       244.614          41.000  
C20  24824506.547 1 129267717.979 2     -1991.602          43.000                                                                  
C23  25558441.197 1 133089519.889 2     -2208.943          41.000                                                                  
C28  25476528.912 1 132662989.041 3      2645.721          38.000                                                                  
C19  24708605.503 1 128664204.137 2       796.338          39.000                                                                  
C11  26975025.788 1 140466021.665 4     -1141.290          35.000    26975015.211 1 108617200.158 2      -882.035          39.000  
R15  25074774.125 9               9     -3151.523          24.000                                                                  
R09  21000980.602 1 112144062.246 1      1681.255          46.000    21000976.887 4  87223145.56623      1307.574          39.000  
R17  23443943.028 1 125453287.713 1      -736.026          45.000    23443926.875 8               6      -572.893          36.000  
R07  21075947.100 1 112821194.030 1       305.975          46.000    21075940.285 2  87749784.750 3       237.859          40.000  
R16  20983262.090 1 112088827.477 1     -1548.713          42.000                                                                  
G17  23100198.316 1 121392376.869 1        -6.487          43.000    23100189.474 1  94591425.167 3        -5.113          36.000  
G19  22804048.163 1 119836086.515 2      2111.385          41.000                                                                  
E24  26166520.491 1 137505970.997 1     -1790.075          43.000    26166516.038 1 105361715.695 1     -1371.496          44.000  
S23  39182364.877 1 205904722.067 2       243.587          39.000  
G23  24394185.041 1 128192312.413 3     -1017.960          38.000    24394178.098 1  99890082.765 2      -793.324          39.000  
C37  22881184.582 1 119148331.618 1      -145.644          45.000                                                                  
C10  40658523.100 2 211719584.666 5      -613.245          32.000    40658505.797 2               7      -475.605          30.000  
R18  22992394.980 1 122734982.181 1      2636.225          43.000    22992401.968 9  95460557.03624      2050.740          38.000  
R08  23651328.446 1 126651796.611 1      3657.010          43.000                                                                  
R06  22116342.608 2 118017030.056 3     -3462.859          35.000                                                                  
R10  24459225.264 2 130381432.452 2      3476.441          38.000                                                                  
E03  24907881.757 1 130891789.443 2      -200.478          42.000    24907878.124 1 100293701.974 1      -153.592          46.000  
E05  26622086.356 1 139899984.080 2     -2563.283          40.000    26622083.104 1 107196084.239 1     -1964.068          44.000  
G20  24709695.199 1 129850330.276 3     -1287.909          36.000                                                                  
E12  27009555.896 1 141936170.297 4      2105.386          35.000    27009548.781 1 108756260.164 3      1613.996          34.000  
G24  21457671.237 1 112760829.547 1      1597.856          44.000    21457665.373 1  87865553.435 2      1245.252          40.000  
E25  24431358.176 1 128387667.639 1       608.852          42.000    24431353.852 1  98374944.430 1       466.729          44.000  
E08  25358944.261 1 133262137.949 2      2419.141          40.000    25358938.561 1 102109946.804 2      1853.665          39.000  
E02  27032669.534 1 142057656.036 2      2545.709          40.000    27032665.436 1 108849343.124 2      1950.547          42.000  
G12  23444039.009 1 123199262.183 2      3465.815          41.000    23444030.768 1  95999386.654 3      2700.669          37.000  
E33                                                                  29254511.782 1 117795792.620 5       -27.866          29.000  
> 2021 03 11 09 52 17.0030000  0 37                     
G13  22865445.204 1 120158717.653 2     -2772.383          43.000                                                                  
G14  24746023.265 1 130041264.069 3     -3087.091          36.000    24746020.232 2 101330799.406 5     -2406.152          32.000  
G15  21796438.360 1 114541059.978 2     -1436.841          42.000    21796431.483 1  89252727.969 2     -1119.501          40.000  
G10  25108066.848 1 131943796.153 2       935.770          41.000    25108062.921 2 102813323.639 4       729.244          34.000  
G28  24409473.268 1 128272652.881 2     -2752.026          42.000                                                                  
S36  38995149.614 1 204920880.941 2       244.373          41.000  
C20  24824889.046 1 129269709.831 2     -1992.163          43.000                                                                  
C23  25558865.421 1 133091728.981 2     -2209.381          41.000                                                                  
C28  25476020.761 1 132660343.609 3      2645.065          38.000                                                                  
C19  24708452.633 1 128663408.384 2       795.343          38.000                                                                  
C11  26975244.994 1 140467162.431 4     -1140.977          35.000    26975234.271 1 108618082.296 3      -882.608          39.000  
R15  25075363.226 9               9     -3151.789          24.000                                                                  
R09  21000665.906 1 112142381.426 1      1680.664          46.000    21000662.115 2  87221838.26023      1307.078          39.000  
R17  23444080.675 1 125454024.192 1      -737.037          45.000    23444067.874 8  97575288.14935      -572.599          35.000  
R07  21075889.990 1 112820888.502 1       305.002          46.000    21075883.167 2  87749547.112 3       237.414          39.000  
R16  20983552.107 1 112090376.561 2     -1549.352          42.000                                                                  
G17  23100199.670 1 121392383.679 1        -7.357          43.000    23100190.775 1  94591430.462 3        -5.418          37.000  
G19  22803646.401 1 119833975.340 2      2110.712          41.000                                                                  
E24  26166861.135 1 137507761.115 1     -1790.262          43.000    26166856.651 1 105363087.347 1     -1371.819          44.000  
S23  39182318.531 1 205904478.708 2       243.290          39.000  
G23  24394378.896 1 128193330.864 3     -1018.646          38.000    24394371.904 1  99890876.381 2      -793.967          39.000  
C37  22881212.552 1 119148477.480 1      -146.066          45.000                                                                  
C10  40658641.097 2               6      -613.698          32.000    40658623.712 2               7      -474.409          30.000  
R18  22991901.192 1 122732346.239 1      2635.574          43.000    22991908.754 8  95458507.37724      2049.943          37.000  
R08  23650645.521 1 126648139.566 1      3656.705          43.000                                                                  
R06  22116991.559 2 118020493.228 3     -3463.263          35.000                                                                  
R10  24458573.125 2 130377956.010 3      3476.318          39.000                                                                  
E03  24907920.164 1 130891990.213 2      -201.037          42.000    24907916.393 1 100293855.816 1      -154.105          46.000  
E05  26622574.295 1 139902547.505 2     -2563.808          40.000    26622570.902 1 107198048.411 1     -1964.380          44.000  
G20  24709940.278 1 129851618.140 3     -1287.878          37.000                                                                  
E12  27009154.906 1 141934064.676 4      2104.952          35.000    27009148.092 1 108754646.776 4      1613.326          34.000  
G24  21457367.232 1 112759231.792 2      1597.552          44.000    21457361.480 1  87864308.452 2      1244.799          40.000  
E25  24431242.453 1 128387058.785 1       608.717          42.000    24431237.944 1  98374477.913 1       466.429          44.000  
E08  25358483.972 1 133259719.005 2      2418.745          40.000    25358478.322 1 102108093.335 2      1853.282          39.000  
E02  27032185.096 1 142055110.474 2      2545.211          39.000    27032181.047 1 108847392.604 1      1950.641          42.000  
G12  23443379.541 1 123195796.652 2      3465.278          42.000    23443371.235 1  95996686.237 3      2700.589          37.000  
E33                                                                  29254518.784 1 117795820.701 5       -28.006          29.000  
> 2021 03 11 09 52 18.0030000  0 37                     
G13  22865972.819 1 120161490.181 2     -2772.379          43.000                                                                  
G14  24746610.690 1 130044351.150 3     -3087.219          36.000    24746607.812 2 101333204.899 5     -2405.255          32.000  
G15  21796711.796 1 114542497.052 1     -1437.396          42.000    21796704.988 1  89253847.769 2     -1119.934          40.000  
G10  25107888.800 1 131942860.568 2       935.384          42.000    25107885.069 2 102812594.601 4       729.198          34.000  
G28  24409996.985 1 128275404.959 2     -2752.247          42.000                                                                  
S36  38995103.104 1 204920636.460 2       244.260          41.000  
C20  24825271.519 1 129271702.097 1     -1992.346          43.000                                                                  
C23  25559289.595 1 133093938.174 2     -2209.149          41.000                                                                  
C28  25475512.842 1 132657698.512 3      2645.049          38.000                                                                  
C19  24708299.840 1 128662613.205 2       794.958          39.000                                                                  
C11  26975464.111 1 140468303.756 4     -1141.520          35.000    26975453.388 1 108618964.815 2      -882.532          39.000  
R15  25075951.830 9               9     -3149.915          24.000                                                                  
R09  21000351.356 1 112140701.005 1      1680.435          46.000    21000349.557 8  87220539.77835      1306.798          39.000  
R17  23444218.638 1 125454761.550 1      -737.710          45.000    23444207.576 4  97575870.18724      -574.236          35.000  
R07  21075833.018 1 112820583.898 1       304.324          46.000    21075826.270 2  87749310.191 3       236.881          39.000  
R16  20983842.259 1 112091925.995 2     -1549.609          42.000                                                                  
G17  23100201.109 1 121392391.115 2        -7.861          43.000    23100192.267 1  94591436.268 3        -6.000          37.000  
G19  22803244.793 1 119831864.797 2      2110.343          41.000                                                                  
E24  26167201.714 1 137509551.383 1     -1790.290          43.000    26167197.331 1 105364459.115 1     -1371.796          44.000  
S23  39182272.216 1 205904235.315 2       243.895          40.000  
G23  24394572.881 1 128194349.913 3     -1019.273          38.000    24394565.910 1  99891670.416 3      -793.799          39.000  
C37  22881240.619 1 119148623.621 1      -146.252          44.000                                                                  
C10  40658758.883 2               7      -613.206          32.000    40658741.459 2               7      -474.525          30.000  
R18  22991407.479 1 122729711.041 1      2635.002          43.000    22991413.581 8  95456454.29435      2049.094          36.000  
R08  23649962.663 1 126644483.071 2      3656.338          42.000                                                                  
R06  22117640.660 2 118023956.916 3     -3464.318          35.000                                                                  
R10  24457921.107 2 130374479.722 2      3476.375          38.000                                                                  
E03  24907958.368 1 130892191.451 2      -201.292          42.000    24907954.674 1 100294010.010 1      -154.277          47.000  
E05  26623062.237 1 139905111.130 2     -2563.646          40.000    26623058.820 1 107200012.761 1     -1964.490          44.000  
G20  24710185.530 1 129852906.516 3     -1288.116          37.000                                                                  
E12  27008754.003 1 141931959.378 4      2105.222          35.000    27008747.353 1 108753033.635 4      1613.448          34.000  
G24  21457063.249 1 112757634.443 2      1597.378          44.000    21457057.480 1  87863063.762 2      1244.476          40.000  
E25  24431126.543 1 128386450.249 2       608.331          42.000    24431122.189 1  98374011.625 1       466.142          44.000  
E08  25358023.811 1 133257300.360 2      2418.490          40.000    25358017.971 1 102106240.082 2      1853.271          39.000  
E02  27031700.734 1 142052565.074 2      2545.262          39.000    27031696.683 1 108845442.255 2      1950.322          42.000  
G12  23442720.028 1 123192331.451 2      3464.936          42.000    23442711.763 1  95993986.097 3      2699.729          37.000  
E33                                                                  29254525.851 1               6       -28.894          29.000  
> 2021 03 11 09 52 19.0030000  0 37                     
G13  22866500.501 1 120164263.093 2     -2773.347          43.000                                                                  
G14  24747198.173 1 130047438.340 3     -3087.286          36.000    24747195.320 2 101335610.512 5     -2405.328          32.000  
G15  21796985.414 1 114543934.715 2     -1438.080          42.000    21796978.556 1  89254968.016 2     -1120.483          40.000  
G10  25107710.941 1 131941925.626 2       934.452          42.000    25107707.296 2 102811866.055 4       728.414          34.000  
G28  24410520.641 1 128278157.135 2     -2752.711          42.000                                                                  
S36  38995056.595 1 204920392.057 2       244.474          41.000  
C20  24825654.141 1 129273694.778 1     -1993.176          43.000                                                                  
C23  25559713.825 1 133096147.465 2     -2209.474          41.000                                                                  
C28  25475004.956 1 132655053.744 3      2644.344          38.000                                                                  
C19  24708147.227 1 128661818.580 2       793.939          39.000                                                                  
C11  26975683.376 1 140469445.577 3     -1142.362          35.000    26975672.654 1 108619847.753 2      -883.239          39.000  
R15  25076541.161 9               9     -3152.189          25.000                                                                  
R09  21000036.772 1 112139021.010 1      1679.427          46.000    21000035.979 8  87219237.60224      1306.210          40.000  
R17  23444356.540 1 125455499.804 1      -738.947          45.000    23444338.575 9               6      -574.531          35.000  
R07  21075776.197 1 112820280.220 1       303.070          46.000    21075769.574 2  87749074.014 2       235.618          40.000  
R16  20984132.344 1 112093475.766 2     -1550.176          42.000                                                                  
G17  23100202.760 1 121392399.193 1        -8.505          43.000    23100193.829 1  94591442.562 3        -6.541          37.000  
G19  22802843.313 1 119829754.846 2      2109.187          41.000                                                                  
E24  26167542.593 1 137511341.780 1     -1790.595          43.000    26167538.078 1 105365830.970 1     -1371.963          44.000  
S23  39182225.942 1 205903991.950 2       243.133          39.000  
G23  24394766.909 1 128195369.504 2     -1020.071          38.000    24394760.002 1  99892464.915 2      -794.795          39.000  
C37  22881268.724 1 119148770.058 1      -146.926          44.000                                                                  
C10  40658876.725 2 211721425.420 5      -613.326          32.000    40658859.354 2               7      -473.949          30.000  
R18  22990914.039 1 122727076.563 1      2633.993          43.000    22990916.953 8  95454391.76324      2048.265          36.000  
R08  23649280.000 1 126640827.093 2      3655.296          42.000                                                                  
R06  22118289.833 2 118027421.087 3     -3464.719          35.000                                                                  
R10  24457268.981 2 130371003.558 3      3476.146          38.000                                                                  
E03  24907996.817 1 130892393.169 2      -202.123          42.000    24907993.111 1 100294164.573 1      -154.754          47.000  
E05  26623550.178 1 139907674.992 2     -2564.074          40.000    26623546.664 1 107201977.271 1     -1964.562          44.000  
G20  24710430.790 1 129854195.421 3     -1289.520          37.000                                                                  
E12  27008353.207 1 141929854.438 3      2104.781          35.000    27008346.737 1 108751420.775 4      1612.984          34.000  
G24  21456759.349 1 112756037.480 1      1596.567          44.000    21456753.588 1  87861819.360 2      1244.088          41.000  
E25  24431010.838 1 128385841.973 2       608.097          42.000    24431006.408 1  98373545.562 1       465.690          44.000  
E08  25357563.573 1 133254882.021 2      2417.978          40.000    25357557.792 1 102104387.065 2      1853.243          39.000  
E02  27031216.322 1 142050019.852 2      2544.871          39.000    27031212.219 1 108843492.010 2      1950.153          42.000  
G12  23442060.633 1 123188866.536 2      3464.769          41.000    23442052.407 1  95991286.171 2      2699.865          37.000  
E33                                                                  29254533.021 1               6       -29.255          29.000  
> 2021 03 11 09 52 20.0030000  0 37                     
G13  22867028.307 1 120167036.497 2     -2773.325          43.000                                                                  
G14  24747785.510 1 130050525.772 3     -3087.482          36.000    24747782.918 2 101338016.307 4     -2406.061          32.000  
G15  21797259.148 1 114545373.075 2     -1438.434          42.000    21797252.275 1  89256088.821 2     -1120.947          40.000  
G10  25107533.204 1 131940991.404 2       934.078          42.000    25107529.875 2 102811138.117 4       727.768          34.000  
G28  24411044.503 1 128280909.569 3     -2752.476          42.000                                                                  
S36  38995010.157 1 204920147.822 2       244.172          41.000  
C20  24826036.988 1 129275687.960 2     -1993.292          42.000                                                                  
C23  25560138.204 1 133098356.984 2     -2209.429          41.000                                                                  
C28  25474497.141 1 132652409.428 3      2644.579          38.000                                                                  
C19  24707994.918 1 128661024.648 2       793.823          39.000                                                                  
C11  26975902.791 1 140470588.041 3     -1142.423          35.000    26975892.050 1 108620731.208 2      -883.970          40.000  
R15  25077130.533 9               9     -3152.288          25.000                                                                  
R09  20999722.384 1 112137341.495 1      1679.419          46.000    20999718.597 8  87217919.30434      1306.331          43.000  
R17  23444494.755 1 125456239.076 1      -739.620          45.000    23444478.663 9  97576990.33734      -575.424          39.000  
R07  21075719.655 1 112819977.627 1       302.320          46.000    21075713.003 2  87748838.652 2       235.376          42.000  
R16  20984422.635 1 112095025.990 2     -1550.197          42.000    20984414.242 8  87184979.47135     -1205.523          34.000  
G17  23100204.474 1 121392408.033 1        -9.049          43.000    23100195.585 1  94591449.463 3        -6.982          37.000  
G19  22802441.907 1 119827645.614 2      2109.123          41.000                                                                  
E24  26167883.386 1 137513132.431 1     -1790.665          43.000    26167878.706 1 105367203.043 1     -1372.199          44.000  
S23  39182179.595 1 205903748.730 2       243.050          39.000  
G23  24394961.150 1 128196389.777 2     -1020.273          38.000    24394954.134 1  99893259.938 2      -795.259          39.000  
C37  22881296.912 1 119148916.886 2      -146.966          45.000                                                                  
C10  40658994.723 2 211722039.218 5      -614.322          32.000    40658977.297 2               7      -474.460          31.000  
R18  22990420.624 1 122724442.939 1      2633.375          43.000    22990424.472 8               6      2048.084          39.000  
R08  23648597.485 1 126637171.736 2      3655.184          42.000                                                                  
R06  22118939.051 2 118030885.844 4     -3464.238          35.000                                                                  
R10  24456616.913 2 130367527.693 2      3475.928          38.000                                                                  
E03  24908035.184 1 130892595.475 2      -202.578          42.000    24908031.638 1 100294319.581 1      -155.135          47.000  
E05  26624038.188 1 139910239.205 2     -2564.153          40.000    26624034.687 1 107203942.058 1     -1964.839          44.000  
G20  24710676.212 1 129855484.911 3     -1289.697          37.000                                                                  
E12  27007952.547 1 141927749.968 4      2104.352          35.000    27007946.185 1 108749808.252 4      1612.472          34.000  
G24  21456455.533 1 112754440.998 1      1596.381          43.000    21456449.763 1  87860575.353 2      1243.866          40.000  
E25  24430895.220 1 128385234.131 2       607.644          42.000    24430890.728 1  98373079.793 1       465.825          44.000  
E08  25357103.258 1 133252464.105 2      2417.792          40.000    25357097.738 1 102102534.394 2      1852.422          39.000  
E02  27030731.909 1 142047474.906 2      2545.135          39.000    27030728.024 1 108841541.994 2      1950.104          42.000  
G12  23441401.351 1 123185402.079 2      3464.628          42.000    23441393.063 1  95988586.608 3      2699.356          37.000  
E33                                                                  29254540.378 1               6       -30.381          29.000  
