     3.04           OBSERVATION DATA    M: Mixed            RINEX VERSION / TYPE
CONVBIN demo5 b34a                      20210327 114941 UTC PGM / RUN BY / DATE 
log: 002.ubx                                                COMMENT             
format: u-blox UBX                                          COMMENT             
format: u-blox UBX                                          COMMENT             
log: 002.ubx                                                COMMENT             
                                                            MARKER NAME         
                                                            MARKER NUMBER       
                                                            MARKER TYPE         
                                                            OBSERVER / AGENCY   
                                                            REC # / TYPE / VERS 
                                                            ANT # / TYPE        
  4317286.2398  1016804.0674  4568255.7698                  APPROX POSITION XYZ 
        0.0000        0.0000        0.0000                  ANTENNA: DELTA H/E/N
G    8 C1C L1C D1C S1C C2X L2X D2X S2X                      SYS / # / OBS TYPES 
R    8 C1C L1C D1C S1C C2C L2C D2C S2C                      SYS / # / OBS TYPES 
E    8 C1X L1X D1X S1X C7X L7X D7X S7X                      SYS / # / OBS TYPES 
S    4 C1C L1C D1C S1C                                      SYS / # / OBS TYPES 
C    8 C2I L2I D2I S2I C7I L7I D7I S7I                      SYS / # / OBS TYPES 
  2021    03    11    09    57   17.0030000     GPS         TIME OF FIRST OBS   
  2021    03    11    10    02   20.0030000     GPS         TIME OF LAST OBS    
G L1C                                                       SYS / PHASE SHIFT   
G L2X  0.00000                                              SYS / PHASE SHIFT   
R L1C                                                       SYS / PHASE SHIFT   
R L2C                                                       SYS / PHASE SHIFT   
E L1X  0.00000                                              SYS / PHASE SHIFT   
E L7X  0.00000                                              SYS / PHASE SHIFT   
S L1C                                                       SYS / PHASE SHIFT   
C L2I                                                       SYS / PHASE SHIFT   
C L7I                                                       SYS / PHASE SHIFT   
 10 R06 -4 R07  5 R08  6 R09 -2 R10 -7 R15  0 R16 -1 R17  4 GLONASS SLOT / FRQ #
    R18 -3 R19  3                                           GLONASS SLOT / FRQ #
 C1C    0.000 C1P    0.000 C2C    0.000 C2P    0.000        GLONASS COD/PHS/BIS 
                                                            END OF HEADER       
> 2021 03 11 09 57 17.0030000  0 37                     
G13  23026814.592 1 121006714.49112     -2879.781          43.000                                                                  
G14  24923083.821 1 130971720.95613     -3114.726          38.000    24923079.365 1 102055848.13813     -2427.265          36.000  
G15  21883384.391 1 114997961.79011     -1608.044          45.000    21883376.339 1  89608755.13913     -1252.972          38.000  
G10  25059918.196 1 131690774.19412       751.002          41.000    25059911.511 2 102616163.52214       585.207          34.000  
G28  24567417.811 1 129102657.69212     -2779.919          41.000                                                                  
S36  38981129.142 1 204847211.70412       247.111          40.000  
C20  24942991.555 1 129884697.99011     -2106.431          45.000                                                                  
C23  25686934.133 1 133758614.16112     -2236.026          40.000                                                                  
C28  25326465.931 1 131881565.28513      2545.514          38.000                                                                  
C19  24667465.222 1 128449971.72412       627.356          43.000                                                                  
C11  27045312.372 2 140832038.63315     -1290.476          32.000    27045300.715 1 108900209.44312      -997.782          40.000  
R15  25251868.682 1 134938272.68812     -3136.079          41.000                                                                  
R09  20909504.800 1 111655583.66011      1564.998          46.000    20909493.843 4  86843187.24333      1217.160          39.000  
R17  23492598.365 1 125713655.95411      -992.769          43.000    23492590.574 4  97777228.29033      -771.989          39.000  
R07  21066575.369 1 112771025.73911        27.570          48.000    21066565.384 4  87710755.28033        21.395          38.000  
R16  21073202.038 1 112569274.52612     -1642.242          41.000    21073200.665 9  87553869.22034     -1277.409          38.000  
G17  23105955.554 1 121422626.00012      -193.969          42.000    23105947.184 1  94614995.71612      -151.087          41.000  
G19  22688349.355 1 119228083.66311      1927.298          43.000                                                                  
E24  26270084.632 1 138050213.03612     -1825.429          40.000    26270081.488 1 105778731.95311     -1398.552          47.000  
S23  39168372.445 1 205831187.57612       245.754          40.000  
G23  24457210.171 1 128523508.01712     -1181.227          42.000    24457201.904 1 100148156.90214      -920.632          35.000  
C37  22891947.697 1 119204377.09611      -226.243          44.000                                                                  
C10  40693941.509 4               6      -611.788          29.000    40693935.999 1 163857609.12713      -472.892          38.000  
R18  22849720.608 1 121973374.48811      2422.693          45.000    22849724.270 8  94868183.47633      1883.997          39.000  
R08  23450234.594 1 125574947.14112      3495.957          43.000    23450245.333 9               7      2719.221          36.000  
R06  22315704.966 2 119080878.04513     -3602.731          37.000                                                                  
R10  24264095.000 2 129341281.35915      3434.819          32.000                                                                  
E03  24923296.825 1 130972795.90611      -337.590          44.000    24923293.442 1 100355771.67611      -258.576          45.000  
E05  26770670.653 1 140680801.82812     -2623.901          39.000    26770668.022 1 107794372.80211     -2010.451          43.000  
G20  24787551.688 1 130259463.03412     -1429.315          38.000                                                                  
E12  26891805.111 2               6      2005.286          31.000    26891794.693 1 108282111.07212      1536.338          41.000  
G24  21369396.201 1 112296936.89911      1484.075          44.000    21369389.590 1  87504078.56712      1156.390          41.000  
E25  24398853.492 1 128216856.03211       526.597          43.000    24398849.135 1  98244062.76611       403.444          43.000  
E08  25222909.556 1 132547272.73812      2330.173          40.000    25222904.794 1 101562193.05011      1785.222          42.000  
E02  26888243.225 1 141298689.36012      2497.389          43.000    26888239.235 1 108267797.58111      1913.481          43.000  
G12  23248187.626 1 122170058.36411      3372.134          45.000    23248179.073 1  95197409.99214      2627.855          35.000  
E33                                                                  29260740.575 2               7      -138.679          28.000  
> 2021 03 11 09 57 18.0030000  0 37                     
G13  23027362.540 1 121009594.255 2     -2879.955          42.000                                                                  
G14  24923676.475 1 130974835.567 3     -3114.506          38.000    24923672.040 1 102058275.081 3     -2426.487          36.000  
G15  21883690.466 1 114999570.170 1     -1608.581          45.000    21883682.377 1  89610008.416 3     -1253.088          38.000  
G10  25059775.390 1 131690023.499 2       750.606          41.000    25059768.628 1 102615578.560 4       585.161          35.000  
G28  24567946.852 1 129105437.718 2     -2780.165          41.000                                                                  
S36  38981082.176 1 204846964.798 2       247.021          40.000  
C20  24943396.187 1 129886804.632 1     -2106.855          45.000                                                                  
C23  25687363.384 1 133760850.251 2     -2235.950          39.000                                                                  
C28  25325977.065 1 131879019.768 2      2545.621          38.000                                                                  
C19  24667344.766 1 128449344.522 1       627.051          43.000                                                                  
C11  27045560.068 2 140833328.989 5     -1290.911          33.000    27045548.568 1 108901207.226 2      -997.876          40.000  
R15  25252455.489 1 134941408.676 2     -3135.918          41.000                                                                  
R09  20909211.694 1 111654018.863 1      1564.516          47.000    20909200.139 4  86841970.18123      1216.780          40.000  
R17  23492783.964 1 125714649.111 1      -993.623          43.000    23492776.258 2  97778000.75823      -772.657          40.000  
R07  21066570.365 1 112770998.641 1        26.677          48.000    21066559.537 4  87710732.21634        21.060          40.000  
R16  21073509.487 1 112570916.878 2     -1642.361          41.000    21073508.325 9  87555147.12025     -1277.714          39.000  
G17  23105992.383 1 121422820.205 2      -194.486          41.000    23105984.214 1  94615147.043 2      -151.585          41.000  
G19  22687982.652 1 119226156.405 1      1926.963          43.000                                                                  
E24  26270432.038 1 138052038.288 2     -1825.246          40.000    26270428.795 1 105780130.522 1     -1398.521          47.000  
S23  39168325.769 1 205830941.941 2       246.088          40.000  
G23  24457435.026 1 128524689.360 2     -1181.481          42.000    24457426.683 1 100149077.402 4      -920.505          35.000  
C37  22891991.110 1 119204603.378 1      -226.323          44.000                                                                  
C10  40694058.985 4               7      -611.031          29.000    40694053.468 1 163858081.974 3      -472.780          38.000  
R18  22849266.879 1 121970952.184 1      2421.962          45.000    22849270.876 4  94866299.44923      1883.946          39.000  
R08  23449581.756 1 125571451.446 2      3495.561          43.000    23449588.943 9  97666724.54035      2718.670          35.000  
R06  22316380.331 2 119084481.443 3     -3603.451          37.000                                                                  
R10  24263448.676 4               6      3434.845          32.000                                                                  
E03  24923361.086 1 130973133.533 1      -337.801          44.000    24923357.660 1 100356030.381 1      -258.816          45.000  
E05  26771169.837 1 140683425.642 2     -2623.794          39.000    26771167.345 1 107796383.271 1     -2010.662          43.000  
G20  24787823.677 1 130260892.557 2     -1429.773          38.000                                                                  
E12  26891423.277 2 141315360.051 5      2005.108          31.000    26891413.132 1 108280574.612 2      1536.700          41.000  
G24  21369113.828 1 112295452.932 1      1483.888          44.000    21369107.205 1  87502922.224 2      1156.059          40.000  
E25  24398753.451 1 128216329.614 1       526.045          42.000    24398748.972 1  98243659.399 1       403.236          43.000  
E08  25222466.208 1 132544942.648 2      2330.105          40.000    25222461.381 1 101560407.649 1      1785.373          42.000  
E02  26887767.979 1 141296192.059 1      2497.209          43.000    26887763.992 1 108265884.069 1      1913.400          43.000  
G12  23247545.998 1 122166686.253 1      3372.055          45.000    23247537.314 2  95194782.393 4      2627.301          35.000  
E33                                                                  29260773.722 4               7      -138.673          28.000  
> 2021 03 11 09 57 19.0030000  0 37                     
G13  23027910.651 1 121012474.390 2     -2880.192          43.000                                                                  
G14  24924269.146 1 130977950.295 3     -3114.616          38.000    24924264.704 1 102060702.166 3     -2427.037          36.000  
G15  21883996.732 1 115001179.156 1     -1609.302          45.000    21883988.593 1  89611262.175 3     -1253.888          38.000  
G10  25059632.650 1 131689273.489 2       749.737          41.000    25059626.100 1 102614994.133 3       584.359          35.000  
G28  24568475.871 1 129108217.851 2     -2780.195          41.000                                                                  
S36  38981035.094 1 204846718.025 2       246.431          40.000  
C20  24943800.818 1 129888911.671 1     -2107.244          45.000                                                                  
C23  25687792.792 1 133763086.482 2     -2236.268          39.000                                                                  
C28  25325488.194 1 131876474.654 3      2545.183          38.000                                                                  
C19  24667224.440 1 128448717.952 2       626.227          43.000                                                                  
C11  27045807.836 2 140834619.896 5     -1291.294          32.000    27045796.488 1 108902205.449 2      -998.235          40.000  
R15  25253042.357 1 134944544.665 2     -3135.702          41.000                                                                  
R09  20908918.729 1 111652454.491 1      1564.143          46.000    20908906.725 4  86840753.45023      1216.494          43.000  
R17  23492969.802 1 125715643.175 1      -994.648          43.000    23492962.110 2  97778773.91023      -773.362          42.000  
R07  21066565.356 1 112770972.509 1        25.657          48.000    21066554.791 4  87710711.90423        19.656          39.000  
R16  21073817.101 1 112572559.574 2     -1642.606          41.000    21073815.838 8  87556424.77023     -1277.753          40.000  
G17  23106029.404 1 121423015.057 2      -195.068          41.000    23106021.379 1  94615298.884 2      -152.190          41.000  
G19  22687616.024 1 119224229.816 2      1926.146          43.000                                                                  
E24  26270779.496 1 138053863.694 2     -1825.449          40.000    26270776.156 1 105781529.224 1     -1398.847          47.000  
S23  39168279.146 1 205830696.349 2       245.617          40.000  
G23  24457660.011 1 128525871.278 2     -1182.142          42.000    24457651.515 1 100149998.388 4      -921.235          35.000  
C37  22892034.556 1 119204829.979 1      -226.821          44.000                                                                  
C10  40694179.005 4               7      -611.401          29.000    40694170.887 1 163858554.819 3      -472.519          38.000  
R18  22848813.164 1 121968530.673 1      2421.049          45.000    22848813.772 8  94864416.06023      1883.106          40.000  
R08  23448929.002 1 125567956.369 2      3494.796          43.000    23448934.156 9  97663981.63235      2718.426          36.000  
R06  22317055.677 2 119088085.317 3     -3604.059          37.000                                                                  
R10  24262802.890 8               6      3434.388          32.000                                                                  
E03  24923425.346 1 130973471.662 1      -338.490          44.000    24923422.023 1 100356289.467 1      -259.418          45.000  
E05  26771669.202 1 140686049.698 2     -2624.251          39.000    26771666.523 1 107798393.903 1     -2010.851          42.000  
G20  24788095.721 1 130262322.572 2     -1430.200          39.000                                                                  
E12  26891041.816 2 141313355.272 5      2004.393          31.000    26891031.725 1 108279038.492 2      1536.107          41.000  
G24  21368831.633 1 112293969.383 1      1483.336          44.000    21368824.760 1  87501766.203 2      1155.894          40.000  
E25  24398653.216 1 128215803.486 2       525.913          43.000    24398648.864 1  98243256.272 1       402.834          43.000  
E08  25222022.818 1 132542612.932 2      2329.323          40.000    25222018.093 1 101558622.537 1      1784.957          42.000  
E02  26887292.703 1 141293694.962 1      2496.885          42.000    26887288.805 1 108263970.698 1      1913.204          43.000  
G12  23246904.423 1 122163314.503 1      3371.706          46.000    23246895.731 1  95192155.028 4      2627.502          35.000  
E33                                                                  29260808.855 2               6      -139.232          28.000  
> 2021 03 11 09 57 20.0030000  0 37                     
G13  23028458.854 1 121015354.956 2     -2881.041          43.000                                                                  
G14  24924861.957 1 130981065.196 3     -3115.444          38.000    24924857.381 1 102063129.359 3     -2427.491          36.000  
G15  21884303.060 1 115002788.753 1     -1609.839          45.000    21884294.925 1  89612516.426 3     -1254.620          38.000  
G10  25059490.011 1 131688524.141 2       749.033          41.000    25059483.546 1 102614410.220 3       583.929          35.000  
G28  24569004.978 1 129110998.144 2     -2780.469          41.000                                                                  
S36  38980988.246 1 204846471.347 2       246.399          40.000  
C20  24944205.607 1 129891019.136 1     -2107.577          45.000                                                                  
C23  25688222.205 1 133765322.870 2     -2236.606          39.000                                                                  
C28  25324999.507 1 131873929.975 2      2544.120          39.000                                                                  
C19  24667104.040 1 128448091.996 2       625.366          43.000                                                                  
C11  27046054.578 4               6     -1291.390          31.000    27046044.537 1 108903204.100 2      -998.946          40.000  
R15  25253629.246 1 134947680.680 2     -3136.102          41.000                                                                  
R09  20908625.811 1 111650890.591 1      1563.480          47.000    20908614.866 4  86839539.07734      1215.938          40.000  
R17  23493155.769 1 125716638.126 1      -995.655          44.000    23493148.126 2  97779547.75823      -774.099          40.000  
R07  21066560.805 1 112770947.353 1        24.618          48.000    21066549.015 4  87710692.31623        19.128          38.000  
R16  21074124.724 1 112574202.682 2     -1643.675          41.000    21074123.852 4  87557700.72034     -1277.922          38.000  
G17  23106066.547 1 121423210.602 2      -196.059          41.000    23106058.565 1  94615451.263 2      -152.648          41.000  
G19  22687249.609 1 119222303.920 2      1925.456          42.000                                                                  
E24  26271126.943 1 138055689.277 2     -1825.794          40.000    26271123.556 1 105782928.042 1     -1398.938          47.000  
S23  39168232.511 1 205830450.816 2       245.078          40.000  
G23  24457885.085 1 128527053.791 2     -1182.937          42.000    24457876.571 1 100150919.840 4      -922.199          35.000  
C37  22892078.061 1 119205056.894 1      -227.069          44.000                                                                  
C10  40694297.520 4               7      -611.927          29.000    40694288.309 1 163859027.758 3      -473.337          38.000  
R18  22848359.681 1 121966109.961 1      2420.198          45.000    22848360.246 4  94862533.28423      1882.339          38.000  
R08  23448276.421 1 125564461.925 1      3493.846          43.000    23448280.600 8  97661259.73825      2717.480          35.000  
R06  22317731.134 2 119091689.761 3     -3604.668          37.000                                                                  
R10  24262157.264 8               6      3433.941          32.000                                                                  
E03  24923489.997 1 130973810.289 1      -338.807          44.000    24923486.407 1 100356548.953 1      -259.862          45.000  
E05  26772168.597 1 140688674.005 2     -2624.643          39.000    26772165.930 1 107800404.731 2     -2010.967          42.000  
G20  24788367.872 1 130263753.124 2     -1431.293          38.000                                                                  
E12  26890660.303 2               7      2004.659          31.000    26890650.346 1 108277502.672 2      1535.426          41.000  
G24  21368549.547 1 112292486.283 1      1482.836          44.000    21368542.606 1  87500610.545 2      1155.431          40.000  
E25  24398552.860 1 128215277.691 1       525.562          42.000    24398548.747 1  98242853.391 1       402.623          43.000  
E08  25221579.604 1 132540283.565 2      2328.918          40.000    25221574.726 1 101556837.698 1      1784.659          42.000  
E02  26886817.396 1 141291198.072 1      2496.709          43.000    26886813.720 1 108262057.504 1      1913.105          43.000  
G12  23246262.850 1 122159943.149 1      3370.983          46.000    23246254.237 2  95189527.996 4      2627.083          34.000  
E33                                                                  29260844.199 4               7      -139.404          28.000  
> 2021 03 11 09 57 21.0030000  0 37                     
G13  23029007.141 1 121018235.905 1     -2881.210          43.000                                                                  
G14  24925454.650 1 130984180.169 3     -3114.492          38.000    24925450.024 1 102065556.638 3     -2427.779          36.000  
G15  21884609.466 1 115004398.976 1     -1610.461          45.000    21884601.388 1  89613771.125 2     -1254.926          38.000  
G10  25059347.458 1 131687775.456 2       748.333          41.000    25059341.077 1 102613826.851 4       583.156          35.000  
G28  24569534.119 1 129113778.575 2     -2780.764          41.000                                                                  
S36  38980941.313 1 204846224.722 2       246.462          40.000  
C20  24944610.448 1 129893127.033 1     -2108.106          46.000                                                                  
C23  25688651.647 1 133767559.385 2     -2236.713          39.000                                                                  
C28  25324510.975 1 131871385.656 3      2543.972          38.000                                                                  
C19  24666983.904 1 128447466.646 1       625.031          43.000                                                                  
C11  27046301.583 8               7     -1292.917          32.000    27046292.646 1 108904203.159 2      -999.331          40.000  
R15  25254215.934 2 134950816.651 2     -3136.140          39.000                                                                  
R09  20908333.084 1 111649327.106 1      1563.142          45.000    20908324.136 8  86838331.52934      1215.869          41.000  
R17  23493342.027 1 125717633.951 1      -996.409          42.000    23493334.290 2  97780322.29423      -774.789          40.000  
R07  21066556.225 1 112770923.184 1        23.747          47.000    21066544.227 4  87710673.52924        18.424          38.000  
R16  21074432.350 2 112575846.100 2     -1643.416          40.000    21074432.550 4  87558982.94024     -1278.297          38.000  
G17  23106103.898 1 121423406.813 2      -196.473          41.000    23106095.860 1  94615604.166 2      -153.443          41.000  
G19  22686883.255 1 119220378.697 1      1924.839          42.000                                                                  
E24  26271474.396 1 138057515.026 2     -1825.868          40.000    26271470.944 1 105784326.999 1     -1399.078          47.000  
S23  39168185.784 1 205830205.317 2       245.449          40.000  
G23  24458110.279 1 128528236.887 2     -1183.591          42.000    24458101.607 2 100151841.715 4      -922.199          35.000  
C37  22892121.775 1 119205284.132 1      -227.498          44.000                                                                  
C10  40694415.236 4               6      -611.710          29.000    40694405.846 1 163859500.689 3      -472.529          38.000  
R18  22847906.291 1 121963690.040 1      2419.369          44.000    22847906.355 4  94860651.11823      1881.876          38.000  
R08  23447623.868 1 125560968.085 2      3493.216          42.000    23447627.835 8  97658542.29725      2717.420          35.000  
R06  22318406.705 2 119095294.666 3     -3604.965          35.000                                                                  
R10  24261514.689 8               6      3434.368          30.000                                                                  
E03  24923554.587 1 130974149.447 1      -339.489          44.000    24923551.016 1 100356808.812 1      -260.140          45.000  
E05  26772667.852 1 140691298.567 2     -2624.780          39.000    26772665.339 1 107802415.751 2     -2011.201          42.000  
G20  24788640.380 1 130265184.151 2     -1431.226          38.000                                                                  
E12  26890278.671 2               6      2004.169          31.000    26890268.876 1 108275967.141 2      1535.414          41.000  
G24  21368267.366 1 112291003.604 1      1482.476          44.000    21368260.495 1  87499455.225 2      1154.929          40.000  
E25  24398452.857 1 128214752.233 2       525.251          42.000    24398448.773 1  98242450.766 1       402.468          43.000  
E08  25221136.586 1 132537954.539 2      2328.906          40.000    25221131.607 1 101555053.124 1      1784.540          42.000  
E02  26886342.273 1 141288701.409 1      2496.562          42.000    26886338.712 1 108260144.473 1      1913.070          43.000  
G12  23245621.339 1 122156572.157 1      3370.617          46.000    23245612.784 1  95186901.270 4      2625.899          35.000  
E33                                                                  29260878.359 2               6      -139.619          28.000  
> 2021 03 11 09 57 22.0030000  0 37                     
G13  23029555.489 1 121021117.233 1     -2881.356          43.000                                                                  
G14  24926047.482 1 130987295.317 3     -3115.130          37.000    24926042.712 1 102067983.971 3     -2426.853          36.000  
G15  21884916.012 1 115006009.776 1     -1610.907          45.000    21884907.871 1  89615026.304 2     -1255.231          38.000  
G10  25059205.089 1 131687027.431 2       747.614          41.000    25059198.771 1 102613243.971 4       582.447          35.000  
G28  24570063.275 1 129116559.092 2     -2780.598          41.000                                                                  
S36  38980894.402 1 204845978.182 2       246.424          40.000  
C20  24945015.292 1 129895235.327 1     -2108.434          46.000                                                                  
C23  25689081.152 1 133769796.003 2     -2236.603          39.000                                                                  
C28  25324022.497 1 131868841.709 2      2543.605          38.000                                                                  
C19  24666864.023 1 128446841.880 1       624.591          43.000                                                                  
C11  27046548.805 4 140838481.40435     -1293.079          32.000    27046540.914 1 108905202.623 2      -999.726          40.000  
R15  25254802.749 2 134953952.587 2     -3135.736          39.000                                                                  
R09  20908040.253 1 111647764.054 1      1562.844          46.000    20908031.437 4  86837116.33724      1215.400          40.000  
R17  23493528.277 1 125718630.646 1      -997.206          42.000    23493520.668 2  97781097.51523      -775.557          40.000  
R07  21066551.845 1 112770899.951 1        22.887          47.000                                                                  
R16  21074740.082 2 112577489.849 2     -1643.899          40.000    21074739.178 4  87560261.43023     -1278.603          38.000  
G17  23106141.264 1 121423603.674 2      -196.998          41.000    23106133.254 1  94615757.557 2      -153.761          41.000  
G19  22686516.952 1 119218454.123 2      1924.470          42.000                                                                  
E24  26271821.820 1 138059340.916 2     -1825.826          41.000    26271818.459 1 105785726.051 1     -1398.959          47.000  
S23  39168139.063 1 205829959.856 2       245.264          40.000  
G23  24458335.455 1 128529420.528 2     -1183.987          42.000    24458326.844 2 100152764.041 4      -922.520          35.000  
C37  22892165.500 1 119205511.659 1      -227.712          44.000                                                                  
C10  40694533.157 4               6      -611.781          29.000    40694523.311 1 163859973.665 3      -473.003          38.000  
R18  22847453.102 1 121961270.874 1      2418.661          44.000    22847451.587 8  94858748.55035      1881.122          38.000  
R08  23446971.535 1 125557474.808 2      3493.194          42.000    23446974.911 4  97655821.81335      2716.940          35.000  
R06  22319082.270 2 119098900.054 3     -3605.358          36.000                                                                  
R10  24260870.078 8               6      3433.843          31.000                                                                  
E03  24923619.132 1 130974489.067 1      -339.625          44.000    24923615.586 1 100357069.042 1      -260.244          45.000  
E05  26773167.475 1 140693923.322 2     -2624.756          39.000    26773164.794 1 107804426.946 2     -2011.345          42.000  
G20  24788912.761 1 130266615.669 2     -1431.458          38.000                                                                  
E12  26889897.579 2               6      2003.923          32.000    26889887.547 1 108274431.895 2      1535.311          41.000  
G24  21367985.216 1 112289521.345 1      1482.228          44.000    21367978.450 1  87498300.213 2      1154.740          40.000  
E25  24398352.914 1 128214227.069 2       525.080          43.000    24398348.819 1  98242048.369 1       402.172          43.000  
E08  25220693.319 1 132535625.864 2      2328.536          40.000    25220688.487 1 101553268.816 1      1784.246          42.000  
E02  26885867.022 1 141286204.927 1      2496.486          43.000    26885863.690 1 108258231.593 2      1912.876          43.000  
G12  23244979.947 1 122153201.497 1      3370.535          46.000    23244971.491 1  95184274.758 4      2626.758          35.000  
E33                                                                  29260914.299 2               7      -139.986          28.000  
> 2021 03 11 09 57 23.0030000  0 37                     
G13  23030103.814 1 121023998.892 2     -2882.110          43.000                                                                  
G14  24926640.184 1 130990410.486 2     -3115.122          37.000    24926635.431 1 102070411.416 3     -2427.974          37.000  
G15  21885222.700 1 115007621.116 1     -1611.909          45.000    21885214.580 1  89616281.881 2     -1255.735          38.000  
G10  25059062.730 1 131686279.980 2       746.859          41.000    25059056.643 1 102612661.577 4       581.593          35.000  
G28  24570592.388 1 129119339.685 2     -2780.855          41.000                                                                  
S36  38980847.418 1 204845731.608 2       246.428          40.000  
C20  24945420.204 1 129897343.952 1     -2109.009          46.000                                                                  
C23  25689510.568 1 133772032.684 2     -2236.879          39.000                                                                  
C28  25323533.993 1 131866298.087 2      2543.131          38.000                                                                  
C19  24666744.120 1 128446217.667 1       623.627          43.000                                                                  
C11  27046797.357 4 140839774.40325     -1293.995          33.000    27046789.278 1 108906202.418 2      -999.927          40.000  
R15  25255389.526 2 134957088.468 2     -3135.967          40.000                                                                  
R09  20907747.607 1 111646201.356 1      1562.234          47.000    20907717.159 9  86835810.39535      1215.089          40.000  
R17  23493714.700 1 125719628.181 1      -998.162          44.000    23493709.303 4  97781898.36734      -776.476          40.000  
R07  21066547.668 1 112770877.592 1        21.668          49.000    21066538.626 9               7        17.066          37.000  
R16  21075047.962 2 112579133.844 2     -1644.141          41.000    21075045.094 9               6     -1279.148          38.000  
G17  23106178.844 1 121423801.144 2      -198.144          41.000    23106170.905 1  94615911.430 2      -154.560          41.000  
G19  22686150.835 1 119216530.151 2      1923.554          42.000                                                                  
E24  26272169.167 1 138061166.888 2     -1826.198          40.000    26272165.856 1 105787125.173 1     -1399.351          47.000  
S23  39168092.369 1 205829714.346 2       245.297          40.000  
G23  24458560.761 1 128530604.670 1     -1184.469          42.000    24458552.098 1 100153686.731 3      -922.876          35.000  
C37  22892209.264 1 119205739.430 1      -228.126          44.000                                                                  
C10  40694646.973 8               6      -611.697          29.000    40694640.726 1 163860446.582 2      -472.716          38.000  
R18  22847000.051 1 121958852.404 1      2417.867          46.000    22846999.005 4  94856869.00524      1880.750          37.000  
R08  23446319.343 1 125553982.091 2      3492.226          43.000    23446320.803 4  97653105.29025      2715.725          35.000  
R06  22319758.011 2 119102505.854 3     -3605.821          37.000                                                                  
R10  24260226.965 8 129320664.22115      3433.550          33.000                                                                  
E03  24923683.895 1 130974829.120 1      -340.331          44.000    24923680.449 1 100357329.608 1      -260.908          45.000  
E05  26773666.978 1 140696548.277 2     -2625.285          38.000    26773664.367 1 107806438.246 1     -2011.570          42.000  
G20  24789185.304 1 130268047.634 2     -1432.379          38.000                                                                  
E12  26889516.277 4               6      2002.682          31.000    26889506.352 1 108272896.901 2      1534.642          41.000  
G24  21367703.194 1 112288039.455 1      1481.566          44.000    21367696.477 1  87497145.487 2      1154.410          40.000  
E25  24398253.059 1 128213702.155 1       524.431          42.000    24398248.978 1  98241646.151 1       401.789          43.000  
E08  25220250.326 1 132533297.448 2      2328.327          40.000    25220245.417 1 101551484.710 1      1783.849          42.000  
E02  26885392.083 1 141283708.588 2      2496.073          42.000    26885388.632 1 108256318.819 1      1912.571          43.000  
G12  23244338.618 1 122149831.140 1      3370.016          46.000    23244330.180 2  95181648.525 4      2625.678          35.000  
E33                                                                  29260948.574 4               6      -140.128          29.000  
> 2021 03 11 09 57 24.0030000  0 37                     
G13  23030652.154 1 121026880.854 2     -2882.142          43.000                                                                  
G14  24927232.977 1 130993525.704 3     -3115.019          38.000    24927228.262 1 102072838.857 3     -2427.764          37.000  
G15  21885529.519 1 115009233.000 1     -1612.201          45.000    21885521.289 1  89617537.898 2     -1256.294          38.000  
G10  25058920.695 1 131685533.108 2       746.793          41.000    25058914.466 1 102612079.563 3       582.142          35.000  
G28  24571121.507 1 129122120.323 2     -2780.635          41.000                                                                  
S36  38980800.533 1 204845485.005 2       246.609          40.000  
C20  24945825.222 1 129899452.915 1     -2109.065          46.000                                                                  
C23  25689940.064 1 133774269.433 2     -2236.616          39.000                                                                  
C28  25323045.581 1 131863754.777 2      2543.076          38.000                                                                  
C19  24666624.275 1 128445593.960 1       623.450          43.000                                                                  
C11  27047045.448 4 140841067.83225     -1293.779          33.000    27047037.681 1 108907202.587 2     -1000.203          40.000  
R15  25255976.288 1 134960224.253 2     -3136.063          41.000                                                                  
R09  20907455.044 1 111644639.003 1      1562.096          47.000    20907433.708 9  86834595.23723      1214.800          41.000  
R17  23493901.376 1 125720626.562 1      -998.936          44.000    23493888.833 9               6      -776.802          41.000  
R07  21066543.664 1 112770856.115 1        20.999          49.000    21066534.360 9  87710629.35634        16.548          38.000  
R16  21075355.808 1 112580778.092 2     -1644.299          42.000    21075354.130 9  87562806.43834     -1279.059          38.000  
G17  23106216.475 1 121423999.194 2      -198.583          41.000    23106208.649 1  94616065.743 2      -154.602          41.000  
G19  22685784.752 1 119214606.780 2      1923.100          43.000                                                                  
E24  26272516.398 1 138062992.946 2     -1826.254          40.000    26272513.505 1 105788524.354 1     -1399.239          47.000  
S23  39168045.634 1 205829468.788 2       245.624          40.000  
G23  24458786.090 1 128531789.339 2     -1185.117          42.000    24458777.522 1 100154609.834 4      -923.089          35.000  
C37  22892253.074 1 119205967.422 1      -228.120          44.000                                                                  
C10  40694761.585 8               6      -611.167          30.000    40694758.114 1 163860919.489 3      -473.206          38.000  
R18  22846547.127 1 121956434.612 1      2417.500          46.000    22846545.293 4  94854988.51923      1880.424          38.000  
R08  23445667.110 1 125550489.885 2      3492.105          43.000    23445668.826 4  97650382.09035      2716.177          36.000  
R06  22320433.981 2 119106112.086 3     -3606.613          38.000                                                                  
R10  24259582.487 4               6      3433.266          33.000                                                                  
E03  24923748.591 1 130975169.606 1      -340.754          44.000    24923745.195 1 100357590.496 1      -261.178          45.000  
E05  26774166.582 1 140699173.364 3     -2625.209          39.000    26774163.833 1 107808449.694 1     -2011.550          42.000  
G20  24789457.943 1 130269479.997 3     -1432.288          38.000                                                                  
E12  26889134.871 2               6      2002.661          31.000    26889125.133 1 108271362.156 2      1534.503          41.000  
G24  21367421.294 1 112286557.917 1      1481.531          44.000    21367414.554 1  87495991.049 2      1154.135          40.000  
E25  24398153.181 1 128213177.468 2       524.445          42.000    24398149.174 1  98241244.114 1       402.007          43.000  
E08  25219807.278 1 132530969.326 2      2328.059          40.000    25219802.294 1 101549700.825 1      1783.760          42.000  
E02  26884916.902 1 141281212.381 2      2495.957          42.000    26884913.555 1 108254406.149 1      1912.581          43.000  
G12  23243697.263 1 122146461.068 1      3369.835          46.000    23243688.812 1  95179022.486 3      2626.105          35.000  
E33                                                                  29260983.426 4               6      -140.844          29.000  
> 2021 03 11 09 57 25.0030000  0 37                     
G13  23031200.532 1 121029763.016 2     -2882.313          43.000                                                                  
G14  24927825.899 1 130996640.846 3     -3114.986          38.000    24927820.979 1 102075266.211 3     -2427.113          37.000  
G15  21885836.355 1 115010845.247 1     -1612.271          45.000    21885828.046 1  89618794.206 2     -1256.405          38.000  
G10  25058778.629 1 131684786.709 2       746.180          41.000    25058772.413 1 102611497.952 4       581.454          35.000  
G28  24571650.628 1 129124900.884 2     -2780.982          41.000                                                                  
S36  38980753.539 1 204845238.232 2       246.881          40.000  
C20  24946230.370 1 129901562.079 1     -2109.201          46.000                                                                  
C23  25690369.623 1 133776506.113 3     -2236.812          39.000                                                                  
C28  25322557.215 1 131861211.633 3      2543.151          38.000                                                                  
C19  24666504.621 1 128444970.659 1       622.961          43.000                                                                  
C11  27047295.119 4 140842361.59825     -1293.801          33.000    27047286.176 1 108908203.023 2     -1000.574          40.000  
R15  25256563.067 1 134963359.814 2     -3135.678          41.000                                                                  
R09  20907162.555 1 111643076.844 1      1562.128          47.000    20907148.986 9  86833451.22934      1214.827          42.000  
R17  23494088.083 1 125721625.590 1      -999.385          45.000    23494080.175 9  97783422.41433      -777.384          43.000  
R07  21066539.875 1 112770835.416 1        20.253          49.000    21066529.215 9  87710606.27934        15.766          40.000  
R16  21075663.677 1 112582422.464 2     -1644.304          42.000    21075661.935 9  87564090.40534     -1279.124          40.000  
G17  23106254.239 1 121424197.682 2      -199.004          41.000    23106246.540 1  94616220.411 2      -154.982          41.000  
G19  22685418.880 1 119212683.836 2      1922.730          42.000                                                                  
E24  26272863.802 1 138064818.918 2     -1825.844          40.000    26272860.917 1 105789923.486 1     -1399.070          47.000  
S23  39167998.889 1 205829223.039 2       245.865          40.000  
G23  24459011.634 1 128532974.315 2     -1185.121          42.000    24459003.045 2 100155533.208 4      -923.147          35.000  
C37  22892296.814 1 119206195.510 1      -228.069          44.000                                                                  
C10  40694884.630 4               6      -611.273          29.000    40694875.510 1 163861392.264 3      -472.859          38.000  
R18  22846094.336 1 121954017.372 1      2416.891          46.000    22846093.628 4  94853107.95113      1879.840          40.000  
R08  23445015.107 1 125546998.059 2      3491.635          43.000    23445079.023 9               6      2715.722          37.000  
R06  22321109.897 2 119109718.500 3     -3606.548          38.000                                                                  
R10  24258938.622 4 129313796.815 5      3434.008          33.000                                                                  
E03  24923813.211 1 130975510.358 1      -340.732          44.000    24923810.054 1 100357851.595 1      -261.227          45.000  
E05  26774666.114 1 140701798.478 2     -2624.962          39.000    26774663.324 1 107810461.132 1     -2011.322          42.000  
G20  24789730.581 1 130270912.674 3     -1432.788          38.000                                                                  
E12  26888753.630 2               6      2002.428          31.000    26888744.098 1 108269827.520 2      1534.563          41.000  
G24  21367139.410 1 112285076.589 1      1481.256          44.000    21367132.674 1  87494836.772 2      1153.964          40.000  
E25  24398053.398 1 128212652.873 1       524.791          42.000    24398049.353 1  98240842.163 1       401.970          43.000  
E08  25219364.227 1 132528641.332 2      2328.073          40.000    25219359.281 1 101547917.045 2      1783.655          42.000  
E02  26884441.974 1 141278716.161 2      2496.185          42.000    26884438.631 1 108252493.450 1      1912.816          43.000  
G12  23243056.011 1 122143091.139 1      3369.776          46.000    23243047.569 1  95176396.579 3      2625.669          35.000  
E33                                                                  29261018.021 2               6      -141.110          29.000  
> 2021 03 11 09 57 26.0030000  0 37                     
G13  23031749.064 1 121032645.495 2     -2882.513          43.000                                                                  
G14  24928418.755 1 130999756.053 2     -3115.519          38.000    24928413.769 1 102077693.648 3     -2427.652          37.000  
G15  21886143.242 1 115012458.065 1     -1613.360          45.000    21886134.940 1  89620050.944 3     -1257.196          38.000  
G10  25058636.655 1 131684040.897 2       745.120          41.000    25058630.480 1 102610916.796 4       580.842          35.000  
G28  24572179.797 1 129127681.496 2     -2780.774          41.000                                                                  
S36  38980706.574 1 204844991.387 2       246.640          40.000  
C20  24946635.518 1 129903671.596 1     -2109.753          46.000                                                                  
C23  25690799.076 1 133778742.822 2     -2236.784          39.000                                                                  
C28  25322068.944 1 131858668.829 2      2542.719          38.000                                                                  
C19  24666385.049 1 128444347.897 1       622.552          43.000                                                                  
C11  27047544.043 2 140843655.85225     -1294.504          33.000    27047534.760 1 108909203.798 2     -1000.757          40.000  
R15  25257149.851 2 134966495.318 2     -3135.547          39.000                                                                  
R09  20906870.060 1 111641515.067 1      1561.485          46.000    20906860.683 8  86832236.48923      1214.710          42.000  
R17  23494275.019 1 125722625.418 2     -1000.415          43.000    23494270.040 9  97784200.05723      -777.843          42.000  
R07  21066536.206 1 112770815.647 1        19.162          48.000    21066524.932 8  87710590.90323        14.955          39.000  
R16  21075971.598 2 112584067.168 2     -1644.853          40.000    21075970.898 8  87565369.61023     -1279.411          38.000  
G17  23106292.134 1 121424396.769 2      -199.637          41.000    23106284.485 1  94616375.552 2      -155.571          41.000  
G19  22685053.063 1 119210761.518 2      1921.996          42.000                                                                  
E24  26273211.292 1 138066645.012 2     -1826.140          40.000    26273208.502 1 105791322.691 1     -1399.283          47.000  
S23  39167952.111 1 205828977.297 2       245.717          40.000  
G23  24459237.151 1 128534159.847 2     -1186.000          42.000    24459228.588 1 100156456.996 4      -924.086          35.000  
C37  22892340.541 1 119206423.858 1      -228.549          44.000                                                                  
C10  40695001.640 4               6      -611.512          29.000    40694992.906 1 163861864.986 2      -472.952          38.000  
R18  22845641.641 1 121951600.824 1      2416.133          45.000    22845638.324 4  94851228.413 3      1879.026          38.000  
R08  23444363.073 1 125543506.769 2      3491.010          41.000    23444414.832 9  97645209.81235      2715.036          34.000  
R06  22321785.861 2 119113325.343 3     -3606.842          36.000                                                                  
R10  24258294.658 2 129310363.215 5      3433.628          31.000                                                                  
E03  24923878.136 1 130975851.562 1      -341.565          44.000    24923874.950 1 100358113.028 1      -261.703          45.000  
E05  26775165.706 1 140704423.774 2     -2625.646          39.000    26775162.926 1 107812472.728 1     -2011.927          42.000  
G20  24790003.244 1 130272345.778 3     -1433.386          38.000                                                                  
E12  26888372.668 2               7      2001.524          31.000    26888362.954 1 108268293.139 2      1534.336          41.000  
G24  21366857.494 1 112283595.621 1      1480.763          44.000    21366850.786 1  87493682.754 2      1153.856          40.000  
E25  24397953.630 1 128212128.541 2       524.176          42.000    24397949.653 1  98240440.407 1       401.625          43.000  
E08  25218921.213 1 132526313.621 2      2327.363          40.000    25218916.365 1 101546133.461 2      1783.453          42.000  
E02  26883966.894 1 141276220.075 2      2495.912          42.000    26883963.663 1 108250580.875 1      1912.426          43.000  
G12  23242414.703 1 122139721.514 1      3369.274          46.000    23242406.307 1  95173770.891 4      2625.796          35.000  
E33                                                                  29261052.823 4               6      -141.957          29.000  
> 2021 03 11 09 57 27.0030000  0 37                     
G13  23032297.707 1 121035528.363 1     -2883.003          43.000                                                                  
G14  24929011.642 1 131002871.344 2     -3115.552          38.000    24929006.583 1 102080121.143 3     -2427.793          36.000  
G15  21886450.305 1 115014071.449 1     -1613.687          45.000    21886441.985 1  89621308.120 3     -1257.406          38.000  
G10  25058494.880 1 131683295.721 2       744.844          41.000    25058488.741 2 102610336.185 4       580.048          35.000  
G28  24572709.017 1 129130462.213 2     -2780.670          41.000                                                                  
S36  38980659.563 1 204844744.518 2       247.073          40.000  
C20  24947040.827 1 129905781.497 1     -2110.108          46.000                                                                  
C23  25691228.555 1 133780979.651 2     -2236.672          39.000                                                                  
C28  25321580.735 1 131856126.373 2      2542.439          39.000                                                                  
C19  24666265.695 1 128443725.726 1       621.741          43.000                                                                  
C11  27047792.556 2 140844950.08915     -1294.791          33.000    27047783.461 1 108910204.994 2     -1001.470          40.000  
R15  25257736.492 2 134969630.789 2     -3135.687          40.000                                                                  
R09  20906577.631 1 111639953.709 1      1561.046          46.000    20906570.595 8  86831022.10922      1214.007          42.000  
R17  23494462.027 1 125723626.092 2     -1001.087          43.000    23494439.430 9               6      -778.735          41.000  
R07  21066532.756 1 112770796.830 1        18.330          48.000    21066520.656 8  87710570.26734        14.339          38.000  
R16  21076279.449 2 112585712.203 2     -1645.327          40.000    21076275.827 8  87566641.10034     -1279.946          38.000  
G17  23106330.037 1 121424596.502 2      -200.198          41.000    23106322.490 1  94616531.179 2      -155.776          41.000  
G19  22684687.373 1 119208839.854 2      1921.207          42.000                                                                  
E24  26273558.844 1 138068471.214 2     -1826.096          40.000    26273556.037 1 105792722.006 1     -1399.347          47.000  
S23  39167905.402 1 205828731.574 2       245.633          40.000  
G23  24459462.824 1 128535345.914 2     -1186.459          42.000    24459454.242 1 100157381.216 3      -924.778          35.000  
C37  22892384.419 1 119206652.476 1      -228.719          44.000                                                                  
C10  40695119.938 4               6      -611.173          29.000    40695110.317 1 163862337.733 3      -472.940          38.000  
R18  22845189.094 1 121949185.029 1      2415.424          45.000    22845185.946 4  94849341.97934      1878.494          38.000  
R08  23443711.238 1 125540016.088 2      3490.215          42.000    23443751.176 9  97642394.82735      2714.370          35.000  
R06  22322461.966 2 119116932.677 3     -3607.608          36.000                                                                  
R10  24257650.602 2 129306929.813 5      3433.065          33.000                                                                  
E03  24923943.159 1 130976193.235 1      -341.927          44.000    24923940.030 1 100358374.827 1      -261.929          45.000  
E05  26775665.349 1 140707049.278 2     -2625.672          38.000    26775662.621 1 107814484.471 1     -2011.848          42.000  
G20  24790276.081 1 130273779.368 2     -1433.978          38.000                                                                  
E12  26887991.482 2               7      2001.924          30.000    26887981.985 1 108266759.042 2      1534.027          41.000  
G24  21366575.762 1 112282115.057 1      1480.277          44.000    21366568.994 1  87492529.082 2      1153.471          40.000  
E25  24397853.874 1 128211604.512 2       523.778          42.000    24397849.800 1  98240038.868 2       401.467          43.000  
E08  25218478.324 1 132523986.234 2      2327.176          40.000    25218473.509 1 101544350.142 1      1783.303          42.000  
E02  26883491.897 1 141273724.179 2      2495.797          42.000    26883488.618 1 108248668.435 1      1912.496          43.000  
G12  23241773.585 1 122136352.231 1      3369.106          46.000    23241765.133 1  95171145.472 4      2625.470          35.000  
E33                                                                  29261088.413 4               7      -142.002          29.000  
> 2021 03 11 09 57 28.0030000  0 37                     
G13  23032846.259 1 121038411.612 2     -2883.196          43.000                                                                  
G14  24929604.559 1 131005986.773 3     -3115.466          38.000    24929599.295 1 102082548.719 3     -2427.190          37.000  
G15  21886757.381 1 115015685.446 1     -1614.248          45.000    21886749.207 1  89622565.770 2     -1257.830          38.000  
G10  25058353.223 1 131682551.207 2       744.321          41.000    25058347.100 2 102609756.031 4       579.500          35.000  
G28  24573238.275 1 129133243.065 2     -2780.928          41.000                                                                  
S36  38980612.676 1 204844497.693 2       246.587          40.000  
C20  24947446.120 1 129907891.817 1     -2110.326          46.000                                                                  
C23  25691658.125 1 133783216.636 2     -2236.782          38.000                                                                  
C28  25321092.636 1 131853584.336 2      2542.002          38.000                                                                  
C19  24666146.415 1 128443104.156 1       621.283          43.000                                                                  
C11  27048041.379 2 140846245.388 5     -1295.913          33.000    27048032.247 1 108911206.591 2     -1001.972          40.000  
R15  25258323.253 2 134972766.203 2     -3135.349          42.000                                                                  
R09  20906285.269 1 111638392.765 1      1560.762          47.000    20906280.081 4  86829808.04322      1213.967          41.000  
R17  23494649.163 1 125724627.672 1     -1002.229          44.000    23494635.055 9  97785715.86733      -779.228          40.000  
R07  21066529.341 1 112770778.968 1        17.405          49.000    21066518.294 4  87710556.37724        13.576          38.000  
R16  21076587.433 1 112587357.552 2     -1645.565          41.000    21076585.380 4  87567920.81023     -1279.858          38.000  
G17  23106368.150 1 121424796.896 2      -200.701          40.000    23106360.637 1  94616687.343 2      -156.507          41.000  
G19  22684321.916 1 119206918.844 2      1920.603          42.000                                                                  
E24  26273906.364 1 138070297.594 2     -1826.455          40.000    26273903.527 1 105794121.424 1     -1399.348          47.000  
S23  39167858.726 1 205828485.882 2       245.961          40.000  
G23  24459688.638 1 128536532.536 2     -1186.761          42.000    24459680.024 2 100158305.852 4      -925.070          35.000  
C37  22892428.293 1 119206881.412 1      -228.994          44.000                                                                  
C10  40695237.608 4               6      -611.704          29.000    40695227.722 1 163862810.487 3      -472.479          38.000  
R18  22844736.716 1 121946770.039 1      2414.609          46.000    22844733.670 4  94847463.62934      1878.119          37.000  
R08  23443059.355 1 125536525.985 2      3489.724          43.000    23443089.623 9  97639680.27925      2714.682          34.000  
R06  22323138.122 2 119120540.480 2     -3607.887          37.000                                                                  
R10  24257006.516 2 129303496.575 5      3432.942          34.000                                                                  
E03  24924008.253 1 130976535.407 1      -342.460          44.000    24924005.181 1 100358637.013 1      -262.409          45.000  
E05  26776164.688 1 140709675.006 2     -2625.676          38.000    26776162.243 1 107816496.405 2     -2012.079          42.000  
G20  24790549.111 1 130275213.443 2     -1434.399          38.000                                                                  
E12  26887610.175 4               7      2001.567          30.000    26887601.069 1 108265225.259 2      1533.486          41.000  
G24  21366294.010 1 112280634.924 1      1479.882          44.000    21366287.264 1  87491375.722 2      1153.325          40.000  
E25  24397754.163 1 128211080.784 1       523.630          42.000    24397750.071 1  98239637.566 1       401.344          43.000  
E08  25218035.376 1 132521659.197 2      2326.877          40.000    25218030.676 1 101542567.097 1      1782.727          42.000  
E02  26883016.932 1 141271228.486 1      2495.596          42.000    26883013.709 1 108246756.156 1      1912.328          43.000  
G12  23241132.526 1 122132983.323 1      3368.684          46.000    23241124.071 1  95168520.323 4      2625.443          35.000  
E33                                                                  29261123.485 2               6      -142.776          29.000  
> 2021 03 11 09 57 29.0030000  0 37                     
G13  23033395.006 1 121041295.275 1     -2883.692          43.000                                                                  
G14  24930197.500 1 131009102.327 2     -3115.314          38.000    24930192.055 1 102084976.452 3     -2427.522          36.000  
G15  21887064.600 1 115017300.071 1     -1614.699          45.000    21887056.554 1  89623823.928 2     -1258.427          38.000  
G10  25058211.654 1 131681807.385 2       743.574          41.000    25058205.613 1 102609176.432 3       579.189          35.000  
G28  24573767.558 1 129136024.071 2     -2780.939          41.000                                                                  
S36  38980565.660 1 204844250.848 2       246.980          40.000  
C20  24947851.505 1 129910002.573 1     -2110.922          46.000                                                                  
C23  25692087.730 1 133785453.757 2     -2237.021          39.000                                                                  
C28  25320604.583 1 131851042.692 2      2541.963          38.000                                                                  
C19  24666027.165 1 128442483.226 1       620.587          43.000                                                                  
C11  27048290.219 2 140847541.230 5     -1296.112          33.000    27048281.087 1 108912208.605 2     -1002.146          40.000  
R15  25258909.968 1 134975901.651 2     -3135.414          42.000                                                                  
R09  20905993.068 1 111636832.291 1      1560.455          47.000    20905988.329 4  86828594.34222      1213.690          41.000  
R17  23494836.603 1 125725630.180 1     -1002.976          45.000    23494825.889 9  97786495.60323      -779.921          40.000  
R07  21066526.055 1 112770762.056 1        16.668          49.000    21066514.010 4  87710543.23434        13.026          38.000  
R16  21076895.526 1 112589003.256 2     -1645.622          41.000    21076893.091 4  87569206.25634     -1279.662          38.000  
G17  23106406.321 1 121424997.983 2      -201.100          40.000    23106398.896 1  94616844.039 2      -157.104          41.000  
G19  22683956.477 1 119204998.522 2      1920.064          43.000                                                                  
E24  26274253.809 1 138072124.140 2     -1826.360          40.000    26274251.193 1 105795520.987 1     -1399.397          47.000  
S23  39167811.939 1 205828240.271 2       245.876          40.000  
G23  24459914.531 1 128537719.782 2     -1187.441          42.000    24459906.053 1 100159230.978 3      -925.199          35.000  
C37  22892472.190 1 119207110.690 1      -229.301          44.000                                                                  
C10  40695353.606 4 211911373.30415      -611.130          29.000    40695345.092 1 163863283.309 2      -472.489          38.000  
R18  22844284.506 1 121944355.868 1      2413.970          47.000    22844283.326 4  94845593.96023      1877.598          37.000  
R08  23442407.813 1 125533036.521 2      3489.354          43.000    23442428.246 8  97636885.26135      2713.500          34.000  
R06  22323814.299 2 119124148.789 3     -3608.290          37.000                                                                  
R10  24256362.483 2 129300063.524 5      3433.551          34.000                                                                  
E03  24924073.406 1 130976878.101 1      -342.928          44.000    24924070.345 1 100358899.588 1      -262.539          45.000  
E05  26776664.279 1 140712301.012 2     -2626.157          38.000    26776661.930 1 107818508.530 2     -2012.056          42.000  
G20  24790822.147 1 130276648.046 2     -1434.668          38.000                                                                  
E12  26887229.500 2               6      2001.998          30.000    26887220.242 1 108263691.768 2      1533.469          41.000  
G24  21366012.483 1 112279155.249 1      1479.589          44.000    21366005.693 1  87490222.729 2      1153.163          40.000  
E25  24397654.514 1 128210557.403 1       523.358          42.000    24397650.601 1  98239236.534 2       401.062          43.000  
E08  25217592.642 1 132519332.532 2      2326.705          40.000    25217587.754 1 101540784.317 1      1782.837          42.000  
E02  26882541.940 1 141268733.038 1      2495.440          42.000    26882538.910 1 108244844.062 1      1912.118          43.000  
G12  23240491.481 1 122129614.785 1      3368.576          46.000    23240483.127 2  95165895.553 3      2624.173          35.000  
E33                                                                  29261157.159 2               6      -142.344          29.000  
> 2021 03 11 09 57 30.0030000  0 37                     
G13  23033943.812 1 121044179.130 1     -2884.030          43.000                                                                  
G14  24930790.437 1 131012217.835 2     -3115.475          38.000    24930784.985 1 102087404.096 4     -2427.383          36.000  
G15  21887371.870 1 115018915.114 1     -1615.276          45.000    21887363.997 1  89625082.398 3     -1258.846          37.000  
G10  25058070.205 1 131681064.030 2       743.082          41.000    25058064.156 1 102608597.130 4       579.981          35.000  
G28  24574296.756 1 129138805.016 2     -2781.100          41.000                                                                  
S36  38980518.587 1 204844003.867 2       246.969          40.000  
C20  24948256.885 1 129912113.537 1     -2111.107          46.000                                                                  
C23  25692517.221 1 133787690.816 2     -2237.018          39.000                                                                  
C28  25320116.624 1 131848501.267 2      2541.229          38.000                                                                  
C19  24665908.115 1 128441862.674 1       620.551          43.000                                                                  
C11  27048539.221 2 140848837.413 5     -1296.437          33.000    27048530.037 1 108913210.887 2     -1002.302          41.000  
R15  25259496.755 1 134979036.890 2     -3135.128          42.000    25259480.658 8               7     -2439.506          30.000  
R09  20905700.825 1 111635272.042 1      1560.119          47.000    20905696.186 4  86827380.81522      1213.352          42.000  
R17  23495024.130 1 125726633.377 1     -1003.619          44.000    23495015.378 4  97787275.87722      -780.649          41.000  
R07  21066523.103 1 112770745.896 1        15.793          49.000    21066511.576 4  87710530.66423        12.229          39.000  
R16  21077203.716 1 112590649.107 2     -1645.899          41.000    21077200.838 4  87570486.40123     -1280.233          38.000  
G17  23106444.712 1 121425199.548 2      -201.928          40.000    23106437.349 1  94617001.087 2      -157.238          41.000  
G19  22683591.094 1 119203078.689 2      1919.268          42.000                                                                  
E24  26274601.217 1 138073950.660 2     -1826.685          40.000    26274598.891 1 105796920.524 1     -1399.569          47.000  
S23  39167765.190 1 205827994.523 2       245.668          40.000  
G23  24460140.500 1 128538907.385 2     -1187.813          42.000    24460132.041 1 100160156.373 4      -925.694          35.000  
C37  22892516.214 1 119207340.074 1      -229.344          43.000                                                                  
C10  40695470.593 4               6      -611.643          30.000    40695462.476 1 163863756.029 2      -472.973          38.000  
R18  22843832.416 1 121941942.278 1      2413.343          46.000    22843831.488 4  94843716.73623      1876.636          38.000  
R08  23441756.325 1 125529547.466 2      3488.886          43.000    23441767.404 8  97634171.52525      2714.236          35.000  
R06  22324490.633 2 119127757.396 3     -3608.518          38.000                                                                  
R10  24255718.443 2 129296630.509 5      3432.929          34.000                                                                  
E03  24924138.715 1 130977221.083 1      -343.106          44.000    24924135.701 1 100359162.402 1      -262.957          45.000  
E05  26777164.204 1 140714927.059 3     -2626.199          38.000    26777161.730 1 107820520.689 1     -2012.270          42.000  
G20  24791095.242 1 130278082.957 2     -1435.217          38.000                                                                  
E12  26886848.533 2               6      2000.870          30.000    26886839.403 1 108262158.436 2      1533.177          41.000  
G24  21365731.007 1 112277675.797 1      1479.339          44.000    21365724.108 1  87489069.904 2      1153.147          40.000  
E25  24397554.784 1 128210034.140 1       523.008          42.000    24397551.008 1  98238835.601 1       400.812          43.000  
E08  25217150.113 1 132517006.017 2      2326.448          40.000    25217144.978 1 101539001.662 2      1782.678          42.000  
E02  26882067.015 1 141266237.584 2      2495.328          42.000    26882064.056 1 108242931.964 1      1912.006          43.000  
G12  23239850.400 1 122126246.427 1      3368.043          46.000    23239842.107 1  95163270.810 3      2624.873          35.000  
E33                                                                  29261193.788 2               6      -142.758          29.000  
> 2021 03 11 09 57 31.0030000  0 37                     
G13  23034492.750 1 121047063.273 2     -2884.116          43.000                                                                  
G14  24931383.324 1 131015333.369 2     -3115.257          38.000    24931377.807 1 102089831.799 4     -2427.024          36.000  
G15  21887679.219 1 115020530.647 1     -1615.395          45.000    21887671.413 1  89626341.266 3     -1258.976          37.000  
G10  25057928.876 1 131680321.237 2       742.668          42.000    25057922.859 1 102608018.369 3       578.629          35.000  
G28  24574826.021 1 129141585.971 2     -2780.816          41.000                                                                  
S36  38980471.596 1 204843756.807 2       247.241          40.000  
C20  24948662.340 1 129914224.825 1     -2111.344          46.000                                                                  
C23  25692946.778 1 133789927.920 2     -2237.078          39.000                                                                  
C28  25319628.720 1 131845960.121 2      2541.240          38.000                                                                  
C19  24665789.089 1 128441242.667 1       619.849          43.000                                                                  
C11  27048788.257 2 140850134.002 5     -1296.648          33.000    27048779.041 1 108914213.510 2     -1002.479          41.000  
R15  25260083.476 2 134982172.057 2     -3134.885          40.000                                                                  
R09  20905408.738 1 111633712.138 1      1559.854          45.000    20905404.561 4  86826167.544 3      1213.600          42.000  
R17  23495211.869 1 125727637.353 1     -1003.994          43.000    23495203.782 4  97788056.75122      -780.958          40.000  
R07  21066520.360 1 112770730.622 1        15.097          47.000    21066508.814 4  87710518.79023        11.844          38.000  
R16  21077511.872 1 112592295.226 2     -1646.180          40.000    21077509.383 4  87571766.71634     -1280.297          39.000  
G17  23106483.057 1 121425401.669 2      -202.117          40.000    23106475.796 1  94617158.579 2      -157.405          41.000  
G19  22683225.760 1 119201159.415 2      1919.178          43.000                                                                  
E24  26274948.912 1 138075777.229 2     -1826.377          40.000    26274946.487 1 105798320.107 1     -1399.492          47.000  
S23  39167718.436 1 205827748.688 2       246.188          40.000  
G23  24460366.530 1 128540095.466 2     -1187.856          42.000    24460358.116 1 100161082.160 4      -925.897          35.000  
C37  22892560.276 1 119207569.676 1      -229.500          44.000                                                                  
C10  40695586.699 8               7      -611.004          30.000    40695579.889 1 163864228.667 2      -472.173          38.000  
R18  22843380.559 1 121939529.359 1      2412.930          45.000    22843378.295 4  94841840.00223      1876.864          39.000  
R08  23441104.971 1 125526058.929 2      3488.551          42.000    23441111.953 8  97631403.24135      2713.225          35.000  
R06  22325166.990 2 119131366.405 3     -3609.407          36.000                                                                  
R10  24255074.348 2 129293197.549 5      3433.344          32.000                                                                  
E03  24924203.922 1 130977564.489 1      -343.455          44.000    24924200.958 1 100359425.538 1      -263.264          45.000  
E05  26777663.981 1 140717553.228 2     -2626.032          38.000    26777661.301 1 107822532.961 1     -2012.315          42.000  
G20  24791368.418 1 130279518.259 2     -1435.297          38.000                                                                  
E12  26886467.615 4               7      2001.372          30.000    26886458.560 1 108260625.307 2      1533.187          41.000  
G24  21365449.504 1 112276196.685 1      1479.047          44.000    21365442.623 1  87487917.382 2      1152.251          40.000  
E25  24397455.227 1 128209511.082 2       523.310          42.000    24397451.542 1  98238434.825 1       400.745          43.000  
E08  25216707.497 1 132514679.788 2      2325.864          40.000    25216702.362 1 101537219.210 1      1782.660          42.000  
E02  26881591.965 1 141263742.241 2      2495.477          42.000    26881589.197 1 108241019.952 1      1912.088          43.000  
G12  23239209.513 1 122122878.327 1      3368.249          46.000    23239201.223 1  95160646.336 4      2624.603          35.000  
E33                                                                  29261228.687 2               6      -143.242          29.000  
> 2021 03 11 09 57 32.0030000  0 37                     
G13  23035041.708 1 121049947.764 1     -2885.128          43.000                                                                  
G14  24931976.238 1 131018449.005 3     -3116.177          38.000    24931970.623 1 102092259.531 4     -2427.545          36.000  
G15  21887986.792 1 115022146.772 1     -1616.957          45.000    21887978.989 1  89627600.569 3     -1259.997          37.000  
G10  25057787.692 1 131679579.060 2       741.318          42.000    25057781.669 2 102607440.021 4       578.630          35.000  
G28  24575355.200 1 129144367.016 2     -2781.261          41.000                                                                  
S36  38980424.539 1 204843509.683 2       246.648          40.000  
C20  24949067.888 1 129916336.484 1     -2112.396          46.000                                                                  
C23  25693376.357 1 133792165.102 2     -2237.675          39.000                                                                  
C28  25319140.811 1 131843419.350 2      2539.873          38.000                                                                  
C19  24665670.109 1 128440623.220 1       618.683          43.000                                                                  
C11  27049037.500 2 140851431.099 5     -1297.855          33.000    27049028.119 1 108915216.514 2     -1003.534          41.000  
R15  25260670.189 2 134985307.152 2     -3135.573          40.000                                                                  
R09  20905116.648 1 111632152.601 1      1558.906          46.000    20905112.693 2  86824954.586 2      1212.538          42.000  
R17  23495399.707 1 125728642.177 1     -1005.689          43.000    23495391.758 2  97788838.26222      -781.935          40.000  
R07  21066517.849 1 112770716.296 1        13.356          47.000    21066507.704 4  87710507.64523        10.604          38.000  
R16  21077820.174 2 112593941.664 2     -1646.740          40.000    21077817.241 4  87573047.27624     -1280.898          38.000  
G17  23106521.576 1 121425604.408 3      -203.535          40.000    23106514.480 1  94617316.567 2      -158.487          41.000  
G19  22682860.599 1 119199240.781 2      1917.719          42.000                                                                  
E24  26275296.341 1 138077603.911 2     -1827.265          40.000    26275293.942 1 105799719.758 1     -1399.939          47.000  
S23  39167671.597 1 205827502.826 2       245.396          40.000  
G23  24460592.688 1 128541284.087 2     -1189.205          42.000    24460584.382 1 100162008.331 4      -926.551          35.000  
C37  22892604.379 1 119207799.541 1      -230.498          44.000                                                                  
C10  40695704.596 4               6      -612.078          30.000    40695697.279 1 163864701.327 3      -473.084          38.000  
R18  22842928.657 1 121937117.174 1      2411.342          45.000    22842927.762 4  94839966.36034      1875.557          38.000  
R08  23440453.539 1 125522570.972 1      3486.929          42.000    23440459.679 8  97628685.88025      2712.180          35.000  
R06  22325843.309 2 119134975.811 3     -3609.895          36.000                                                                  
R10  24254430.345 2 129289764.760 5      3432.200          33.000                                                                  
E03  24924269.280 1 130977908.321 1      -344.242          44.000    24924266.430 1 100359688.997 1      -263.951          45.000  
E05  26778163.962 1 140720179.606 2     -2627.034          38.000    26778161.115 1 107824545.368 1     -2012.795          42.000  
G20  24791641.879 1 130280954.022 2     -1436.536          38.000                                                                  
E12  26886086.732 2               7      2000.060          30.000    26886077.932 1 108259092.459 2      1532.546          41.000  
G24  21365168.213 1 112274717.948 1      1478.048          44.000    21365161.256 1  87486765.095 2      1151.662          40.000  
E25  24397356.085 1 128208988.315 1       522.110          43.000    24397352.033 1  98238034.248 2       400.192          43.000  
E08  25216264.893 1 132512353.813 2      2325.222          40.000    25216259.878 1 101535436.990 2      1781.734          42.000  
E02  26881117.212 1 141261247.064 2      2494.647          42.000    26881114.431 1 108239108.066 1      1911.376          43.000  
G12  23238568.610 1 122119510.541 1      3367.281          46.000    23238560.436 1  95158022.078 4      2624.045          35.000  
E33                                                                  29261264.142 2               6      -143.907          29.000  
> 2021 03 11 09 57 33.0030000  0 37                     
G13  23035590.806 1 121052832.647 2     -2885.108          43.000                                                                  
G14  24932569.276 1 131021564.739 2     -3116.153          38.000    24932563.539 1 102094687.412 4     -2428.129          35.000  
G15  21888294.385 1 115023763.482 1     -1617.058          45.000    21888286.656 1  89628860.338 3     -1260.035          37.000  
G10  25057646.657 1 131678837.566 2       740.898          42.000    25057640.622 1 102606862.257 4       577.226          35.000  
G28  24575884.433 1 129147148.183 2     -2781.123          42.000                                                                  
S36  38980377.499 1 204843262.528 2       247.085          40.000  
C20  24949473.570 1 129918448.545 1     -2112.295          46.000                                                                  
C23  25693806.015 1 133794402.399 2     -2237.346          39.000                                                                  
C28  25318652.984 1 131840878.924 2      2540.035          38.000                                                                  
C19  24665551.357 1 128440004.367 1       618.506          43.000                                                                  
C11  27049286.715 2 140852728.760 5     -1298.422          33.000    27049277.366 1 108916219.933 2     -1003.726          41.000  
R15  25261256.857 2 134988442.194 2     -3135.019          42.000    25261269.694 9               9     -2440.136          30.000  
R09  20904824.552 1 111630593.495 1      1559.022          47.000    20904820.743 2  86823741.950 2      1212.519          42.000  
R17  23495587.759 1 125729647.905 1     -1006.327          45.000    23495579.716 2  97789620.499 2      -782.719          40.000  
R07  21066515.336 1 112770702.951 1        12.944          49.000    21066504.411 4  87710497.27123        10.044          37.000  
R16  21078128.398 2 112595588.458 2     -1646.977          41.000    21078125.430 4  87574328.12123     -1281.538          37.000  
G17  23106560.260 1 121425807.814 2      -203.915          41.000    23106553.229 1  94617475.072 2      -158.910          41.000  
G19  22682495.636 1 119197322.795 2      1917.635          42.000                                                                  
E24  26275643.930 1 138079430.753 2     -1826.972          40.000    26275641.552 1 105801119.550 1     -1399.909          47.000  
S23  39167624.857 1 205827257.012 2       245.906          40.000  
G23  24460818.997 1 128542473.271 2     -1189.337          42.000    24460810.558 1 100162935.001 4      -927.139          36.000  
C37  22892648.459 1 119208029.715 1      -230.357          43.000                                                                  
C10  40695824.326 8               7      -611.537          30.000    40695814.663 1 163865174.002 3      -472.763          38.000  
R18  22842476.942 1 121934705.760 1      2411.028          47.000    22842476.213 4  94838090.80923      1875.276          38.000  
R08  23439802.282 1 125519083.594 2      3486.865          43.000    23439805.712 8  97625962.46734      2711.987          34.000  
R06  22326519.907 2 119138585.727 3     -3609.958          38.000                                                                  
R10  24253786.463 2 129286332.157 4      3432.100          33.000                                                                  
E03  24924334.895 1 130978252.681 2      -344.572          44.000    24924332.059 1 100359952.861 1      -264.303          45.000  
E05  26778663.610 1 140722806.199 3     -2626.561          38.000    26778660.937 1 107826557.956 2     -2012.678          42.000  
G20  24791915.237 1 130282390.266 3     -1436.237          38.000                                                                  
E12  26885706.099 2               7      1999.821          30.000    26885697.138 1 108257559.920 2      1532.443          41.000  
G24  21364886.963 1 112273239.650 1      1478.199          45.000    21364879.983 1  87485613.173 2      1151.770          40.000  
E25  24397256.793 1 128208465.850 2       522.319          43.000    24397252.618 1  98237633.927 2       400.036          43.000  
E08  25215822.320 1 132510028.203 2      2325.463          40.000    25215817.322 1 101533655.032 1      1781.708          42.000  
E02  26880642.357 1 141258752.084 2      2494.904          42.000    26880639.668 1 108237196.338 1      1911.568          43.000  
G12  23237927.664 1 122116143.126 1      3367.124          46.000    23237919.777 1  95155398.139 3      2623.969          35.000  
E33                                                                  29261300.586 2               6      -143.744          29.000  
> 2021 03 11 09 57 34.0030000  0 37                     
G13  23036139.808 1 121055717.933 2     -2885.727          43.000                                                                  
G14  24933162.138 1 131024680.600 2     -3116.208          38.000    24933156.414 2 102097115.362 4     -2428.295          35.000  
G15  21888602.319 1 115025380.821 1     -1617.889          45.000    21888594.364 1  89630120.604 3     -1260.835          37.000  
G10  25057505.659 1 131678096.728 2       740.232          42.000    25057499.707 1 102606284.983 3       576.877          35.000  
G28  24576413.777 1 129149929.516 2     -2781.546          42.000                                                                  
S36  38980330.488 1 204843015.430 2       246.920          40.000  
C20  24949879.286 1 129920561.044 1     -2112.956          46.000                                                                  
C23  25694235.643 1 133796639.846 3     -2237.662          39.000                                                                  
C28  25318165.181 1 131838338.931 3      2539.449          39.000                                                                  
C19  24665432.690 1 128439386.143 1       617.664          43.000                                                                  
C11  27049536.136 2 140854026.950 5     -1298.805          33.000    27049526.706 1 108917223.780 2     -1004.146          41.000  
R15  25261843.586 1 134991577.253 2     -3135.327          42.000    25261852.198 9               7     -2438.363          31.000  
R09  20904532.783 1 111629034.861 1      1558.258          48.000    20904528.876 2  86822529.682 2      1211.776          42.000  
R17  23495775.870 1 125730654.565 1     -1007.663          45.000    23495767.854 2  97790403.448 2      -783.303          40.000  
R07  21066512.967 1 112770690.631 1        11.465          49.000    21066501.872 4  87710492.68434         8.733          37.000  
R16  21078436.732 1 112597235.617 2     -1648.077          41.000    21078432.680 4  87575609.24323     -1281.770          38.000  
G17  23106599.100 1 121426011.900 2      -204.848          40.000    23106592.067 1  94617634.100 2      -159.565          41.000  
G19  22682130.734 1 119195405.511 2      1916.545          42.000                                                                  
E24  26275991.556 1 138081257.766 2     -1827.408          40.000    26275989.300 1 105802519.468 1     -1400.266          47.000  
S23  39167578.066 1 205827011.239 2       245.189          40.000  
G23  24461045.443 1 128543663.069 2     -1190.453          42.000    24461037.079 1 100163862.081 3      -927.216          36.000  
C37  22892692.719 1 119208260.232 1      -231.100          43.000                                                                  
C10  40695943.006 4               8      -611.796          30.000    40695932.048 1 163865646.711 2      -472.742          37.000  
R18  22842025.388 1 121932295.143 1      2410.000          47.000    22842026.585 4  94836215.87923      1874.724          38.000  
R08  23439151.083 1 125515596.828 2      3486.018          43.000    23439153.213 8  97623244.52125      2711.478          35.000  
R06  22327196.335 2 119142196.166 3     -3610.718          38.000                                                                  
R10  24253142.677 2 129282899.720 4      3432.557          35.000                                                                  
E03  24924400.519 1 130978597.546 1      -345.197          44.000    24924397.661 1 100360217.097 1      -264.500          45.000  
E05  26779163.522 1 140725433.065 2     -2627.067          38.000    26779160.985 1 107828570.761 1     -2013.301          42.000  
G20  24792188.679 1 130283827.058 3     -1437.250          38.000                                                                  
E12  26885325.436 2               6      2000.086          30.000    26885316.660 1 108256027.679 2      1531.827          41.000  
G24  21364605.665 1 112271761.803 1      1477.420          45.000    21364598.755 1  87484461.609 2      1150.996          40.000  
E25  24397157.433 1 128207943.719 1       521.688          43.000    24397153.263 1  98237233.858 1       399.683          43.000  
E08  25215379.629 1 132507702.975 2      2324.756          40.000    25215374.787 1 101531873.362 1      1781.267          42.000  
E02  26880167.590 1 141256257.343 2      2494.387          42.000    26880164.886 1 108235284.776 1      1911.560          43.000  
G12  23237286.975 1 122112776.102 1      3366.538          46.000    23237279.043 1  95152774.468 3      2623.671          35.000  
E33                                                                  29261336.127 2               6      -144.348          29.000  
> 2021 03 11 09 57 35.0030000  0 37                     
G13  23036688.915 1 121058603.646 2     -2886.169          43.000                                                                  
G14  24933755.078 1 131027796.643 3     -3116.069          38.000    24933749.317 1 102099543.417 4     -2427.920          35.000  
G15  21888910.215 1 115026998.785 1     -1618.359          45.000    21888902.270 1  89631381.351 2     -1261.070          37.000  
G10  25057364.807 1 131677356.575 2       739.768          41.000    25057358.889 1 102605708.211 4       576.875          35.000  
G28  24576943.122 1 129152711.001 2     -2781.697          41.000                                                                  
S36  38980283.450 1 204842768.349 2       247.186          40.000  
C20  24950285.063 1 129922673.971 1     -2113.185          46.000                                                                  
C23  25694665.356 1 133798877.474 2     -2237.710          39.000                                                                  
C28  25317677.466 1 131835799.342 3      2539.279          39.000                                                                  
C19  24665314.000 1 128438768.545 1       617.255          43.000                                                                  
C11  27049785.735 2 140855325.704 4     -1299.554          33.000    27049776.102 1 108918228.053 2     -1004.783          41.000  
R15  25262430.257 1 134994712.352 2     -3135.161          42.000    25262437.637 9               7     -2438.617          31.000  
R09  20904241.016 1 111627476.692 1      1557.795          47.000    20904237.106 2  86821317.757 2      1211.793          43.000  
R17  23495964.205 1 125731662.110 1     -1008.055          45.000    23495957.538 4  97791255.10034      -784.141          42.000  
R07  21066510.879 1 112770679.287 1        10.694          49.000    21066499.671 8  87710483.83934         8.700          41.000  
R16  21078745.109 1 112598883.082 2     -1647.865          41.000    21078740.754 4  87576890.60523     -1281.659          40.000  
G17  23106638.038 1 121426216.680 2      -205.296          41.000    23106630.886 1  94617793.660 2      -159.669          41.000  
G19  22681766.054 1 119193488.918 1      1915.982          42.000                                                                  
E24  26276339.378 1 138083084.955 2     -1827.282          40.000    26276337.069 1 105803919.514 1     -1400.009          47.000  
S23  39167531.347 1 205826765.516 2       245.228          40.000  
G23  24461271.932 1 128544853.443 2     -1190.990          42.000    24461263.568 1 100164789.663 3      -927.839          36.000  
C37  22892737.068 1 119208491.065 1      -231.169          43.000                                                                  
C10  40696060.207 4               7      -611.013          30.000    40696049.462 1 163866119.452 2      -472.519          38.000  
R18  22841574.039 1 121929885.307 1      2409.345          46.000    22841573.104 8  94834341.56535      1873.947          40.000  
R08  23438500.173 1 125512110.659 2      3485.735          43.000    23438498.942 8  97620533.06225      2711.181          35.000  
R06  22327873.078 2 119145807.110 2     -3611.588          38.000                                                                  
R10  24252498.630 2 129279467.526 4      3431.509          34.000                                                                  
E03  24924466.192 1 130978942.953 2      -345.694          44.000    24924463.282 1 100360481.748 1      -265.015          45.000  
E05  26779663.410 1 140728060.182 2     -2627.195          39.000    26779660.772 1 107830583.728 1     -2013.078          42.000  
G20  24792462.224 1 130285264.350 2     -1437.500          38.000                                                                  
E12  26884944.779 2               6      1998.841          29.000    26884936.133 1 108254495.759 2      1531.790          40.000  
G24  21364324.419 1 112270284.377 1      1477.067          45.000    21364317.489 1  87483310.354 2      1151.074          40.000  
E25  24397058.256 1 128207421.941 1       521.548          43.000    24397053.958 1  98236834.039 1       399.602          43.000  
E08  25214937.287 1 132505378.126 2      2324.342          40.000    25214932.423 1 101530091.974 1      1781.145          42.000  
E02  26879692.875 1 141253762.823 2      2494.356          42.000    26879690.185 1 108233373.401 1      1911.267          43.000  
G12  23236646.285 1 122109409.444 1      3366.552          46.000    23236638.395 1  95150151.113 4      2623.101          35.000  
E33                                                                  29261371.950 2               6      -144.851          29.000  
> 2021 03 11 09 57 36.0030000  0 37                     
G13  23037238.110 1 121061489.794 2     -2886.443          43.000                                                                  
G14  24934348.100 1 131030912.874 3     -3116.495          38.000    24934342.287 1 102101971.661 3     -2428.837          35.000  
G15  21889218.213 1 115028617.417 1     -1618.947          45.000    21889210.266 1  89632642.640 3     -1261.956          38.000  
G10  25057224.242 1 131676617.160 2       738.943          42.000    25057218.106 1 102605132.044 4       576.427          35.000  
G28  24577472.499 1 129155492.659 2     -2781.875          42.000                                                                  
S36  38980236.521 1 204842521.373 2       246.927          40.000  
C20  24950690.924 1 129924787.379 1     -2113.757          46.000                                                                  
C23  25695095.020 1 133801115.287 2     -2238.099          39.000                                                                  
C28  25317189.911 1 131833260.201 2      2538.955          39.000                                                                  
C19  24665195.463 1 128438151.627 1       616.486          43.000                                                                  
C11  27050035.355 2 140856625.004 4     -1299.696          33.000    27050025.669 1 108919232.771 2     -1005.079          41.000  
R15  25263016.973 2 134997847.482 2     -3134.738          40.000                                                                  
R09  20903949.314 1 111625919.010 1      1557.262          46.000    20903945.409 2  86820106.235 2      1211.292          42.000  
R17  23496152.822 1 125732670.591 1     -1009.100          43.000    23496146.484 4  97792041.97034      -784.851          40.000  
R07  21066508.925 1 112770668.947 1         9.823          48.000    21066498.219 4  87710475.80823         7.363          38.000  
R16  21079053.696 2 112600530.968 2     -1648.174          40.000    21079047.624 4  87578157.29135     -1281.888          38.000  
G17  23106676.989 1 121426422.185 2      -205.935          41.000    23106669.991 1  94617953.803 2      -160.325          41.000  
G19  22681401.376 1 119191573.036 1      1915.433          42.000                                                                  
E24  26276687.203 1 138084912.346 2     -1827.359          40.000    26276684.744 1 105805319.740 1     -1400.455          47.000  
S23  39167484.542 1 205826519.858 2       245.549          40.000  
G23  24461498.568 1 128546044.443 1     -1191.297          42.000    24461490.268 1 100165717.691 3      -927.846          36.000  
C37  22892781.519 1 119208722.278 1      -231.687          43.000                                                                  
C10  40696178.251 4               7      -611.115          30.000    40696166.872 1 163866592.293 3      -472.752          38.000  
R18  22841122.781 1 121927476.281 1      2408.739          45.000    22841122.143 8  94832467.90124      1873.082          37.000  
R08  23437849.412 1 125508625.150 1      3485.229          42.000    23437844.853 8  97617795.10335      2710.698          36.000  
R06  22328549.859 2 119149418.580 3     -3611.970          36.000                                                                  
R10  24251854.907 2 129276035.561 4      3431.777          32.000                                                                  
E03  24924531.824 1 130979288.899 2      -346.441          43.000    24924529.003 1 100360746.817 1      -265.366          45.000  
E05  26780163.431 1 140730687.614 2     -2627.790          38.000    26780160.742 1 107832596.948 2     -2013.396          42.000  
G20  24792735.880 1 130286702.215 3     -1438.281          38.000                                                                  
E12  26884564.269 2               7      1998.169          29.000    26884555.878 1 108252964.181 2      1531.416          41.000  
G24  21364043.378 1 112268807.445 1      1476.584          44.000    21364036.314 1  87482159.497 2      1150.948          40.000  
E25  24396959.083 1 128206900.528 2       521.171          43.000    24396954.778 1  98236434.512 1       399.348          43.000  
E08  25214494.898 1 132503053.663 2      2324.156          40.000    25214490.023 1 101528310.890 1      1780.896          42.000  
E02  26879218.285 1 141251268.575 2      2494.011          42.000    26879215.515 1 108231462.231 1      1910.972          43.000  
G12  23236005.665 1 122106043.241 1      3365.817          46.000    23235997.832 1  95147528.066 3      2623.039          35.000  
E33                                                                  29261407.658 2               7      -145.025          29.000  
> 2021 03 11 09 57 37.0030000  0 37                     
G13  23037787.414 1 121064376.118 1     -2886.524          43.000                                                                  
G14  24934940.996 1 131034029.008 3     -3116.291          38.000    24934935.269 1 102104399.824 3     -2428.226          35.000  
G15  21889526.301 1 115030236.450 1     -1619.239          45.000    21889518.341 1  89633904.192 3     -1261.665          38.000  
G10  25057083.620 1 131675878.194 2       738.834          42.000    25057077.557 2 102604556.288 4       575.010          35.000  
G28  24578001.848 1 129158274.243 2     -2781.445          41.000                                                                  
S36  38980189.367 1 204842274.185 2       247.492          40.000  
C20  24951096.742 1 129926900.997 1     -2113.914          46.000                                                                  
C23  25695524.868 1 133803353.012 2     -2237.792          39.000                                                                  
C28  25316702.370 1 131830721.283 2      2538.423          39.000                                                                  
C19  24665077.163 1 128437535.094 2       616.272          43.000                                                                  
C11  27050284.979 2 140857924.667 5     -1299.350          33.000    27050275.266 1 108920237.758 2     -1005.109          41.000  
R15  25263603.639 2 135000982.422 2     -3134.725          40.000                                                                  
R09  20903657.631 1 111624361.528 1      1557.327          46.000    20903653.745 2  86818894.863 2      1211.238          42.000  
R17  23496341.472 1 125733679.760 1     -1009.621          43.000    23496334.413 4  97792826.37613      -785.168          41.000  
R07  21066507.243 1 112770659.346 1         9.239          48.000    21066495.792 4  87710468.33323         7.122          39.000  
R16  21079362.224 2 112602179.001 2     -1647.903          39.000    21079356.991 8  87579439.10623     -1281.921          37.000  
G17  23106716.188 1 121426628.158 2      -206.233          41.000    23106709.193 1  94618114.298 2      -160.600          41.000  
G19  22681036.926 1 119189657.623 2      1915.023          42.000                                                                  
E24  26277034.953 1 138086739.738 2     -1827.629          40.000    26277032.423 1 105806719.916 1     -1400.127          47.000  
S23  39167437.768 1 205826274.070 2       245.644          40.000  
G23  24461725.233 1 128547235.812 1     -1191.338          42.000    24461716.990 1 100166646.058 3      -928.434          36.000  
C37  22892825.880 1 119208953.576 1      -231.377          43.000                                                                  
C10  40696296.248 4               7      -610.387          30.000    40696284.311 1 163867064.996 3      -472.793          38.000  
R18  22840671.622 1 121925067.840 1      2408.333          45.000    22840669.370 8  94830589.65933      1873.165          37.000  
R08  23437198.592 1 125505140.079 2      3484.736          42.000    23437193.871 8  97615084.51125      2710.387          34.000  
R06  22329226.607 2 119153030.335 3     -3611.992          36.000                                                                  
R10  24251211.091 2 129272603.593 4      3431.813          33.000                                                                  
E03  24924597.763 1 130979635.127 1      -346.147          43.000    24924594.925 1 100361012.121 1      -265.283          45.000  
E05  26780663.434 1 140733315.046 2     -2627.329          38.000    26780660.732 1 107834610.196 2     -2013.349          42.000  
G20  24793009.562 1 130288140.366 3     -1438.324          38.000                                                                  
E12  26884183.676 2               7      1998.636          29.000    26884175.498 1 108251432.746 2      1531.458          41.000  
G24  21363762.412 1 112267330.735 1      1476.715          44.000    21363755.239 1  87481008.837 2      1150.395          40.000  
E25  24396860.108 1 128206379.221 2       521.303          43.000    24396855.638 1  98236035.080 1       399.303          43.000  
E08  25214052.484 1 132500729.349 2      2324.206          40.000    25214047.691 1 101526529.932 2      1780.968          42.000  
E02  26878743.635 1 141248774.329 2      2494.272          42.000    26878740.952 1 108229551.047 1      1911.148          43.000  
G12  23235365.091 1 122102677.183 1      3365.839          46.000    23235357.299 1  95144905.164 4      2623.356          35.000  
E33                                                                  29261444.428 2               6      -145.867          29.000  
> 2021 03 11 09 57 38.0030000  0 37                     
G13  23038336.832 1 121067262.822 1     -2886.971          43.000                                                                  
G14  24935534.010 1 131037145.244 2     -3116.224          38.000    24935528.206 1 102106828.048 3     -2428.069          35.000  
G15  21889834.413 1 115031856.065 1     -1619.995          45.000    21889826.503 1  89635166.234 3     -1262.318          38.000  
G10  25056943.188 1 131675139.884 2       737.756          42.000    25056937.101 1 102603980.916 4       575.620          35.000  
G28  24578531.257 1 129161055.941 2     -2781.943          42.000                                                                  
S36  38980142.235 1 204842027.014 2       247.127          40.000  
C20  24951502.802 1 129929014.998 1     -2114.306          46.000                                                                  
C23  25695954.584 1 133805590.869 2     -2237.952          39.000                                                                  
C28  25316214.822 1 131828182.721 2      2537.684          39.000                                                                  
C19  24664958.898 1 128436919.156 2       615.570          43.000                                                                  
C11  27050534.504 2               6     -1300.937          33.000    27050524.981 1 108921243.140 2     -1005.657          41.000  
R15  25264190.362 2 135004117.310 2     -3134.845          40.000                                                                  
R09  20903366.102 1 111622804.466 1      1556.824          46.000    20903362.151 1  86817683.815 2      1210.701          42.000  
R17  23496530.278 1 125734689.812 1     -1010.693          44.000    23496523.169 4  97793611.962 3      -785.809          40.000  
R07  21066505.633 1 112770650.689 1         8.067          48.000    21066494.311 4  87710461.60124         6.416          37.000  
R16  21079670.882 2 112603827.387 2     -1648.772          39.000    21079666.033 4  87580721.18023     -1282.458          37.000  
G17  23106755.417 1 121426834.765 2      -207.044          40.000    23106748.541 1  94618275.300 2      -161.357          41.000  
G19  22680672.562 1 119187742.876 1      1914.179          42.000                                                                  
E24  26277383.090 1 138088567.209 2     -1827.488          40.000    26277380.195 1 105808120.199 1     -1400.361          47.000  
S23  39167390.969 1 205826028.269 2       245.716          40.000  
G23  24461952.116 1 128548427.756 2     -1192.375          42.000    24461943.811 1 100167574.849 3      -929.353          36.000  
C37  22892870.311 1 119209185.179 2      -231.846          43.000                                                                  
C10  40696412.109 4               7      -611.524          30.000    40696401.715 1 163867537.706 2      -472.837          38.000  
R18  22840220.611 1 121922660.189 1      2407.255          45.000    22840217.694 4  94828714.02634      1872.550          37.000  
R08  23436547.940 1 125501655.602 2      3484.061          42.000    23436542.543 8  97612374.32724      2710.117          33.000  
R06  22329903.617 2 119156642.596 3     -3612.805          36.000                                                                  
R10  24250567.428 2 129269171.772 4      3431.998          34.000                                                                  
E03  24924663.824 1 130979981.860 1      -347.013          43.000    24924661.046 1 100361277.801 1      -266.041          45.000  
E05  26781163.339 1 140735942.702 2     -2627.603          38.000    26781160.737 1 107836623.599 1     -2013.602          42.000  
G20  24793283.341 1 130289579.018 3     -1439.093          38.000                                                                  
E12  26883803.361 2               7      1998.401          29.000    26883795.245 1 108249901.601 2      1530.953          41.000  
G24  21363481.503 1 112265854.476 1      1475.900          44.000    21363474.337 1  87479858.502 2      1149.887          40.000  
E25  24396760.874 1 128205858.212 1       520.889          43.000    24396756.466 1  98235635.860 1       399.179          43.000  
E08  25213610.378 1 132498405.379 2      2323.629          40.000    25213605.505 1 101524749.222 2      1780.610          42.000  
E02  26878269.033 1 141246280.269 1      2494.017          42.000    26878266.367 1 108227640.028 1      1910.799          43.000  
G12  23234724.539 1 122099311.460 1      3365.340          46.000    23234716.925 1  95142282.550 4      2622.495          35.000  
E33                                                                  29261480.646 2               6      -145.963          29.000  
> 2021 03 11 09 57 39.0030000  0 37                     
G13  23038886.184 1 121070149.871 1     -2887.186          43.000                                                                  
G14  24936127.121 1 131040261.566 2     -3116.023          38.000    24936121.139 1 102109256.359 3     -2428.111          35.000  
G15  21890142.766 1 115033476.249 1     -1620.420          45.000    21890134.831 1  89636428.715 2     -1262.632          38.000  
G10  25056802.856 1 131674402.184 2       737.501          41.000    25056796.733 1 102603406.095 4       574.781          35.000  
G28  24579060.672 1 129163837.710 2     -2781.721          41.000                                                                  
S36  38980095.211 1 204841779.838 2       247.133          40.000  
C20  24951908.797 1 129931129.370 1     -2114.514          46.000                                                                  
C23  25696384.445 1 133807828.801 2     -2238.198          39.000                                                                  
C28  25315727.439 1 131825644.465 2      2538.149          39.000                                                                  
C19  24664840.781 1 128436303.773 1       615.308          43.000                                                                  
C11  27050784.072 2 140860525.532 5     -1300.683          33.000    27050774.757 1 108922248.915 2     -1005.952          41.000  
R15  25264777.015 2 135007252.154 2     -3134.680          41.000                                                                  
R09  20903074.585 1 111621247.786 1      1556.585          45.000    20903070.614 2  86816473.066 2      1210.598          41.000  
R17  23496719.213 1 125735700.665 1     -1011.043          44.000    23496712.358 4  97794396.69434      -786.579          39.000  
R07  21066504.179 1 112770642.964 1         7.303          48.000    21066493.674 4  87710455.58623         5.387          38.000  
R16  21079979.510 2 112605476.111 2     -1649.035          39.000    21079973.619 4  87582003.51423     -1282.574          37.000  
G17  23106794.795 1 121427042.004 2      -207.447          40.000    23106788.017 1  94618436.800 2      -162.026          41.000  
G19  22680308.449 1 119185828.734 2      1913.954          42.000                                                                  
E24  26277730.969 1 138090394.812 2     -1827.416          40.000    26277728.000 1 105809520.571 1     -1400.349          47.000  
S23  39167344.177 1 205825782.495 2       245.870          40.000  
G23  24462179.075 1 128549620.217 2     -1192.572          42.000    24462170.710 1 100168504.060 3      -929.950          36.000  
C37  22892914.822 1 119209417.037 1      -231.770          43.000                                                                  
C10  40696528.876 8               7      -611.795          30.000    40696519.028 1 163868010.404 3      -472.274          38.000  
R18  22839769.679 1 121920253.281 1      2406.579          46.000    22839766.513 4  94826842.003 3      1871.645          37.000  
R08  23435897.385 1 125498171.703 2      3483.846          42.000    23435891.862 8               6      2709.272          34.000  
R06  22330580.624 2 119160255.284 3     -3612.627          36.000                                                                  
R10  24249923.833 2 129265740.109 5      3431.811          34.000                                                                  
E03  24924729.937 1 130980329.034 1      -347.250          43.000    24924727.025 1 100361543.812 1      -266.136          45.000  
E05  26781663.323 1 140738570.599 3     -2628.118          38.000    26781660.756 1 107838637.137 1     -2013.363          42.000  
G20  24793557.250 1 130291018.111 2     -1439.099          38.000                                                                  
E12  26883423.374 2               6      1997.828          29.000    26883414.944 1 108248370.706 2      1530.953          41.000  
G24  21363200.668 1 112264378.587 1      1475.763          45.000    21363193.520 1  87478708.445 2      1149.932          40.000  
E25  24396661.815 1 128205337.480 1       520.710          43.000    24396657.390 1  98235236.864 1       398.810          43.000  
E08  25213168.109 1 132496081.710 2      2323.517          40.000    25213163.328 1 101522968.746 1      1780.488          42.000  
E02  26877794.646 1 141243786.370 2      2493.919          42.000    26877791.785 1 108225729.126 1      1910.817          43.000  
G12  23234084.317 1 122095946.070 1      3365.306          46.000    23234076.526 1  95139660.160 4      2622.313          35.000  
E33                                                                  29261516.960 1               6      -145.971          29.000  
> 2021 03 11 09 57 40.0030000  0 37                     
G13  23039435.690 1 121073037.283 1     -2887.926          44.000                                                                  
G14  24936720.241 1 131043378.000 3     -3116.776          38.000    24936714.144 1 102111684.729 3     -2427.979          35.000  
G15  21890451.083 1 115035097.023 1     -1621.370          45.000    21890443.212 1  89637691.621 2     -1262.908          38.000  
G10  25056662.554 1 131673665.140 2       736.255          41.000    25056656.489 1 102602831.777 4       573.990          35.000  
G28  24579589.998 1 129166619.596 2     -2781.959          41.000                                                                  
S36  38980048.165 1 204841532.655 2       247.042          40.000  
C20  24952314.938 1 129933244.131 1     -2115.117          46.000                                                                  
C23  25696814.322 1 133810066.839 2     -2238.318          40.000                                                                  
C28  25315240.102 1 131823106.611 2      2537.457          39.000                                                                  
C19  24664722.682 1 128435688.995 1       614.276          43.000                                                                  
C11  27051033.941 4               6     -1301.532          33.000    27051024.635 1 108923255.054 2     -1006.349          41.000  
R15  25265363.681 2 135010386.995 2     -3135.165          41.000                                                                  
R09  20902783.091 1 111619691.537 1      1555.771          45.000    20902779.260 2  86815262.640 2      1210.138          42.000  
R17  23496908.351 1 125736712.399 1     -1012.209          44.000    23496901.525 4  97795183.58023      -787.194          41.000  
R07  21066502.904 1 112770636.210 1         6.068          48.000    21066493.100 4  87710450.31823         4.866          39.000  
R16  21080288.241 2 112607125.154 2     -1649.408          40.000    21080283.043 8  87583290.60634     -1282.898          38.000  
G17  23106834.320 1 121427249.874 2      -208.385          40.000    23106827.611 1  94618598.785 2      -162.586          41.000  
G19  22679944.236 1 119183915.247 2      1913.077          42.000                                                                  
E24  26278079.089 1 138092222.561 2     -1828.088          40.000    26278075.808 1 105810921.041 1     -1400.576          47.000  
S23  39167297.417 1 205825536.710 2       245.944          40.000  
G23  24462406.109 1 128550813.232 2     -1193.521          42.000    24462397.774 1 100169433.645 3      -930.026          36.000  
C37  22892959.425 1 119209649.205 1      -232.507          43.000                                                                  
C10  40696647.149 4               6      -611.738          30.000    40696636.427 1 163868483.143 3      -472.975          38.000  
R18  22839318.833 1 121917847.103 1      2405.788          45.000    22839313.669 8  94824960.55134      1870.760          38.000  
R08  23435246.968 1 125494688.389 2      3482.901          42.000    23435243.202 8  97606959.90335      2708.802          34.000  
R06  22331257.758 2 119163868.461 3     -3613.662          36.000                                                                  
R10  24249280.048 2 129262308.622 5      3431.208          34.000                                                                  
E03  24924796.022 1 130980676.691 1      -348.084          43.000    24924793.171 1 100361810.202 1      -266.783          45.000  
E05  26782163.246 1 140741198.662 2     -2628.485          38.000    26782160.835 1 107840650.866 1     -2013.918          42.000  
G20  24793831.072 1 130292457.685 2     -1439.764          38.000                                                                  
E12  26883043.133 2               6      1997.227          29.000    26883034.876 1 108246840.119 2      1530.266          41.000  
G24  21362919.874 1 112262903.113 1      1475.094          45.000    21362912.801 1  87477558.723 2      1149.770          40.000  
E25  24396562.733 1 128204817.045 2       520.052          43.000    24396558.370 1  98234838.077 1       398.566          43.000  
E08  25212725.923 1 132493758.368 2      2323.015          40.000    25212721.236 1 101521188.528 2      1779.892          42.000  
E02  26877320.132 1 141241292.660 2      2493.465          42.000    26877317.270 1 108223818.353 1      1910.604          43.000  
G12  23233443.965 1 122092581.013 1      3364.813          46.000    23233436.167 1  95137038.098 3      2620.818          35.000  
E33                                                                  29261553.215 1               7      -145.968          29.000  
> 2021 03 11 09 57 41.0030000  0 37                     
G13  23039985.144 1 121075925.069 1     -2887.991          43.000                                                                  
G14  24937313.477 1 131046494.551 3     -3116.573          38.000    24937307.190 1 102114113.213 3     -2428.589          35.000  
G15  21890759.591 1 115036718.382 1     -1621.655          45.000    21890751.740 1  89638955.040 3     -1263.799          38.000  
G10  25056522.423 1 131672928.702 2       736.206          42.000    25056516.319 1 102602257.943 4       573.825          35.000  
G28  24580119.385 1 129169401.592 2     -2782.052          41.000                                                                  
S36  38980001.182 1 204841285.499 2       247.039          40.000  
C20  24952721.108 1 129935359.305 1     -2115.467          46.000                                                                  
C23  25697244.279 1 133812304.990 2     -2238.129          40.000                                                                  
C28  25314752.799 1 131820569.140 3      2537.185          39.000                                                                  
C19  24664604.681 1 128435074.805 1       613.849          43.000                                                                  
C11  27051283.873 2 140863133.40034     -1301.618          33.000    27051274.656 1 108924261.617 2     -1006.734          41.000  
R15  25265950.312 2 135013521.767 2     -3134.890          41.000                                                                  
R09  20902491.725 1 111618135.698 1      1555.536          45.000    20902487.809 2  86814052.530 2      1210.015          44.000  
R17  23497097.594 1 125737725.035 1     -1013.051          44.000    23497089.223 4  97795965.19332      -787.822          42.000  
R07  21066501.878 1 112770630.460 1         5.325          48.000    21066493.003 4  87710445.85023         3.934          40.000  
R16  21080597.014 2 112608774.534 2     -1649.439          40.000    21080592.007 8  87584573.94024     -1282.585          39.000  
G17  23106873.966 1 121427458.412 2      -208.833          40.000    23106867.232 1  94618761.257 2      -162.788          41.000  
G19  22679580.235 1 119182002.435 2      1912.514          42.000                                                                  
E24  26278427.063 1 138094050.453 2     -1827.890          40.000    26278423.558 1 105812321.629 1     -1400.524          47.000  
S23  39167250.723 1 205825290.992 2       245.838          40.000  
G23  24462633.215 1 128552006.801 2     -1193.838          42.000    24462624.908 1 100170363.699 3      -930.479          36.000  
C37  22893003.933 1 119209881.668 1      -232.724          43.000                                                                  
C10  40696765.247 4               6      -611.241          30.000    40696753.861 1 163868955.857 3      -472.710          38.000  
R18  22838868.252 1 121915441.709 1      2404.955          45.000    22838865.182 4  94823089.690 3      1870.304          40.000  
R08  23434596.604 1 125491205.686 2      3481.999          42.000    23434591.828 8  97604246.60935      2708.800          34.000  
R06  22331935.041 2 119167482.105 3     -3614.240          36.000                                                                  
R10  24248636.331 2 129258877.314 4      3431.299          35.000                                                                  
E03  24924862.186 1 130981024.834 2      -348.441          43.000    24924859.349 1 100362076.953 1      -266.878          45.000  
E05  26782663.403 1 140743826.969 2     -2628.584          38.000    26782661.013 1 107842664.761 2     -2014.095          42.000  
G20  24794105.101 1 130293897.762 2     -1440.430          38.000                                                                  
E12  26882662.948 2               6      1997.038          29.000    26882654.825 1 108245309.799 2      1530.253          41.000  
G24  21362639.166 1 112261428.050 1      1474.846          45.000    21362632.092 1  87476409.327 2      1149.211          40.000  
E25  24396463.935 1 128204296.907 1       519.958          42.000    24396459.373 1  98234439.541 1       398.262          43.000  
E08  25212283.847 1 132491435.349 2      2322.927          40.000    25212279.115 1 101519408.564 2      1779.969          42.000  
E02  26876845.626 1 141238799.147 2      2493.428          43.000    26876842.718 1 108221907.739 1      1910.518          43.000  
G12  23232803.708 1 122089216.334 1      3364.419          46.000    23232795.896 1  95134416.224 4      2621.704          35.000  
E33                                                                  29261589.716 1               7      -146.505          29.000  
> 2021 03 11 09 57 42.0030000  0 37                     
G13  23040534.808 1 121078813.283 1     -2888.428          44.000                                                                  
G14  24937906.493 1 131049611.271 3     -3117.250          38.000    24937900.162 1 102116541.812 4     -2428.580          35.000  
G15  21891068.218 1 115038340.378 1     -1622.303          45.000    21891060.442 1  89640218.953 3     -1263.974          37.000  
G10  25056382.516 1 131672193.017 2       735.467          42.000    25056376.321 1 102601684.675 4       573.092          34.000  
G28  24580648.790 1 129172183.764 2     -2782.349          42.000                                                                  
S36  38979954.115 1 204841038.339 2       246.857          40.000  
C20  24953127.247 1 129937474.921 1     -2115.855          46.000                                                                  
C23  25697674.173 1 133814543.319 2     -2238.465          40.000                                                                  
C28  25314265.639 1 131818032.119 2      2536.857          39.000                                                                  
C19  24664486.879 1 128434461.251 1       613.232          43.000                                                                  
C11  27051533.908 2 140864435.65224     -1301.791          33.000    27051524.786 1 108925268.626 2     -1007.358          41.000  
R15  25266536.967 2 135016656.579 2     -3134.944          41.000    25266552.544 9               9     -2441.992          32.000  
R09  20902200.405 1 111616580.330 1      1555.100          46.000    20902196.647 2  86812882.33234      1209.302          43.000  
R17  23497286.986 1 125738738.640 1     -1014.005          44.000    23497278.679 4  97796753.55622      -788.645          41.000  
R07  21066500.968 1 112770625.723 1         4.296          48.000    21066491.994 2  87710442.14523         3.636          37.000  
R16  21080905.834 2 112610424.255 2     -1649.620          40.000    21080901.708 4  87585857.07124     -1283.413          37.000  
G17  23106913.786 1 121427667.646 2      -209.405          40.000    23106907.034 1  94618924.300 2      -163.246          41.000  
G19  22679216.250 1 119180090.318 1      1911.847          42.000                                                                  
E24  26278774.984 1 138095878.525 2     -1828.066          40.000    26278771.475 1 105813722.368 1     -1400.905          46.000  
S23  39167203.939 1 205825045.315 2       245.883          40.000  
G23  24462860.477 1 128553200.994 2     -1194.433          42.000    24462852.156 1 100171294.228 3      -930.891          36.000  
C37  22893048.734 1 119210114.474 1      -233.058          43.000                                                                  
C10  40696881.496 4               7      -610.953          30.000    40696871.273 1 163869428.654 2      -472.596          38.000  
R18  22838417.864 1 121913037.128 1      2404.151          45.000    22838413.065 4  94821219.448 3      1869.735          39.000  
R08  23433946.389 1 125487723.585 1      3481.819          42.000    23433941.013 8  97601538.33425      2707.864          33.000  
R06  22332612.388 2 119171096.254 3     -3614.681          36.000                                                                  
R10  24247992.807 2 129255446.230 4      3431.181          35.000                                                                  
E03  24924928.629 1 130981373.511 1      -348.990          43.000    24924925.797 1 100362344.106 1      -267.200          45.000  
E05  26783163.496 1 140746455.527 2     -2628.685          38.000    26783161.176 1 107844678.855 2     -2014.191          42.000  
G20  24794379.228 1 130295338.359 2     -1441.125          38.000                                                                  
E12  26882282.529 2               6      1996.729          29.000    26882274.829 1 108243779.821 2      1529.691          41.000  
G24  21362358.618 1 112259953.459 1      1474.272          45.000    21362351.453 1  87475260.298 2      1148.827          40.000  
E25  24396365.145 1 128203777.137 1       519.303          43.000    24396360.483 1  98234041.239 1       398.308          43.000  
E08  25211841.685 1 132489112.750 2      2322.258          40.000    25211837.209 1 101517628.894 1      1779.332          41.000  
E02  26876371.292 1 141236305.875 2      2493.217          42.000    26876368.389 1 108219997.323 1      1910.414          43.000  
G12  23232163.519 1 122085852.042 1      3364.102          46.000    23232155.625 1  95131794.727 3      2621.019          35.000  
E33                                                                  29261626.161 1               6      -147.397          29.000  
> 2021 03 11 09 57 43.0030000  0 37                     
G13  23041084.516 1 121081701.818 2     -2888.503          44.000                                                                  
G14  24938499.465 1 131052728.038 3     -3116.992          38.000    24938493.223 2 102118970.478 4     -2428.734          35.000  
G15  21891377.028 1 115039962.958 1     -1622.667          45.000    21891369.178 1  89641483.302 3     -1264.506          37.000  
G10  25056242.659 1 131671457.922 2       734.686          42.000    25056236.425 1 102601111.875 4       572.785          34.000  
G28  24581178.309 1 129174965.983 2     -2782.284          42.000                                                                  
S36  38979907.057 1 204840791.166 2       247.125          40.000  
C20  24953533.725 1 129939590.892 1     -2116.148          46.000                                                                  
C23  25698104.106 1 133816781.742 2     -2238.403          40.000                                                                  
C28  25313778.651 1 131815495.403 2      2536.604          39.000                                                                  
C19  24664369.280 1 128433848.253 2       612.799          43.000                                                                  
C11  27051784.146 2 140865738.38125     -1302.197          33.000    27051775.065 1 108926276.004 2     -1007.730          41.000  
R15  25267123.634 1 135019791.357 2     -3134.596          41.000                                                                  
R09  20901909.188 1 111615025.322 1      1554.834          46.000    20901905.434 2  86811672.86822      1209.186          42.000  
R17  23497476.578 1 125739753.065 1     -1014.651          44.000    23497468.765 4  97797542.04713      -788.934          41.000  
R07  21066500.178 1 112770621.878 1         3.637          48.000    21066491.161 2  87710439.14423         3.319          38.000  
R16  21081214.773 2 112612074.257 2     -1649.907          40.000    21081212.954 4  87587140.38424     -1283.246          38.000  
G17  23106953.654 1 121427877.499 2      -210.054          40.000    23106946.952 1  94619087.831 2      -163.773          41.000  
G19  22678852.532 1 119178178.807 2      1911.360          42.000                                                                  
E24  26279123.301 1 138097706.700 2     -1828.020          41.000    26279119.341 1 105815123.182 1     -1400.850          47.000  
S23  39167157.169 1 205824799.637 2       245.775          40.000  
G23  24463087.708 1 128554395.689 2     -1194.664          42.000    24463079.593 1 100172225.166 3      -931.012          37.000  
C37  22893093.534 1 119210347.522 2      -233.002          43.000                                                                  
C10  40696999.919 4               8      -610.668          30.000    40696988.668 1 163869901.442 3      -472.742          38.000  
R18  22837967.561 1 121910633.284 1      2403.632          45.000    22837963.601 4  94819349.78524      1869.413          38.000  
R08  23433296.200 1 125484242.037 2      3481.329          42.000                                                                  
R06  22333289.786 2 119174710.811 3     -3614.960          36.000                                                                  
R10  24247349.294 2 129252015.305 3      3431.046          36.000                                                                  
E03  24924994.931 1 130981722.641 1      -349.288          44.000    24924992.182 1 100362611.623 1      -267.598          45.000  
E05  26783663.780 1 140749084.289 2     -2628.791          38.000    26783661.371 1 107846693.086 2     -2013.981          41.000  
G20  24794653.540 1 130296779.391 2     -1441.022          38.000                                                                  
E12  26881902.555 2               6      1996.234          28.000    26881894.770 1 108242250.093 2      1529.616          41.000  
G24  21362078.134 1 112258479.207 1      1474.317          44.000    21362070.981 1  87474111.544 2      1148.773          41.000  
E25  24396266.264 1 128203257.608 1       519.488          42.000    24396261.734 1  98233643.175 1       398.197          43.000  
E08  25211399.903 1 132486790.439 2      2322.001          40.000    25211395.156 1 101515849.472 2      1779.293          42.000  
E02  26875896.826 1 141233812.750 2      2493.219          42.000    26875894.092 1 108218087.003 1      1910.429          44.000  
G12  23231523.335 1 122082488.053 1      3364.120          46.000    23231515.408 1  95129173.425 3      2621.281          36.000  
E33                                                                  29261662.856 1               6      -147.284          30.000  
> 2021 03 11 09 57 44.0030000  0 37                     
G13  23041634.312 1 121084590.790 1     -2889.229          44.000                                                                  
G14  24939092.629 1 131055844.936 3     -3116.803          38.000    24939086.341 1 102121399.246 3     -2429.051          35.000  
G15  21891685.962 1 115041586.172 1     -1623.446          44.000    21891677.988 1  89642748.140 3     -1265.138          37.000  
G10  25056102.879 1 131670723.527 2       733.890          42.000    25056096.651 1 102600539.618 4       572.185          34.000  
G28  24581707.819 1 129177748.377 2     -2782.470          42.000                                                                  
S36  38979859.988 1 204840544.046 2       246.903          40.000  
C20  24953940.209 1 129941707.311 1     -2116.695          46.000                                                                  
C23  25698534.132 1 133819020.298 2     -2238.271          40.000                                                                  
C28  25313291.524 1 131812959.122 2      2535.929          39.000                                                                  
C19  24664251.652 1 128433235.896 1       612.109          43.000                                                                  
C11  27052034.327 4               6     -1303.894          33.000    27052025.310 1 108927283.796 2     -1007.911          41.000  
R15  25267710.245 1 135022926.173 2     -3135.024          43.000                                                                  
R09  20901618.037 1 111613470.764 1      1554.363          47.000    20901614.397 2  86810463.77622      1208.991          42.000  
R17  23497666.294 1 125740768.357 1     -1015.629          46.000    23497658.328 4  97798334.23134      -790.016          39.000  
R07  21066499.528 1 112770619.003 1         2.503          49.000    21066489.109 4  87710438.92634         1.717          38.000  
R16  21081523.729 1 112613724.614 2     -1650.564          42.000    21081521.570 4  87588424.00523     -1283.609          37.000  
G17  23106993.725 1 121428088.049 2      -211.153          40.000    23106987.146 1  94619251.887 2      -164.437          41.000  
G19  22678488.793 1 119176268.024 2      1910.289          41.000                                                                  
E24  26279471.397 1 138099535.079 2     -1828.639          41.000    26279467.212 1 105816524.130 1     -1400.992          47.000  
S23  39167110.502 1 205824554.006 2       245.886          40.000  
G23  24463315.167 1 128555591.006 2     -1195.724          41.000    24463307.081 1 100173156.570 3      -931.790          37.000  
C37  22893138.279 1 119210580.911 1      -233.379          43.000                                                                  
C10  40697117.595 4               7      -612.167          30.000    40697106.090 1 163870374.275 2      -472.837          38.000  
R18  22837517.393 1 121908230.260 1      2402.594          46.000    22837514.936 4  94817492.75634      1868.630          37.000  
R08  23432646.146 1 125480761.131 2      3480.563          43.000    23432640.123 8  97596118.08235      2707.301          33.000  
R06  22333967.250 2 119178325.874 4     -3615.366          38.000                                                                  
R10  24246706.008 2 129248584.588 3      3430.446          38.000                                                                  
E03  24925061.437 1 130982072.284 1      -349.769          43.000    24925058.668 1 100362879.544 1      -268.175          45.000  
E05  26784164.138 1 140751713.302 3     -2629.243          38.000    26784161.726 1 107848707.539 2     -2014.486          41.000  
G20  24794927.862 1 130298220.966 3     -1441.565          38.000                                                                  
E12  26881522.255 2               6      1995.269          28.000    26881514.931 1 108240720.690 2      1529.242          41.000  
G24  21361797.720 1 112257005.453 1      1473.367          45.000    21361790.494 1  87472963.152 2      1148.155          41.000  
E25  24396167.345 1 128202738.438 2       518.827          42.000    24396162.999 1  98233245.364 1       397.741          43.000  
E08  25210957.905 1 132484468.493 2      2321.635          40.000    25210953.391 1 101514070.314 1      1779.100          42.000  
E02  26875422.496 1 141231319.876 2      2492.757          43.000    26875419.900 1 108216176.880 1      1910.009          44.000  
G12  23230883.259 1 122079124.468 1      3363.289          46.000    23230875.276 1  95126552.436 3      2620.759          35.000  
E33                                                                  29261699.520 1               7      -148.269          29.000  
> 2021 03 11 09 57 45.0030000  0 37                     
G13  23042184.020 1 121087480.014 1     -2889.419          44.000                                                                  
G14  24939685.733 1 131058961.888 3     -3116.976          37.000    24939679.406 1 102123827.993 4     -2428.156          35.000  
G15  21891994.973 1 115043209.860 1     -1623.848          45.000    21891986.979 1  89644013.370 3     -1265.685          38.000  
G10  25055963.279 1 131669989.651 2       733.605          42.000    25055957.162 2 102599967.753 4       571.919          34.000  
G28  24582237.320 1 129180530.767 2     -2782.471          42.000                                                                  
S36  38979812.963 1 204840296.831 2       247.700          40.000  
C20  24954346.658 1 129943824.006 1     -2116.712          46.000                                                                  
C23  25698964.186 1 133821258.881 2     -2238.554          40.000                                                                  
C28  25312804.566 1 131810423.068 2      2536.387          39.000                                                                  
C19  24664134.113 1 128432624.021 2       611.548          43.000                                                                  
C11  27052283.622 4 140868344.45215     -1303.891          33.000    27052275.611 1 108928291.921 2     -1008.349          40.000  
R15  25268296.743 1 135026060.804 2     -3134.399          43.000                                                                  
R09  20901326.882 1 111611916.513 1      1554.066          47.000    20901323.298 1  86809254.40812      1208.818          42.000  
R17  23497856.197 1 125741784.406 1     -1016.334          45.000    23497847.642 4  97799122.48123      -790.256          41.000  
R07  21066499.200 1 112770616.953 1         1.677          49.000    21066489.447 4  87710441.31924         1.048          38.000  
R16  21081832.656 1 112615375.193 2     -1650.385          42.000    21081831.063 4  87589707.79424     -1284.226          38.000  
G17  23107033.841 1 121428299.114 2      -211.379          40.000    23107027.280 1  94619416.352 2      -164.475          41.000  
G19  22678125.274 1 119174357.759 2      1910.179          41.000                                                                  
E24  26279819.342 1 138101363.449 2     -1828.234          41.000    26279815.191 1 105817925.099 1     -1400.911          47.000  
S23  39167063.654 1 205824308.301 2       245.739          39.000  
G23  24463542.735 1 128556786.739 2     -1195.831          41.000    24463534.701 1 100174088.316 3      -932.029          37.000  
C37  22893183.157 1 119210814.487 2      -233.535          43.000                                                                  
C10  40697235.081 4               6      -611.271          30.000    40697223.498 1 163870847.063 2      -473.238          38.000  
R18  22837067.373 1 121905827.878 1      2402.225          46.000    22837064.834 4  94815624.236 3      1868.079          38.000  
R08  23431996.266 1 125477280.720 2      3480.076          43.000                                                                  
R06  22334644.714 2 119181941.293 3     -3615.990          37.000                                                                  
R10  24246062.620 2 129245153.911 3      3430.802          37.000                                                                  
E03  24925128.086 1 130982422.314 1      -350.153          43.000    24925125.250 1 100363147.734 1      -268.338          45.000  
E05  26784664.399 1 140754342.429 2     -2628.734          39.000    26784661.985 1 107850722.062 1     -2014.496          41.000  
G20  24795202.208 1 130299662.920 3     -1441.894          38.000                                                                  
E12  26881142.590 4               7      1995.654          28.000    26881135.147 1 108239191.464 2      1529.339          41.000  
G24  21361517.279 1 112255531.987 1      1473.333          45.000    21361510.126 1  87471815.000 2      1148.095          41.000  
E25  24396068.534 1 128202219.442 2       518.963          43.000    24396064.303 1  98232847.694 1       397.691          43.000  
E08  25210516.020 1 132482146.770 2      2321.743          40.000    25210511.584 1 101512291.337 2      1778.939          42.000  
E02  26874948.200 1 141228827.072 2      2492.830          42.000    26874945.498 1 108214266.799 1      1910.196          44.000  
G12  23230243.256 1 122075761.126 1      3363.107          46.000    23230235.302 1  95123931.654 3      2620.550          35.000  
E33                                                                  29261736.401 1               6      -148.624          29.000  
> 2021 03 11 09 57 46.0030000  0 37                     
G13  23042733.911 1 121090369.510 1     -2889.605          44.000                                                                  
G14  24940278.828 1 131062078.820 3     -3117.463          37.000    24940272.452 2 102126256.791 4     -2429.026          34.000  
G15  21892304.021 1 115044834.033 2     -1624.551          45.000    21892295.995 1  89645278.952 3     -1266.489          37.000  
G10  25055823.699 1 131669256.312 2       732.883          42.000    25055817.655 1 102599396.322 4       571.293          34.000  
G28  24582766.827 1 129183313.146 2     -2782.410          42.000                                                                  
S36  38979765.870 1 204840049.513 2       247.344          40.000  
C20  24954753.238 1 129945940.989 1     -2117.090          46.000                                                                  
C23  25699394.186 1 133823497.456 2     -2238.451          40.000                                                                  
C28  25312317.682 1 131807887.331 2      2535.476          39.000                                                                  
C19  24664016.697 1 128432012.619 2       611.078          43.000                                                                  
C11  27052534.309 4 140869648.590 4     -1304.341          33.000    27052526.036 1 108929300.358 2     -1008.696          41.000  
R15  25268883.321 1 135029195.302 2     -3134.391          42.000    25268876.061 9               8     -2437.653          31.000  
R09  20901035.859 1 111610362.583 1      1553.704          45.000    20901032.315 2  86808045.802 2      1208.630          42.000  
R17  23498046.227 1 125742801.235 1     -1017.172          44.000    23498038.263 4  97799913.37123      -791.675          41.000  
R07  21066498.952 1 112770615.749 1         0.667          47.000    21066488.688 4  87710440.37823         0.764          39.000  
R16  21082141.718 2 112617026.016 2     -1650.897          40.000    21082139.580 4  87590991.76123     -1283.726          38.000  
G17  23107074.124 1 121428510.735 2      -212.216          40.000    23107067.526 1  94619581.248 2      -165.109          41.000  
G19  22677761.956 1 119172448.053 2      1909.374          42.000                                                                  
E24  26280167.464 1 138103191.880 2     -1828.600          41.000    26280163.061 1 105819326.093 1     -1400.964          47.000  
S23  39167016.878 1 205824062.465 2       245.604          40.000  
G23  24463770.431 1 128557982.935 2     -1196.510          42.000    24463762.423 1 100175020.411 3      -932.611          37.000  
C37  22893228.156 1 119211048.253 2      -233.900          43.000                                                                  
C10  40697352.119 4               7      -611.862          30.000    40697340.914 1 163871319.734 2      -472.605          38.000  
R18  22836617.498 1 121903426.165 1      2401.200          44.000    22836618.328 4  94813756.207 3      1868.026          39.000  
R08  23431346.379 1 125473800.753 2      3479.846          42.000    23431340.611 8  97590705.47025      2706.356          34.000  
R06  22335322.387 2 119185557.011 3     -3615.894          35.000                                                                  
R10  24245419.326 2 129241723.313 3      3430.200          36.000                                                                  
E03  24925194.840 1 130982772.703 1      -350.648          44.000    24925191.885 1 100363416.212 1      -268.589          45.000  
E05  26785164.699 1 140756971.683 2     -2629.497          39.000    26785162.258 1 107852736.662 1     -2014.700          42.000  
G20  24795476.632 1 130301105.210 2     -1441.992          38.000                                                                  
E12  26880762.682 4               7      1995.124          28.000    26880755.463 1 108237662.476 2      1528.954          41.000  
G24  21361236.872 1 112254058.818 1      1473.027          44.000    21361229.842 1  87470667.092 2      1147.426          41.000  
E25  24395969.863 1 128201700.631 2       518.727          42.000    24395965.593 1  98232450.170 1       397.471          44.000  
E08  25210074.191 1 132479825.264 2      2321.543          40.000    25210069.764 1 101510512.532 1      1778.618          42.000  
E02  26874473.914 1 141226334.347 2      2492.592          43.000    26874471.089 1 108212356.796 1      1910.018          44.000  
G12  23229603.216 1 122072398.001 1      3362.961          46.000    23229595.352 1  95121311.025 3      2620.631          35.000  
E33                                                                  29261773.416 1 117825034.75615      -148.834          29.000  
> 2021 03 11 09 57 47.0030000  0 37                     
G13  23043283.802 1 121093259.355 1     -2890.178          44.000                                                                  
G14  24940871.937 1 131065195.820 3     -3117.087          37.000    24940865.579 1 102128685.626 4     -2428.717          34.000  
G15  21892613.171 1 115046458.764 2     -1625.165          44.000    21892605.234 1  89646544.974 3     -1266.651          37.000  
G10  25055684.315 1 131668523.612 2       732.215          42.000    25055678.193 2 102598825.395 4       570.458          34.000  
G28  24583296.352 1 129186095.641 2     -2783.026          42.000                                                                  
S36  38979718.765 1 204839802.158 2       247.010          40.000  
C20  24955159.751 1 129948058.366 1     -2117.881          46.000                                                                  
C23  25699824.127 1 133825736.152 2     -2239.024          40.000                                                                  
C28  25311830.829 1 131805351.942 2      2534.955          39.000                                                                  
C19  24663899.342 1 128431401.804 2       610.272          43.000                                                                  
C11  27052785.601 4 140870953.224 4     -1305.136          34.000    27052776.565 1 108930309.200 2     -1009.394          41.000  
R15  25269469.877 1 135032329.788 2     -3134.652          41.000                                                                  
R09  20900744.849 1 111608809.052 1      1553.063          45.000    20900741.434 2  86806837.504 2      1208.119          43.000  
R17  23498236.391 1 125743818.955 1     -1018.408          44.000    23498226.576 4  97800704.42712      -792.241          40.000  
R07  21066498.874 1 112770615.502 1        -0.588          47.000    21066489.023 4  87710440.18523        -0.029          39.000  
R16  21082450.749 2 112618677.169 2     -1651.424          41.000    21082448.235 4  87592275.99923     -1284.607          38.000  
G17  23107114.449 1 121428722.978 2      -212.915          40.000    23107107.989 1  94619746.646 2      -165.848          41.000  
G19  22677398.554 1 119170538.981 2      1908.553          42.000                                                                  
E24  26280515.302 1 138105020.429 2     -1828.940          41.000    26280510.978 1 105820727.192 1     -1401.287          46.000  
S23  39166970.135 1 205823816.634 2       245.548          40.000  
G23  24463998.251 1 128559179.679 2     -1197.459          41.000    24463990.323 1 100175952.934 3      -932.578          37.000  
C37  22893273.164 1 119211282.307 1      -234.464          43.000                                                                  
C10  40697467.449 4               6      -611.888          30.000    40697458.357 1 163871792.439 2      -472.793          38.000  
R18  22836167.672 1 121901025.175 1      2400.276          44.000    22836167.255 4  94811888.78624      1866.914          39.000  
R08  23430696.692 1 125470321.380 2      3479.010          42.000                                                                  
R06  22336000.133 2 119189173.229 3     -3616.752          35.000                                                                  
R10  24244775.936 2 129238292.843 3      3430.342          36.000                                                                  
E03  24925261.725 1 130983123.570 1      -351.314          44.000    24925258.635 1 100363685.065 1      -269.187          45.000  
E05  26785664.952 1 140759601.124 2     -2629.677          39.000    26785662.548 1 107854751.437 2     -2015.091          42.000  
G20  24795751.196 1 130302548.028 2     -1443.115          38.000                                                                  
E12  26880382.820 4               7      1995.265          27.000    26880375.753 1 108236133.763 2      1528.324          41.000  
G24  21360956.658 1 112252586.066 1      1472.379          44.000    21360949.504 1  87469519.471 2      1147.498          41.000  
E25  24395871.230 1 128201182.120 2       518.156          43.000    24395867.145 1  98232052.863 1       397.134          43.000  
E08  25209632.669 1 132477504.113 2      2320.642          40.000    25209628.109 1 101508733.973 2      1778.344          42.000  
E02  26873999.519 1 141223841.806 1      2492.199          43.000    26873996.767 1 108210446.929 1      1909.634          43.000  
G12  23228963.312 1 122069035.226 1      3362.484          46.000    23228955.494 2  95118690.707 4      2619.926          35.000  
E33                                                                  29261810.399 1 117825183.797 5      -149.382          29.000  
> 2021 03 11 09 57 48.0030000  0 37                     
G13  23043833.759 1 121096149.586 1     -2890.613          44.000                                                                  
G14  24941465.089 1 131068312.958 3     -3117.380          37.000    24941458.660 1 102131114.555 4     -2428.822          34.000  
G15  21892922.608 1 115048084.085 1     -1625.628          44.000    21892914.490 1  89647811.429 3     -1266.628          38.000  
G10  25055545.041 1 131667791.557 1       731.640          42.000    25055538.906 2 102598254.964 5       570.297          34.000  
G28  24583825.876 1 129188878.227 2     -2782.721          41.000                                                                  
S36  38979671.712 1 204839554.812 2       247.071          40.000  
C20  24955566.250 1 129950176.124 1     -2118.157          46.000                                                                  
C23  25700254.174 1 133827974.938 2     -2238.854          40.000                                                                  
C28  25311343.922 1 131802816.923 2      2534.740          39.000                                                                  
C19  24663782.109 1 128430791.568 1       609.723          43.000                                                                  
C11  27053036.142 2 140872258.396 4     -1306.147          33.000    27053027.172 1 108931318.406 2     -1009.430          41.000  
R15  25270056.429 1 135035464.217 2     -3134.312          42.000                                                                  
R09  20900453.933 1 111607255.910 1      1552.935          45.000    20900450.547 2  86805629.524 2      1207.667          42.000  
R17  23498426.836 1 125744837.543 1     -1019.200          44.000    23498417.806 4  97801496.642 3      -792.617          39.000  
R07  21066498.892 1 112770616.222 1        -1.353          47.000    21066489.680 4  87710441.76234        -0.934          39.000  
R16  21082760.032 2 112620328.650 2     -1651.922          41.000    21082756.117 4  87593565.46634     -1284.668          38.000  
G17  23107154.895 1 121428935.870 2      -213.286          40.000    23107148.559 1  94619912.526 2      -166.165          41.000  
G19  22677035.398 1 119168630.568 2      1907.851          42.000                                                                  
E24  26280863.405 1 138106849.084 2     -1828.799          41.000    26280858.980 1 105822128.377 1     -1401.363          46.000  
S23  39166923.277 1 205823570.825 2       245.651          40.000  
G23  24464226.072 1 128560376.954 2     -1197.707          41.000    24464218.284 1 100176885.880 3      -933.296          37.000  
C37  22893318.196 1 119211516.648 2      -234.648          43.000                                                                  
C10  40697586.139 8               7      -611.188          30.000    40697575.715 1 163872265.156 2      -473.023          38.000  
R18  22835717.978 1 121898624.921 1      2399.675          44.000    22835717.157 4  94810021.91824      1866.376          37.000  
R08  23430046.979 1 125466842.576 2      3478.170          42.000                                                                  
R06  22336677.890 2 119192789.876 3     -3616.889          36.000                                                                  
R10  24244132.707 2 129234862.545 3      3430.180          37.000                                                                  
E03  24925328.739 1 130983474.912 1      -351.656          44.000    24925325.539 1 100363954.281 1      -269.583          45.000  
E05  26786165.476 1 140762230.784 2     -2629.898          38.000    26786163.004 1 107856766.364 2     -2015.068          42.000  
G20  24796025.793 1 130303991.310 2     -1443.695          39.000                                                                  
E12  26880003.634 8               8      1994.565          27.000    26879996.192 1 108234605.302 2      1528.324          41.000  
G24  21360676.484 1 112251113.706 1      1472.100          45.000    21360669.321 1  87468372.177 2      1147.033          41.000  
E25  24395772.438 1 128200663.906 2       517.789          43.000    24395768.310 1  98231655.801 1       396.689          43.000  
E08  25209191.027 1 132475183.249 2      2320.693          40.000    25209186.541 1 101506955.662 2      1778.148          42.000  
E02  26873525.354 1 141221349.431 1      2492.232          42.000    26873522.473 1 108208537.209 1      1909.527          43.000  
G12  23228323.528 1 122065672.796 1      3362.128          46.000    23228315.670 2  95116070.614 4      2619.785          35.000  
E33                                                                  29261847.583 1 117825333.250 5      -149.649          29.000  
> 2021 03 11 09 57 49.0030000  0 37                     
G13  23044383.787 1 121099040.221 1     -2890.762          44.000                                                                  
G14  24942058.211 1 131071430.236 3     -3116.847          37.000    24942051.869 2 102133543.645 4     -2429.455          34.000  
G15  21893231.943 1 115049710.041 1     -1625.822          44.000    21893223.875 1  89649078.413 3     -1266.729          38.000  
G10  25055405.849 1 131667060.192 2       731.122          42.000    25055399.796 2 102597685.076 5       569.291          33.000  
G28  24584355.446 1 129191660.975 2     -2782.788          41.000                                                                  
S36  38979624.667 1 204839307.526 2       247.300          40.000  
C20  24955972.978 1 129952294.314 1     -2118.211          46.000                                                                  
C23  25700684.149 1 133830213.907 2     -2239.115          40.000                                                                  
C28  25310857.253 1 131800282.343 2      2534.374          38.000                                                                  
C19  24663664.978 1 128430181.976 1       609.283          43.000                                                                  
C11  27053287.437 2 140873564.095 5     -1306.238          33.000    27053277.822 1 108932328.063 2     -1009.894          41.000  
R15  25270643.009 1 135038598.640 2     -3134.050          43.000                                                                  
R09  20900163.135 1 111605703.256 1      1552.579          47.000    20900159.741 2  86804421.901 2      1207.535          42.000  
R17  23498617.393 1 125745857.022 1     -1019.944          46.000    23498607.505 4  97802290.09622      -793.451          39.000  
R07  21066499.267 1 112770617.946 1        -2.156          49.000    21066488.196 4  87710443.11923        -1.865          38.000  
R16  21083069.265 1 112621980.464 2     -1651.778          42.000    21083064.882 4  87594848.22324     -1284.356          38.000  
G17  23107195.521 1 121429149.463 2      -213.720          40.000    23107189.233 1  94620078.953 2      -166.462          41.000  
G19  22676672.356 1 119166722.850 2      1907.302          42.000                                                                  
E24  26281211.580 1 138108677.971 2     -1828.939          42.000    26281206.960 1 105823529.738 1     -1401.457          47.000  
S23  39166876.451 1 205823325.140 2       245.729          40.000  
G23  24464454.019 1 128561574.852 2     -1198.281          41.000    24464446.248 1 100177819.311 3      -933.885          37.000  
C37  22893363.207 1 119211751.335 2      -234.855          43.000                                                                  
C10  40697704.312 4               7      -611.316          30.000    40697693.104 1 163872737.919 2      -472.692          38.000  
R18  22835268.405 1 121896225.478 1      2399.111          45.000    22835266.840 4  94808158.66034      1866.295          38.000  
R08  23429397.460 1 125463364.405 2      3478.078          43.000    23429378.773 9               7      2704.291          33.000  
R06  22337355.652 2 119196407.072 3     -3617.824          37.000                                                                  
R10  24243489.399 2 129231432.485 3      3430.189          38.000                                                                  
E03  24925395.650 1 130983826.788 2      -351.947          44.000    24925392.363 1 100364223.891 1      -269.672          45.000  
E05  26786665.906 1 140764860.724 2     -2630.276          38.000    26786663.525 1 107858781.505 2     -2015.060          42.000  
G20  24796300.535 1 130305435.111 2     -1444.122          39.000                                                                  
E12  26879622.361 8               9      1994.168          27.000    26879616.626 1 108233077.191 2      1528.010          41.000  
G24  21360396.311 1 112249641.805 1      1471.754          45.000    21360389.242 1  87467225.236 2      1146.795          41.000  
E25  24395674.073 1 128200146.035 1       517.740          43.000    24395669.644 1  98231258.972 1       396.941          44.000  
E08  25208749.447 1 132472862.812 2      2320.375          40.000    25208744.917 1 101505177.664 2      1777.806          42.000  
E02  26873051.193 1 141218857.319 2      2492.106          43.000    26873048.328 1 108206627.664 1      1909.485          43.000  
G12  23227683.671 1 122062310.767 1      3361.838          46.000    23227675.927 2  95113450.856 4      2619.865          34.000  
E33                                                                  29261884.635 1               7      -149.878          29.000  
> 2021 03 11 09 57 50.0030000  0 37                     
G13  23044934.002 1 121101931.199 1     -2891.004          44.000                                                                  
G14  24942651.441 1 131074547.618 3     -3117.130          36.000    24942645.067 2 102135972.739 4     -2429.106          34.000  
G15  21893541.385 1 115051336.576 1     -1626.751          44.000    21893533.373 1  89650345.847 3     -1267.580          38.000  
G10  25055266.822 1 131666329.452 2       730.479          42.000    25055260.715 2 102597115.623 4       569.522          33.000  
G28  24584884.998 1 129194443.814 2     -2782.989          41.000                                                                  
S36  38979577.659 1 204839060.208 2       247.439          40.000  
C20  24956379.714 1 129954412.884 1     -2118.539          46.000                                                                  
C23  25701114.231 1 133832452.936 2     -2239.289          40.000                                                                  
C28  25310370.602 1 131797748.089 2      2533.975          39.000                                                                  
C19  24663548.039 1 128429572.934 1       608.728          43.000                                                                  
C11  27053537.811 2 140874870.272 5     -1306.510          33.000    27053528.627 1 108933338.079 2     -1010.052          40.000  
R15  25271229.593 1 135041733.016 2     -3134.314          43.000                                                                  
R09  20899872.433 1 111604150.970 1      1552.153          47.000    20899869.037 2  86803214.570 2      1207.105          43.000  
R17  23498808.130 1 125746877.316 1     -1020.636          46.000    23498798.293 4  97803083.63623      -793.747          41.000  
R07  21066499.744 1 112770620.586 1        -2.868          49.000    21066489.649 4  87710441.65535        -1.942          39.000  
R16  21083378.671 1 112623632.582 2     -1652.065          42.000    21083372.249 4  87596133.19724     -1284.905          38.000  
G17  23107236.329 1 121429363.655 2      -214.147          40.000    23107229.992 1  94620245.871 2      -166.840          41.000  
G19  22676309.400 1 119164815.752 2      1906.894          42.000                                                                  
E24  26281559.737 1 138110506.937 2     -1828.805          41.000    26281555.068 1 105824931.149 1     -1401.339          46.000  
S23  39166829.782 1 205823079.397 2       245.944          40.000  
G23  24464682.102 1 128562773.266 2     -1198.707          41.000    24464674.262 1 100178753.131 3      -934.133          37.000  
C37  22893408.257 1 119211986.254 1      -234.807          43.000                                                                  
C10  40697821.126 4               6      -611.342          30.000    40697810.497 1 163873210.642 2      -472.220          38.000  
R18  22834818.982 1 121893826.760 1      2398.600          45.000    22834817.559 4  94806293.51024      1865.559          39.000  
R08  23428748.005 1 125459886.815 2      3477.504          43.000    23428731.211 9  97579830.01735      2704.661          33.000  
R06  22338033.594 2 119200024.690 3     -3617.816          37.000                                                                  
R10  24242846.024 2 129228002.524 3      3430.017          38.000                                                                  
E03  24925462.615 1 130984179.120 1      -352.455          44.000    24925459.356 1 100364493.869 1      -270.232          45.000  
E05  26787166.392 1 140767490.824 2     -2630.125          38.000    26787164.014 1 107860796.785 1     -2015.314          42.000  
G20  24796575.217 1 130306879.354 2     -1444.324          39.000                                                                  
E12  26879243.405 8               9      1993.334          27.000    26879237.187 1 108231549.338 2      1527.630          41.000  
G24  21360116.383 1 112248170.275 1      1471.392          44.000    21360109.120 1  87466078.582 2      1146.847          41.000  
E25  24395575.591 1 128199628.427 1       517.506          43.000    24395571.317 1  98230862.383 1       396.573          43.000  
E08  25208307.968 1 132470542.657 2      2320.131          40.000    25208303.337 1 101503399.876 2      1777.712          42.000  
E02  26872576.906 1 141216365.365 1      2491.846          43.000    26872574.064 1 108204718.231 1      1909.461          43.000  
G12  23227043.888 1 122058949.049 1      3361.633          46.000    23227036.233 2  95110831.328 4      2619.530          34.000  
E33                                                                  29261921.898 1               6      -150.651          29.000  
> 2021 03 11 09 57 51.0030000  0 37                     
G13  23045484.205 1 121104822.389 1     -2891.429          44.000                                                                  
G14  24943244.581 1 131077664.903 3     -3117.220          36.000    24943238.104 2 102138401.805 4     -2429.022          34.000  
G15  21893850.902 1 115052963.522 1     -1627.333          44.000    21893842.956 1  89651613.591 3     -1268.084          38.000  
G10  25055127.813 1 131665599.196 2       729.785          42.000    25055121.767 2 102596546.618 5       568.414          33.000  
G28  24585414.441 1 129197226.608 2     -2782.800          41.000                                                                  
S36  38979530.578 1 204838812.746 2       247.469          40.000  
C20  24956786.591 1 129956531.689 1     -2119.017          46.000                                                                  
C23  25701544.198 1 133834691.924 2     -2239.124          40.000                                                                  
C28  25309883.932 1 131795214.058 2      2533.615          38.000                                                                  
C19  24663431.189 1 128428964.327 1       608.173          43.000                                                                  
C11  27053788.838 2 140876176.824 5     -1306.847          33.000    27053779.529 1 108934348.379 2     -1010.475          40.000  
R15  25271816.067 1 135044867.200 2     -3134.067          43.000                                                                  
R09  20899581.961 1 111602598.929 1      1551.974          47.000    20899578.346 2  86802007.422 2      1206.917          45.000  
R17  23498998.977 1 125747898.347 1     -1021.456          46.000    23498988.926 2  97803877.269 3      -794.230          41.000  
R07  21066500.335 1 112770624.009 1        -3.953          49.000    21066491.888 4  87710444.32423        -3.025          41.000  
R16  21083688.015 1 112625284.873 2     -1652.444          42.000    21083684.816 8  87597424.33133     -1285.411          41.000  
G17  23107277.192 1 121429578.367 2      -215.354          40.000    23107270.855 1  94620413.168 2      -167.553          41.000  
G19  22675946.628 1 119162909.146 2      1906.503          41.000                                                                  
E24  26281907.803 1 138112335.884 2     -1828.873          42.000    26281903.042 1 105826332.549 1     -1401.392          46.000  
S23  39166782.991 1 205822833.528 2       246.011          40.000  
G23  24464910.270 1 128563972.071 2     -1199.296          41.000    24464902.432 1 100179687.249 3      -934.254          38.000  
C37  22893453.436 1 119212221.331 1      -235.132          43.000                                                                  
C10  40697937.460 4               6      -611.000          31.000    40697927.862 1 163873683.296 3      -472.245          38.000  
R18  22834369.655 1 121891428.656 1      2397.593          46.000    22834366.522 8  94804421.32224      1864.810          39.000  
R08  23428098.698 1 125456409.662 2      3476.862          43.000    23428083.086 9  97577138.04935      2704.474          36.000  
R06  22338711.681 2 119203642.619 3     -3618.311          37.000                                                                  
R10  24242202.702 2 129224572.577 3      3429.652          38.000                                                                  
E03  24925529.804 1 130984531.767 1      -352.889          44.000    24925526.538 1 100364764.069 1      -270.500          45.000  
E05  26787666.942 1 140770121.000 3     -2630.384          38.000    26787664.534 1 107862812.110 2     -2015.564          42.000  
G20  24796850.183 1 130308323.919 2     -1444.794          39.000                                                                  
E12  26878863.883 8               9      1993.082          27.000    26878857.755 1 108230021.631 2      1527.626          41.000  
G24  21359836.295 1 112246698.968 1      1471.074          44.000    21359829.173 1  87464932.128 2      1146.368          41.000  
E25  24395477.160 1 128199110.948 1       517.382          43.000    24395472.822 1  98230465.865 1       396.516          43.000  
E08  25207866.498 1 132468222.663 2      2319.754          40.000    25207861.825 1 101501622.225 2      1777.548          42.000  
E02  26872102.624 1 141213873.421 1      2491.748          43.000    26872099.824 1 108202808.826 1      1909.466          43.000  
G12  23226404.238 1 122055587.514 1      3361.191          46.000    23226396.601 1  95108211.958 4      2619.294          35.000  
E33                                                                  29261959.218 1               6      -151.244          29.000  
> 2021 03 11 09 57 52.0030000  0 37                     
G13  23046034.456 1 121107713.906 1     -2891.472          43.000                                                                  
G14  24943837.871 1 131080782.302 3     -3117.645          36.000    24943831.384 2 102140830.932 5     -2429.116          34.000  
G15  21894160.565 1 115054590.995 2     -1627.411          44.000    21894152.653 1  89652881.767 3     -1268.433          38.000  
G10  25054988.896 1 131664869.529 2       729.630          42.000    25054982.940 2 102595978.025 4       569.050          33.000  
G28  24585943.946 1 129200009.465 2     -2782.556          41.000                                                                  
S36  38979483.464 1 204838565.283 2       247.184          40.000  
C20  24957193.605 1 129958650.841 1     -2119.166          46.000                                                                  
C23  25701974.081 1 133836930.994 2     -2239.165          40.000                                                                  
C28  25309397.353 1 131792680.348 2      2533.602          38.000                                                                  
C19  24663314.472 1 128428356.249 1       608.191          43.000                                                                  
C11  27054039.770 2 140877483.876 5     -1307.643          33.000    27054030.524 1 108935359.055 2     -1010.628          40.000  
R15  25272402.549 1 135048001.381 2     -3134.105          41.000                                                                  
R09  20899291.341 1 111601047.302 1      1551.459          45.000    20899287.741 2  86800800.592 2      1206.785          44.000  
R17  23499189.972 1 125748920.238 1     -1022.181          44.000    23499179.994 2  97804672.073 3      -795.092          40.000  
R07  21066501.016 1 112770628.319 1        -4.600          47.000    21066493.692 4  87710447.67023        -3.400          41.000  
R16  21083997.515 2 112626937.503 2     -1652.565          40.000    21083994.682 4  87598709.71923     -1285.841          41.000  
G17  23107318.194 1 121429793.675 2      -215.768          40.000    23107311.819 1  94620580.934 2      -168.035          41.000  
G19  22675583.895 1 119161003.157 2      1906.156          41.000                                                                  
E24  26282255.874 1 138114164.938 2     -1828.957          41.000    26282251.144 1 105827734.031 1     -1401.436          46.000  
S23  39166736.156 1 205822587.643 2       245.898          40.000  
G23  24465138.403 1 128565171.390 2     -1199.363          41.000    24465130.652 1 100180621.785 2      -934.421          38.000  
C37  22893498.507 1 119212456.650 1      -235.256          43.000                                                                  
C10  40698054.584 4               8      -611.141          30.000    40698045.283 1 163874155.947 3      -472.404          38.000  
R18  22833920.632 1 121889031.264 1      2397.196          44.000    22833915.115 8  94802546.68434      1864.563          39.000  
R08  23427449.365 1 125452933.068 2      3476.479          41.000    23427434.255 8  97574434.01625      2704.429          34.000  
R06  22339389.794 2 119207260.990 3     -3618.485          35.000                                                                  
R10  24241559.471 2 129221142.720 3      3430.140          36.000                                                                  
E03  24925596.981 1 130984884.851 1      -353.110          44.000    24925593.765 1 100365034.616 1      -270.608          45.000  
E05  26788167.403 1 140772751.333 2     -2630.353          38.000    26788165.043 1 107864827.578 2     -2015.802          42.000  
G20  24797125.222 1 130309768.938 2     -1445.117          39.000                                                                  
E12  26878481.577 8               8      1993.281          27.000    26878478.622 1 108228494.199 2      1527.318          41.000  
G24  21359556.334 1 112245228.063 1      1470.981          44.000    21359549.219 1  87463785.965 2      1146.150          41.000  
E25  24395378.701 1 128198593.736 1       517.229          43.000    24395374.335 1  98230069.564 1       396.376          43.000  
E08  25207424.940 1 132465902.980 2      2319.667          40.000    25207420.461 1 101499844.812 2      1777.221          42.000  
E02  26871628.644 1 141211381.632 2      2491.922          43.000    26871625.680 1 108200899.543 1      1909.260          43.000  
G12  23225764.688 1 122052226.294 1      3361.146          46.000    23225756.995 2  95105592.837 4      2618.806          34.000  
E33                                                                  29261996.574 1               6      -151.514          30.000  
> 2021 03 11 09 57 53.0030000  0 37                     
G13  23046584.722 1 121110605.815 1     -2892.404          43.000                                                                  
G14  24944431.139 1 131083899.820 3     -3118.691          36.000    24944424.572 1 102143260.168 4     -2429.990          34.000  
G15  21894470.265 1 115056219.087 1     -1628.555          44.000    21894462.505 1  89654150.385 3     -1268.671          38.000  
G10  25054850.149 1 131664140.530 2       728.595          42.000    25054844.172 2 102595409.978 4       567.790          33.000  
G28  24586473.502 1 129202792.474 2     -2783.459          41.000                                                                  
S36  38979436.436 1 204838317.841 2       247.098          40.000  
C20  24957600.641 1 129960770.388 1     -2119.904          46.000                                                                  
C23  25702404.091 1 133839170.197 2     -2239.859          40.000                                                                  
C28  25308911.013 1 131790147.050 3      2532.909          38.000                                                                  
C19  24663197.782 1 128427748.804 1       606.976          43.000                                                                  
C11  27054290.798 2 140878791.405 5     -1308.442          34.000    27054281.573 1 108936370.127 2     -1011.368          40.000  
R15  25272989.023 1 135051135.520 2     -3134.254          42.000                                                                  
R09  20899000.784 1 111599496.081 1      1550.799          45.000    20898999.242 4  86799602.58033      1206.333          42.000  
R17  23499380.999 1 125749942.978 1     -1023.220          44.000    23499371.169 2  97805467.548 3      -795.985          38.000  
R07  21066501.992 1 112770633.585 1        -6.024          47.000    21066495.538 4  87710465.77234        -4.685          40.000  
R16  21084306.897 2 112628590.498 2     -1653.310          40.000    21084304.230 4  87599995.34323     -1286.000          39.000  
G17  23107359.251 1 121430009.621 2      -216.512          40.000    23107353.028 1  94620749.227 2      -169.054          41.000  
G19  22675221.367 1 119159097.851 2      1904.648          41.000                                                                  
E24  26282603.920 1 138115994.138 2     -1829.693          42.000    26282599.216 1 105829135.624 1     -1401.849          46.000  
S23  39166689.310 1 205822341.796 2       245.596          40.000  
G23  24465366.760 1 128566371.286 2     -1200.677          41.000    24465359.056 1 100181556.789 2      -935.593          38.000  
C37  22893543.691 1 119212692.296 1      -236.211          43.000                                                                  
C10  40698173.635 4               7      -611.363          30.000    40698162.648 1 163874628.599 3      -472.770          38.000  
R18  22833471.693 1 121886634.647 1      2395.852          44.000    22833464.493 8  94800675.63434      1863.807          37.000  
R08  23426800.178 1 125449457.081 2      3475.577          42.000                                                                  
R06  22340068.052 2 119210879.847 3     -3619.567          36.000                                                                  
R10  24240916.348 2 129217713.106 3      3428.995          36.000                                                                  
E03  24925664.549 1 130985238.438 1      -354.162          44.000    24925661.066 1 100365305.542 1      -271.336          45.000  
E05  26788667.844 1 140775381.911 2     -2630.989          38.000    26788665.639 1 107866843.204 2     -2015.924          42.000  
G20  24797400.351 1 130311214.440 2     -1445.953          39.000                                                                  
E12  26878102.956 8               8      1992.623          28.000    26878099.360 1 108226967.055 2      1526.763          41.000  
G24  21359276.536 1 112243757.556 1      1469.980          44.000    21359269.484 1  87462640.107 2      1145.419          41.000  
E25  24395280.302 1 128198076.836 2       516.549          43.000    24395275.981 1  98229673.502 1       395.717          43.000  
E08  25206983.664 1 132463583.646 2      2318.599          40.000    25206979.185 1 101498067.639 2      1776.836          42.000  
E02  26871154.473 1 141208890.051 2      2491.246          43.000    26871151.629 1 108198990.402 1      1908.991          43.000  
G12  23225125.245 1 122048865.425 1      3360.466          46.000    23225117.484 1  95102973.945 4      2618.664          34.000  
E33                                                                  29262034.107 1               6      -151.393          29.000  
> 2021 03 11 09 57 54.0030000  0 37                     
G13  23047135.116 1 121113497.949 1     -2892.463          43.000                                                                  
G14  24945024.305 1 131087017.233 4     -3117.560          36.000    24945017.792 2 102145689.330 4     -2429.031          35.000  
G15  21894780.241 1 115057847.625 2     -1628.774          44.000    21894772.444 1  89655419.365 3     -1268.780          37.000  
G10  25054711.559 1 131663412.019 1       728.378          42.000    25054705.416 2 102594842.348 5       567.182          33.000  
G28  24587003.059 1 129205575.397 2     -2782.794          40.000                                                                  
S36  38979389.365 1 204838070.268 2       247.571          40.000  
C20  24958007.690 1 129962890.188 1     -2119.884          46.000                                                                  
C23  25702834.141 1 133841409.339 2     -2239.193          40.000                                                                  
C28  25308424.545 1 131787613.976 3      2532.651          38.000                                                                  
C19  24663081.176 1 128427141.796 1       606.775          43.000                                                                  
C11  27054542.013 2 140880099.314 5     -1308.527          34.000    27054532.651 1 108937381.483 2     -1011.442          40.000  
R15  25273575.521 1 135054269.447 2     -3133.726          42.000                                                                  
R09  20898710.384 1 111597945.126 1      1550.653          45.000    20898708.981 4  86798396.28623      1206.158          42.000  
R17  23499572.206 1 125750966.423 1     -1024.062          44.000    23499562.417 2  97806263.551 3      -796.241          38.000  
R07  21066503.020 1 112770639.672 1        -6.489          47.000    21066499.309 4  87710470.50523        -4.922          39.000  
R16  21084616.358 2 112630243.628 2     -1653.178          40.000    21084612.995 4  87601281.10623     -1285.587          38.000  
G17  23107400.364 1 121430226.066 2      -216.625          40.000    23107394.283 1  94620917.876 2      -168.732          41.000  
G19  22674858.934 1 119157193.030 2      1904.560          41.000                                                                  
E24  26282952.004 1 138117823.320 2     -1829.123          42.000    26282947.349 1 105830537.214 1     -1401.621          47.000  
S23  39166642.568 1 205822095.854 2       245.551          40.000  
G23  24465595.159 1 128567571.572 2     -1200.494          41.000    24465587.469 1 100182492.060 2      -935.383          38.000  
C37  22893588.937 1 119212928.056 2      -235.838          43.000                                                                  
C10  40698291.459 4               6      -611.099          31.000    40698280.073 1 163875101.155 2      -472.242          38.000  
R18  22833023.008 1 121884238.623 1      2395.556          45.000    22833016.613 4  94798812.07324      1863.408          37.000  
R08  23426151.219 1 125445981.531 2      3475.219          42.000                                                                  
R06  22340746.319 2 119214499.010 3     -3619.218          36.000                                                                  
R10  24240273.096 2 129214283.498 3      3429.075          36.000                                                                  
E03  24925731.931 1 130985592.346 1      -354.101          44.000    24925728.355 1 100365576.715 1      -271.283          45.000  
E05  26789168.440 1 140778012.575 2     -2630.751          38.000    26789166.178 1 107868858.894 2     -2015.756          42.000  
G20  24797675.523 1 130312660.287 3     -1446.130          38.000                                                                  
E12  26877725.067 8               8      1992.550          28.000    26877720.036 1 108225440.089 2      1526.747          41.000  
G24  21358996.849 1 112242287.301 1      1470.104          44.000    21358989.722 1  87461494.475 2      1145.132          41.000  
E25  24395181.953 1 128197560.082 1       516.740          43.000    24395177.611 1  98229277.548 1       395.695          44.000  
E08  25206542.300 1 132461264.479 2      2318.931          40.000    25206537.911 1 101496290.626 1      1776.929          42.000  
E02  26870680.413 1 141206398.503 2      2491.629          43.000    26870677.499 1 108197081.316 1      1909.039          43.000  
G12  23224485.723 1 122045504.768 1      3360.493          46.000    23224478.022 1  95100355.269 3      2618.568          34.000  
E33                                                                  29262071.689 1               6      -151.367          30.000  
> 2021 03 11 09 57 55.0030000  0 37                     
G13  23047685.600 1 121116390.483 2     -2892.617          43.000                                                                  
G14  24945617.699 1 131090134.841 3     -3118.056          35.000    24945610.989 1 102148118.637 4     -2429.261          35.000  
G15  21895090.315 1 115059476.781 2     -1629.462          44.000    21895082.545 1  89656688.858 3     -1269.772          37.000  
G10  25054573.115 1 131662684.221 1       727.476          42.000    25054566.900 2 102594275.249 5       565.494          33.000  
G28  24587532.656 1 129208358.524 2     -2783.252          40.000                                                                  
S36  38979342.235 1 204837822.697 2       247.609          40.000  
C20  24958414.935 1 129965010.445 1     -2120.579          46.000                                                                  
C23  25703264.261 1 133843648.660 2     -2239.211          40.000                                                                  
C28  25307938.173 1 131785081.300 2      2532.567          38.000                                                                  
C19  24662964.774 1 128426535.425 1       605.963          43.000                                                                  
C11  27054793.231 1 140881407.806 4     -1309.274          34.000    27054783.879 1 108938393.282 2     -1012.103          40.000  
R15  25274161.931 1 135057403.376 2     -3134.010          43.000                                                                  
R09  20898420.021 1 111596394.629 1      1550.184          47.000    20898417.881 4  86797190.35422      1205.631          42.000  
R17  23499763.598 1 125751990.775 1     -1024.792          46.000    23499752.907 4  97807051.77134      -796.950          37.000  
R07  21066504.324 1 112770646.797 1        -7.590          49.000    21066499.875 4  87710476.04423        -5.924          39.000  
R16  21084925.853 2 112631897.106 2     -1653.663          42.000    21084922.691 2  87602567.15123     -1285.859          38.000  
G17  23107441.676 1 121430443.232 2      -217.362          41.000    23107435.586 1  94621087.083 2      -169.474          41.000  
G19  22674496.639 1 119155288.906 2      1903.977          41.000                                                                  
E24  26283300.036 1 138119652.715 2     -1829.480          41.000    26283295.410 1 105831938.943 1     -1401.859          46.000  
S23  39166595.766 1 205821849.939 2       246.004          40.000  
G23  24465823.620 1 128568772.472 2     -1201.229          41.000    24465815.997 1 100183427.805 2      -935.675          38.000  
C37  22893634.413 1 119213164.166 1      -236.177          43.000                                                                  
C10  40698408.414 8               6      -611.136          31.000    40698397.445 1 163875573.747 2      -472.304          38.000  
R18  22832574.352 1 121881843.445 1      2394.539          46.000    22832567.819 4  94796953.17634      1862.907          37.000  
R08  23425502.219 1 125442506.628 2      3474.528          43.000    23425481.125 9               9      2708.008          32.000  
R06  22341424.632 2 119218118.686 3     -3620.037          38.000                                                                  
R10  24239629.873 2 129210854.077 3      3429.506          38.000                                                                  
E03  24925799.529 1 130985946.802 1      -354.857          44.000    24925795.745 1 100365848.310 1      -271.888          45.000  
E05  26789668.961 1 140780643.469 3     -2630.970          38.000    26789666.958 1 107870874.783 2     -2015.948          42.000  
G20  24797950.682 1 130314106.651 2     -1446.362          38.000                                                                  
E12  26877347.416 8               9      1992.410          28.000    26877340.981 1 108223913.442 2      1526.475          41.000  
G24  21358717.165 1 112240817.524 1      1469.438          44.000    21358710.063 1  87460349.168 2      1145.333          41.000  
E25  24395083.553 1 128197043.679 1       516.393          43.000    24395079.348 1  98228881.860 1       395.531          43.000  
E08  25206101.022 1 132458945.706 2      2318.627          40.000    25206096.770 1 101494513.917 1      1776.618          42.000  
E02  26870206.446 1 141203907.201 2      2491.363          43.000    26870203.348 1 108195172.391 1      1908.852          43.000  
G12  23223846.257 1 122042144.503 1      3360.239          46.000    23223838.631 2  95097736.886 4      2618.168          34.000  
E33                                                                  29262109.313 2               8      -152.402          30.000  
> 2021 03 11 09 57 56.0030000  0 37                     
G13  23048236.060 1 121119283.476 1     -2893.221          43.000                                                                  
G14  24946210.914 1 131093252.636 3     -3118.135          35.000    24946204.222 1 102150548.081 4     -2429.325          35.000  
G15  21895400.446 1 115061106.603 1     -1630.292          44.000    21895392.655 1  89657958.832 3     -1270.102          38.000  
G10  25054434.758 1 131661957.141 2       726.766          42.000    25054428.435 2 102593708.654 4       565.983          33.000  
G28  24588062.288 1 129211141.815 2     -2783.600          40.000                                                                  
S36  38979295.212 1 204837575.309 2       247.532          40.000  
C20  24958822.286 1 129967131.156 1     -2120.920          46.000                                                                  
C23  25703694.407 1 133845888.188 2     -2239.763          40.000                                                                  
C28  25307451.904 1 131782549.084 3      2532.273          38.000                                                                  
C19  24662848.516 1 128425929.705 2       605.426          43.000                                                                  
C11  27055044.727 2 140882716.852 5     -1308.927          34.000    27055035.239 1 108939405.534 2     -1012.396          40.000  
R15  25274748.328 1 135060537.361 2     -3133.766          43.000                                                                  
R09  20898129.711 1 111594844.612 1      1549.994          47.000    20898129.824 4  86795984.79823      1205.342          43.000  
R17  23499955.155 1 125753016.105 1     -1025.715          45.000    23499944.684 4  97807849.24823      -797.874          39.000  
R07  21066505.729 1 112770654.970 1        -8.558          49.000    21066502.668 4  87710482.40223        -6.518          40.000  
R16  21085235.557 1 112633550.978 2     -1654.226          42.000    21085232.239 2  87603853.48223     -1286.226          39.000  
G17  23107483.183 1 121430661.089 2      -217.954          41.000    23107477.006 1  94621256.866 2      -170.063          41.000  
G19  22674134.466 1 119153385.515 2      1903.195          41.000                                                                  
E24  26283648.142 1 138121482.278 2     -1829.569          41.000    26283643.641 1 105833340.830 1     -1401.893          47.000  
S23  39166549.104 1 205821604.128 2       245.888          40.000  
G23  24466052.178 1 128569973.987 2     -1201.610          41.000    24466044.680 1 100184364.088 3      -936.529          38.000  
C37  22893679.826 1 119213400.649 1      -236.629          43.000                                                                  
C10  40698526.430 4               6      -611.487          31.000    40698514.825 1 163876046.446 2      -472.567          38.000  
R18  22832125.833 1 121879449.119 1      2394.024          46.000    22832120.450 4  94795090.95023      1861.737          37.000  
R08  23424853.398 1 125439032.339 2      3474.096          43.000    23424826.935 9               6      2701.476          33.000  
R06  22342102.871 2 119221738.896 3     -3620.458          38.000                                                                  
R10  24238986.737 2 129207424.950 3      3428.947          38.000                                                                  
E03  24925867.053 1 130986301.792 1      -355.160          44.000    24925863.201 1 100366120.322 1      -272.131          45.000  
E05  26790169.783 1 140783274.699 3     -2631.461          38.000    26790167.601 1 107872890.910 2     -2016.213          42.000  
G20  24798226.060 1 130315553.584 2     -1447.058          38.000                                                                  
E12  26876970.250 8               8      1991.830          28.000    26876961.747 1 108222387.131 2      1526.171          41.000  
G24  21358437.558 1 112239348.223 1      1468.962          44.000    21358430.496 1  87459204.264 2      1144.862          41.000  
E25  24394985.406 1 128196527.647 1       515.867          43.000    24394981.216 1  98228486.451 1       395.339          44.000  
E08  25205659.805 1 132456627.333 2      2318.314          40.000    25205655.605 1 101492737.500 2      1776.392          42.000  
E02  26869732.437 1 141201416.162 1      2491.008          43.000    26869729.474 1 108193263.683 1      1908.569          43.000  
G12  23223206.915 1 122038784.654 1      3359.789          46.000    23223199.165 2  95095118.850 4      2617.334          35.000  
E33                                                                  29262147.102 1               7      -152.669          30.000  
> 2021 03 11 09 57 57.0030000  0 37                     
G13  23048786.557 1 121122176.807 1     -2893.441          43.000                                                                  
G14  24946804.142 1 131096370.472 4     -3117.820          36.000    24946797.536 1 102152977.582 3     -2429.466          35.000  
G15  21895710.577 1 115062736.973 1     -1630.724          44.000    21895702.928 1  89659229.240 3     -1270.254          38.000  
G10  25054296.515 1 131661230.653 2       726.118          42.000    25054290.050 1 102593142.539 4       565.895          33.000  
G28  24588591.851 1 129213925.154 2     -2783.209          40.000                                                                  
S36  38979248.118 1 204837327.913 2       247.412          40.000  
C20  24959229.597 1 129969252.216 1     -2121.153          46.000                                                                  
C23  25704124.535 1 133848127.758 2     -2239.721          40.000                                                                  
C28  25306965.676 1 131780017.220 2      2531.802          38.000                                                                  
C19  24662732.395 1 128425324.549 1       604.907          43.000                                                                  
C11  27055296.151 1 140884026.389 4     -1309.414          34.000    27055286.658 1 108940418.147 2     -1012.915          40.000  
R15  25275334.741 1 135063671.337 2     -3134.034          42.000    25275298.389 9               9     -2440.148          29.000  
R09  20897839.534 1 111593294.971 1      1549.680          47.000    20897838.958 4  86794783.52332      1205.125          42.000  
R17  23500146.788 1 125754042.280 1     -1026.519          45.000    23500137.398 4  97808652.38434      -798.142          39.000  
R07  21066507.404 1 112770664.050 1        -9.495          49.000    21066503.589 4  87710489.44923        -7.196          40.000  
R16  21085545.188 1 112635205.122 2     -1654.209          42.000    21085543.379 4  87605146.04934     -1286.754          38.000  
G17  23107524.749 1 121430879.585 2      -218.813          41.000    23107518.528 1  94621427.098 2      -170.281          41.000  
G19  22673772.309 1 119151482.755 2      1902.390          41.000                                                                  
E24  26283996.258 1 138123311.973 2     -1829.774          42.000    26283991.718 1 105834742.792 1     -1401.975          47.000  
S23  39166502.293 1 205821358.282 2       245.998          40.000  
G23  24466280.916 1 128571176.031 2     -1202.352          41.000    24466273.454 1 100185300.730 3      -936.953          38.000  
C37  22893725.309 1 119213637.388 2      -236.837          43.000                                                                  
C10  40698645.294 4               6      -611.011          31.000    40698632.127 1 163876519.088 2      -472.394          38.000  
R18  22831677.430 1 121877055.543 1      2393.303          46.000    22831671.064 8  94793230.26435      1861.805          37.000  
R08  23424204.761 1 125435558.629 2      3473.242          43.000    23424180.827 9               6      2702.073          33.000  
R06  22342781.454 2 119225359.554 3     -3620.891          37.000                                                                  
R10  24238343.500 2 129203995.951 3      3428.781          38.000                                                                  
E03  24925934.693 1 130986657.237 1      -355.761          44.000    24925930.759 1 100366392.669 1      -272.565          45.000  
E05  26790670.710 1 140785906.061 2     -2631.371          38.000    26790668.449 1 107874907.147 1     -2016.128          42.000  
G20  24798501.446 1 130317000.967 2     -1447.742          38.000                                                                  
E12  26876592.001 8               7      1991.612          28.000    26876582.810 1 108220861.072 2      1526.070          41.000  
G24  21358158.097 1 112237879.320 1      1468.916          44.000    21358150.904 1  87458059.681 2      1144.315          41.000  
E25  24394887.384 1 128196011.875 1       515.527          43.000    24394883.081 1  98228091.247 1       395.122          43.000  
E08  25205218.901 1 132454309.264 2      2318.001          40.000    25205214.535 1 101490961.317 2      1776.053          42.000  
E02  26869258.363 1 141198925.274 1      2490.891          43.000    26869255.433 1 108191355.082 1      1908.462          43.000  
G12  23222567.662 1 122035425.123 1      3359.298          46.000    23222559.791 2  95092501.011 4      2618.072          34.000  
E33                                                                  29262184.891 1               6      -152.790          29.000  
> 2021 03 11 09 57 58.0030000  0 37                     
G13  23049337.209 1 121125070.335 1     -2893.384          43.000                                                                  
G14  24947397.530 1 131099488.262 3     -3117.955          36.000    24947390.886 1 102155407.026 3     -2429.262          35.000  
G15  21896020.906 1 115064367.745 2     -1630.801          44.000    21896013.268 1  89660500.000 3     -1270.924          38.000  
G10  25054158.404 1 131660504.636 2       725.957          42.000    25054151.896 2 102592576.823 5       565.469          33.000  
G28  24589121.475 1 129216708.439 2     -2783.124          40.000                                                                  
S36  38979201.005 1 204837080.339 2       247.850          40.000  
C20  24959637.076 1 129971373.504 1     -2121.445          46.000                                                                  
C23  25704554.586 1 133850367.283 2     -2239.327          40.000                                                                  
C28  25306479.451 1 131777485.538 2      2532.142          38.000                                                                  
C19  24662616.300 1 128424719.800 2       604.730          43.000                                                                  
C11  27055547.777 1 140885336.305 4     -1310.740          34.000    27055538.170 1 108941431.033 2     -1013.111          40.000  
R15  25275921.176 2 135066805.094 2     -3133.706          41.000                                                                  
R09  20897549.443 1 111591745.550 1      1549.585          45.000    20897548.949 4  86793578.40122      1205.253          42.000  
R17  23500338.561 1 125755069.131 1     -1027.167          43.000                                                                  
R07  21066509.182 1 112770673.863 1       -10.123          47.000    21066505.578 4  87710497.09023        -7.843          40.000  
R16  21085854.815 2 112636859.433 2     -1654.227          40.000    21085852.766 4  87606432.73424     -1286.630          39.000  
G17  23107566.449 1 121431098.530 2      -219.000          40.000    23107560.203 1  94621597.723 2      -170.634          41.000  
G19  22673410.239 1 119149580.466 2      1901.983          41.000                                                                  
E24  26284344.329 1 138125141.613 2     -1829.346          42.000    26284339.936 1 105836144.731 1     -1401.859          46.000  
S23  39166455.454 1 205821112.302 2       245.933          40.000  
G23  24466509.788 1 128572378.455 2     -1202.625          41.000    24466502.445 1 100186237.690 2      -937.184          38.000  
C37  22893770.781 1 119213874.230 2      -236.852          43.000                                                                  
C10  40698760.423 4               7      -610.987          31.000    40698749.508 1 163876991.635 3      -472.432          38.000  
R18  22831229.066 1 121874662.533 1      2392.773          44.000    22831224.816 8  94791377.04424      1861.275          38.000  
R08  23423556.204 1 125432085.281 2      3473.064          42.000    23423533.814 8               6      2700.828          33.000  
R06  22343460.132 2 119228980.494 3     -3621.152          36.000                                                                  
R10  24237700.400 2 129200566.947 3      3429.279          36.000                                                                  
E03  24926002.421 1 130987012.985 1      -355.845          44.000    24925998.530 1 100366665.254 1      -272.664          45.000  
E05  26791171.303 1 140788537.498 2     -2631.414          38.000    26791169.182 1 107876923.438 2     -2016.103          42.000  
G20  24798776.893 1 130318448.623 2     -1447.650          38.000                                                                  
E12  26876213.741 8               7      1990.614          28.000    26876203.768 1 108219335.188 2      1525.735          41.000  
G24  21357878.526 1 112236410.675 1      1468.707          44.000    21357871.492 1  87456915.263 2      1144.569          41.000  
E25  24394789.034 1 128195496.217 2       515.707          43.000    24394785.019 1  98227696.144 1       395.095          44.000  
E08  25204777.752 1 132451991.363 2      2317.761          40.000    25204773.377 1 101489185.251 2      1776.034          42.000  
E02  26868784.423 1 141196434.399 1      2490.963          43.000    26868781.438 1 108189446.494 1      1908.552          43.000  
G12  23221928.431 1 122032065.753 1      3359.580          46.000    23221920.489 1  95089883.320 4      2618.188          35.000  
E33                                                                  29262222.922 1               6      -153.525          29.000  
> 2021 03 11 09 57 59.0030000  0 37                     
G13  23049887.846 1 121127964.118 1     -2893.981          43.000                                                                  
G14  24947990.829 1 131102606.022 3     -3117.870          35.000    24947984.133 1 102157836.446 4     -2429.713          35.000  
G15  21896331.339 1 115065998.989 2     -1631.476          44.000    21896323.595 1  89661771.083 3     -1270.812          38.000  
G10  25054020.356 1 131659779.152 2       725.298          42.000    25054013.863 2 102592011.521 5       565.181          33.000  
G28  24589651.149 1 129219491.712 2     -2783.075          40.000                                                                  
S36  38979153.892 1 204836832.672 2       247.817          40.000  
C20  24960044.564 1 129973495.052 1     -2121.608          46.000                                                                  
C23  25704984.559 1 133852606.798 2     -2239.431          40.000                                                                  
C28  25305993.267 1 131774954.126 3      2531.497          38.000                                                                  
C19  24662500.219 1 128424115.544 2       603.729          43.000                                                                  
C11  27055799.536 1 140886646.535 4     -1309.721          35.000    27055789.700 1 108942444.202 2     -1013.156          40.000  
R15  25276507.647 2 135069938.667 2     -3133.237          41.000                                                                  
R09  20897259.420 1 111590196.434 1      1548.964          45.000    20897258.588 2  86792373.03712      1204.585          41.000  
R17  23500530.651 1 125756096.705 1     -1027.719          44.000    23500497.734 9               7      -799.606          39.000  
R07  21066511.130 1 112770684.451 1       -10.915          47.000    21066507.232 4  87710505.32923        -8.539          39.000  
R16  21086164.464 2 112638513.947 2     -1654.272          40.000    21086162.667 4  87607718.57934     -1286.644          38.000  
G17  23107608.218 1 121431318.008 2      -219.596          40.000    23107601.946 1  94621768.739 2      -170.878          40.000  
G19  22673048.363 1 119147678.687 2      1901.903          41.000                                                                  
E24  26284692.374 1 138126971.291 2     -1829.652          42.000    26284688.124 1 105837546.682 1     -1401.870          46.000  
S23  39166408.668 1 205820866.186 2       246.284          40.000  
G23  24466738.578 1 128573581.296 2     -1203.016          41.000    24466731.292 1 100187174.961 3      -937.513          38.000  
C37  22893816.270 1 119214111.260 2      -237.130          43.000                                                                  
C10  40698878.385 4               6      -610.725          31.000    40698866.876 1 163877464.088 2      -472.521          38.000  
R18  22830780.921 1 121872270.143 1      2392.007          44.000    22830778.456 4  94789524.27724      1860.794          37.000  
R08  23422907.726 1 125428612.413 2      3472.857          42.000    23422885.934 4               6      2700.753          34.000  
R06  22344138.655 2 119232601.760 3     -3621.315          36.000                                                                  
R10  24237057.315 2 129197137.980 3      3429.491          36.000                                                                  
E03  24926070.387 1 130987369.081 1      -356.057          44.000    24926066.247 1 100366938.107 1      -272.935          45.000  
E05  26791672.033 1 140791169.012 2     -2631.254          38.000    26791669.969 1 107878939.799 1     -2016.265          42.000  
G20  24799052.299 1 130319896.654 3     -1448.010          37.000                                                                  
E12  26875833.034 8               7      1991.098          28.000    26875824.715 1 108217809.461 2      1525.828          41.000  
G24  21357599.106 1 112234942.322 1      1468.323          44.000    21357592.077 1  87455771.097 2      1144.251          41.000  
E25  24394691.183 1 128194980.737 2       515.542          43.000    24394687.009 1  98227301.157 1       394.953          44.000  
E08  25204336.657 1 132449673.647 2      2317.509          40.000    25204332.317 1 101487409.344 2      1775.968          42.000  
E02  26868310.296 1 141193943.584 1      2491.034          43.000    26868307.375 1 108187537.936 1      1908.682          43.000  
G12  23221289.293 1 122028706.617 1      3359.199          46.000    23221281.232 1  95087265.819 4      2617.473          35.000  
E33                                                                  29262260.953 1               6      -152.801          30.000  
> 2021 03 11 09 58 00.0030000  0 37                     
G13  23050438.678 1 121130858.209 1     -2894.326          43.000                                                                  
G14  24948584.256 1 131105723.835 4     -3117.737          35.000    24948577.465 1 102160265.894 4     -2429.007          35.000  
G15  21896641.881 1 115067630.745 1     -1631.834          44.000    21896634.051 1  89663042.600 3     -1271.649          37.000  
G10  25053882.431 1 131659054.257 2       724.470          42.000    25053875.849 1 102591446.673 4       564.619          33.000  
G28  24590180.841 1 129222275.047 2     -2783.447          40.000                                                                  
S36  38979106.760 1 204836584.973 2       247.818          40.000  
C20  24960451.974 1 129975616.943 1     -2121.963          46.000                                                                  
C23  25705414.541 1 133854846.361 2     -2239.389          40.000                                                                  
C28  25305507.263 1 131772423.027 2      2530.900          38.000                                                                  
C19  24662384.295 1 128423511.773 2       603.528          43.000                                                                  
C11  27056051.312 1 140887957.304 4     -1311.181          35.000    27056041.409 1 108943457.757 2     -1013.798          41.000  
R15  25277093.926 2 135073072.144 2     -3133.044          41.000                                                                  
R09  20896969.405 1 111588647.655 1      1548.821          45.000    20896968.599 2  86791168.447 2      1204.373          41.000  
R17  23500722.780 1 125757125.098 1     -1028.801          44.000    23500696.500 9  97810979.62934      -800.223          39.000  
R07  21066513.323 1 112770695.933 1       -11.880          47.000    21066509.301 2  87710514.25523        -9.156          39.000  
R16  21086474.239 2 112640168.744 2     -1654.940          40.000    21086472.030 4  87609003.65134     -1287.057          38.000  
G17  23107650.098 1 121431538.073 2      -220.252          41.000    23107643.731 1  94621940.220 2      -171.701          40.000  
G19  22672686.684 1 119145777.528 2      1900.807          42.000                                                                  
E24  26285040.651 1 138128801.024 2     -1829.668          42.000    26285036.303 1 105838948.687 1     -1401.893          46.000  
S23  39166361.835 1 205820620.049 2       246.072          40.000  
G23  24466967.478 1 128574784.634 2     -1203.522          41.000    24466960.302 1 100188112.624 3      -937.607          38.000  
C37  22893861.887 1 119214348.509 1      -237.319          43.000                                                                  
C10  40698994.403 4               7      -611.047          31.000    40698984.228 1 163877936.515 2      -472.147          38.000  
R18  22830332.866 1 121869878.426 1      2391.444          44.000    22830328.921 4  94787657.56934      1859.775          37.000  
R08  23422259.338 1 125425140.079 2      3472.397          42.000    23422303.139 9               7      2700.742          34.000  
R06  22344817.343 2 119236223.459 3     -3621.776          36.000                                                                  
R10  24236414.273 2 129193709.156 3      3429.059          36.000                                                                  
E03  24926138.236 1 130987725.627 1      -356.907          44.000    24926134.190 1 100367211.294 1      -273.252          45.000  
E05  26792172.888 1 140793800.706 2     -2631.958          38.000    26792170.837 1 107880956.286 1     -2016.579          42.000  
G20  24799327.805 1 130321345.110 2     -1448.633          38.000                                                                  
E12  26875454.089 8               7      1990.446          28.000    26875446.017 1 108216284.009 2      1525.437          41.000  
G24  21357319.736 1 112233474.306 1      1467.901          44.000    21357312.782 1  87454627.195 2      1143.743          41.000  
E25  24394593.221 1 128194465.480 2       515.591          43.000    24394588.848 1  98226906.360 1       394.834          44.000  
E08  25203895.723 1 132447356.220 2      2317.403          40.000    25203891.440 1 101485633.661 2      1775.646          42.000  
E02  26867836.317 1 141191452.900 1      2490.776          43.000    26867833.431 1 108185629.508 2      1908.249          43.000  
G12  23220650.111 1 122025347.765 1      3358.867          46.000    23220642.083 1  95084648.533 4      2616.977          34.000  
E33                                                                  29262298.944 1               7      -153.753          29.000  
> 2021 03 11 09 58 01.0030000  0 37                     
G13  23050989.468 1 121133752.708 1     -2894.829          43.000                                                                  
G14  24949177.514 1 131108841.811 3     -3118.202          35.000    24949170.798 2 102162695.501 4     -2429.894          35.000  
G15  21896952.505 1 115069263.157 1     -1632.903          44.000    21896944.708 1  89664314.589 3     -1272.307          37.000  
G10  25053744.624 1 131658330.032 2       723.702          42.000    25053738.083 2 102590882.369 4       563.129          33.000  
G28  24590710.450 1 129225058.492 2     -2783.545          40.000                                                                  
S36  38979059.690 1 204836337.423 2       247.485          40.000  
C20  24960859.579 1 129977739.269 1     -2122.703          45.000                                                                  
C23  25705844.687 1 133857086.086 2     -2239.917          40.000                                                                  
C28  25305021.196 1 131769892.363 3      2530.221          38.000                                                                  
C19  24662268.336 1 128422908.651 2       602.618          43.000                                                                  
C11  27056303.113 1 140889268.601 4     -1312.007          35.000    27056293.180 1 108944471.716 2     -1014.235          41.000  
R15  25277680.305 2 135076205.644 2     -3133.622          41.000                                                                  
R09  20896679.403 1 111587099.364 1      1547.794          45.000    20896678.584 2  86789964.205 2      1203.940          42.000  
R17  23500915.104 1 125758154.422 1     -1030.087          44.000    23500895.504 9  97811807.21724      -801.401          40.000  
R07  21066515.585 1 112770708.454 1       -13.150          48.000    21066511.703 2  87710524.00423       -10.624          39.000  
R16  21086784.119 2 112641823.917 2     -1655.676          40.000    21086780.953 4  87610290.50514     -1287.618          38.000  
G17  23107692.068 1 121431758.824 2      -221.043          41.000    23107685.719 1  94622112.224 2      -172.148          40.000  
G19  22672324.909 1 119143877.044 2      1900.065          41.000                                                                  
E24  26285388.963 1 138130630.950 2     -1830.277          42.000    26285384.532 1 105840350.833 1     -1402.333          46.000  
S23  39166315.014 1 205820373.982 2       245.367          40.000  
G23  24467196.530 1 128575988.561 2     -1204.224          41.000    24467189.407 1 100189050.761 2      -938.756          38.000  
C37  22893907.567 1 119214586.105 1      -237.944          43.000                                                                  
C10  40699111.711 4               6      -611.205          31.000    40699101.563 1 163878408.967 2      -472.375          38.000  
R18  22829885.070 1 121867487.550 1      2390.290          44.000    22829879.094 4  94785789.99823      1859.050          38.000  
R08  23421611.163 1 125421668.414 2      3471.173          42.000    23421643.901 9               7      2699.420          35.000  
R06  22345496.075 2 119239845.649 3     -3622.904          36.000                                                                  
R10  24235771.182 2 129190280.537 3      3428.325          36.000                                                                  
E03  24926206.060 1 130988082.661 1      -357.463          44.000    24926202.245 1 100367484.878 1      -273.896          45.000  
E05  26792673.614 1 140796432.640 2     -2632.258          38.000    26792671.561 1 107882972.966 1     -2017.011          42.000  
G20  24799603.467 1 130322794.081 3     -1449.127          37.000                                                                  
E12  26875078.229 8               8      1989.725          28.000    26875067.329 1 108214758.869 1      1524.740          41.000  
G24  21357040.474 1 112232006.755 1      1467.131          44.000    21357033.555 1  87453483.655 2      1143.063          41.000  
E25  24394495.213 1 128193950.586 2       514.578          43.000    24394490.902 1  98226511.823 1       394.271          44.000  
E08  25203454.854 1 132445039.155 2      2316.719          40.000    25203450.489 1 101483858.258 2      1774.966          42.000  
E02  26867362.456 1 141188962.454 1      2490.111          43.000    26867359.476 1 108183721.234 1      1908.069          43.000  
G12  23220011.029 1 122021989.304 1      3358.053          46.000    23220003.016 1  95082031.510 4      2617.158          35.000  
E33                                                                  29262337.208 1               7      -154.725          29.000  
> 2021 03 11 09 58 02.0030000  0 37                     
G13  23051540.346 1 121136647.551 2     -2895.083          43.000                                                                  
G14  24949770.732 1 131111959.850 4     -3118.034          35.000    24949764.138 2 102165125.129 4     -2429.570          35.000  
G15  21897263.259 1 115070896.090 1     -1633.182          45.000    21897255.398 1  89665587.018 3     -1272.651          38.000  
G10  25053606.903 1 131657606.430 2       723.362          42.000    25053600.330 2 102590318.452 5       564.077          33.000  
G28  24591240.167 1 129227842.031 2     -2783.527          40.000                                                                  
S36  38979012.557 1 204836089.868 2       247.713          40.000  
C20  24961267.123 1 129979861.962 1     -2122.953          45.000                                                                  
C23  25706274.950 1 133859325.902 2     -2239.892          40.000                                                                  
C28  25304535.277 1 131767362.013 3      2529.998          38.000                                                                  
C19  24662152.516 1 128422306.086 2       602.502          43.000                                                                  
C11  27056555.121 1 140890580.373 4     -1312.162          35.000    27056545.104 1 108945486.053 2     -1014.353          41.000  
R15  25278266.758 2 135079339.090 2     -3133.207          41.000                                                                  
R09  20896389.522 1 111585551.439 1      1547.837          45.000    20896388.601 2  86788760.272 2      1203.798          42.000  
R17  23501107.675 1 125759184.570 1     -1030.497          44.000    23501109.514 9  97812697.95135      -801.699          40.000  
R07  21066518.001 1 112770721.915 1       -13.904          48.000    21066514.281 4  87710544.43234       -10.150          39.000  
R16  21087094.079 2 112643479.390 2     -1655.640          39.000    21087090.359 4  87611578.094 3     -1287.514          39.000  
G17  23107734.182 1 121431980.181 2      -221.610          41.000    23107727.863 1  94622284.723 2      -172.582          40.000  
G19  22671963.414 1 119141977.199 2      1899.553          41.000                                                                  
E24  26285737.150 1 138132460.967 2     -1830.076          41.000    26285732.865 1 105841753.063 1     -1402.254          47.000  
S23  39166268.213 1 205820127.909 2       246.184          40.000  
G23  24467425.642 1 128577193.017 2     -1204.601          41.000    24467418.645 1 100189989.283 3      -938.380          37.000  
C37  22893953.347 1 119214823.948 1      -237.770          43.000                                                                  
C10  40699229.131 4               6      -610.946          31.000    40699218.877 1 163878881.416 2      -472.121          38.000  
R18  22829437.313 1 121865097.395 1      2389.765          44.000    22829432.227 8  94783934.49635      1858.677          38.000  
R08  23420963.008 1 125418197.292 2      3470.869          42.000    23420985.222 9  97547576.28135      2699.986          34.000  
R06  22346174.990 2 119243468.243 3     -3622.953          36.000                                                                  
R10  24235128.121 2 129186852.026 3      3428.627          36.000                                                                  
E03  24926274.088 1 130988440.158 1      -357.694          44.000    24926270.175 1 100367758.804 1      -274.169          44.000  
E05  26793174.429 1 140799064.759 2     -2632.283          38.000    26793172.478 1 107884989.779 2     -2016.923          42.000  
G20  24799879.267 1 130324243.518 3     -1449.695          37.000                                                                  
E12  26874700.856 8               7      1989.671          28.000    26874688.707 1 108213233.978 1      1524.758          41.000  
G24  21356761.190 1 112230539.572 1      1467.122          44.000    21356754.388 1  87452340.390 2      1143.153          41.000  
E25  24394397.335 1 128193435.951 2       514.489          43.000    24394392.921 1  98226117.495 1       394.230          44.000  
E08  25203013.934 1 132442722.411 2      2316.462          41.000    25203009.500 1 101482083.083 2      1774.992          42.000  
E02  26866888.594 1 141186472.168 1      2490.103          43.000    26866885.488 1 108181813.090 1      1907.992          43.000  
G12  23219372.026 1 122018631.151 1      3357.969          46.000    23219364.003 1  95079414.833 3      2616.016          35.000  
E33                                                                  29262375.598 1               7      -154.634          29.000  
> 2021 03 11 09 58 03.0030000  0 37                     
G13  23052091.324 1 121139542.834 1     -2895.432          43.000                                                                  
G14  24950364.159 1 131115078.087 4     -3118.932          34.000    24950357.507 2 102167554.896 4     -2429.621          35.000  
G15  21897574.082 1 115072529.703 1     -1634.012          45.000    21897566.284 1  89666859.974 3     -1273.258          38.000  
G10  25053469.315 1 131656883.556 2       722.354          42.000    25053462.730 2 102589755.219 5       562.543          33.000  
G28  24591769.912 1 129230625.739 2     -2783.710          40.000                                                                  
S36  38978965.509 1 204835842.423 2       247.506          40.000  
C20  24961674.913 1 129981985.108 1     -2123.415          45.000                                                                  
C23  25706705.084 1 133861565.893 2     -2240.288          40.000                                                                  
C28  25304049.439 1 131764832.113 3      2529.714          38.000                                                                  
C19  24662036.935 1 128421704.187 2       601.703          43.000                                                                  
C11  27056807.276 1 140891892.728 3     -1312.970          35.000    27056797.134 1 108946500.855 2     -1015.066          41.000  
R15  25278853.246 2 135082472.577 2     -3133.485          41.000    25278863.671 9               9     -2437.339          28.000  
R09  20896099.831 1 111584003.992 1      1547.163          46.000    20896098.708 2  86787556.20032      1203.426          42.000  
R17  23501300.334 1 125760215.667 1     -1031.497          44.000    23501300.592 9  97813499.90024      -802.102          40.000  
R07  21066520.625 1 112770736.434 1       -15.002          47.000    21066515.725 4  87710549.75024       -11.562          40.000  
R16  21087404.041 2 112645135.281 2     -1655.898          39.000    21087399.394 4  87612866.51223     -1287.960          39.000  
G17  23107776.405 1 121432202.277 2      -222.483          40.000    23107770.136 1  94622457.775 2      -173.233          40.000  
G19  22671602.051 1 119140078.070 2      1898.618          42.000                                                                  
E24  26286085.432 1 138134291.202 2     -1830.362          41.000    26286081.054 1 105843155.448 1     -1402.432          47.000  
S23  39166221.391 1 205819881.946 2       245.655          40.000  
G23  24467654.947 1 128578398.104 2     -1205.290          41.000    24467648.079 1 100190928.304 2      -938.882          38.000  
C37  22893999.032 1 119215062.169 1      -238.499          43.000                                                                  
C10  40699348.939 4               6      -610.980          31.000    40699336.214 1 163879353.979 2      -472.804          38.000  
R18  22828989.642 1 121862708.105 1      2388.799          44.000    22828984.773 4  94782076.63134      1858.184          38.000  
R08  23420315.003 1 125414726.849 1      3469.973          42.000    23420330.634 9  97544877.05625      2699.478          34.000  
R06  22346854.043 2 119247091.376 3     -3623.635          36.000                                                                  
R10  24234484.991 2 129183423.792 3      3427.991          36.000                                                                  
E03  24926342.135 1 130988798.205 1      -358.314          44.000    24926338.283 1 100368033.154 1      -274.652          45.000  
E05  26793675.493 1 140801697.178 3     -2632.696          38.000    26793673.357 1 107887006.819 2     -2017.187          42.000  
G20  24800155.102 1 130325693.477 3     -1450.421          37.000                                                                  
E12  26874324.452 8               6      1989.296          28.000    26874310.061 1 108211709.432 2      1524.358          41.000  
G24  21356482.098 1 112229072.905 1      1466.357          44.000    21356475.322 1  87451197.528 2      1142.484          41.000  
E25  24394299.387 1 128192921.687 2       514.192          43.000    24394295.112 1  98225723.449 1       393.877          44.000  
E08  25202573.263 1 132440406.057 2      2316.224          40.000    25202568.626 1 101480308.211 2      1774.687          42.000  
E02  26866414.791 1 141183982.134 1      2489.772          43.000    26866411.553 1 108179905.142 1      1907.777          43.000  
G12  23218733.097 1 122015273.432 1      3357.527          46.000    23218724.971 1  95076798.388 4      2616.531          35.000  
E33                                                                  29262414.136 1               6      -155.017          29.000  
> 2021 03 11 09 58 04.0030000  0 37                     
G13  23052642.320 1 121142438.378 1     -2895.801          43.000                                                                  
G14  24950957.881 1 131118196.252 3     -3117.911          35.000    24950950.804 2 102169984.689 4     -2430.124          35.000  
G15  21897885.060 1 115074163.764 1     -1634.292          45.000    21897877.116 1  89668133.257 3     -1273.556          37.000  
G10  25053331.890 1 131656161.174 2       721.927          42.000    25053325.304 2 102589192.313 5       562.502          33.000  
G28  24592299.607 1 129233409.460 2     -2783.942          40.000                                                                  
S36  38978918.419 1 204835594.884 2       247.306          40.000  
C20  24962082.704 1 129984108.521 1     -2123.735          45.000                                                                  
C23  25707135.124 1 133863805.855 2     -2239.916          40.000                                                                  
C28  25303563.610 1 131762302.481 3      2529.244          38.000                                                                  
C19  24661921.544 1 128421102.744 1       601.147          43.000                                                                  
C11  27057059.445 1 140893205.468 4     -1313.074          35.000    27057049.240 1 108947515.946 2     -1015.266          41.000  
R15  25279439.619 2 135085605.923 2     -3133.424          41.000    25279448.449 9               8     -2435.867          28.000  
R09  20895810.081 1 111582456.835 1      1546.877          46.000    20895808.877 1  86786352.85022      1203.118          42.000  
R17  23501493.203 1 125761247.465 1     -1032.194          44.000    23501492.843 9  97814302.42923      -802.855          39.000  
R07  21066523.465 1 112770751.763 1       -15.930          48.000    21066517.117 4  87710561.65923       -12.033          38.000  
R16  21087714.120 2 112646791.342 2     -1656.131          40.000    21087709.583 4  87614154.55823     -1288.310          38.000  
G17  23107818.669 1 121432424.873 2      -223.048          41.000    23107812.455 1  94622631.238 2      -173.874          40.000  
G19  22671240.701 1 119138179.471 2      1898.158          42.000                                                                  
E24  26286433.885 1 138136121.445 2     -1830.323          42.000    26286429.337 1 105844557.840 1     -1402.499          46.000  
S23  39166174.431 1 205819635.829 2       246.079          40.000  
G23  24467884.337 1 128579603.617 2     -1206.065          41.000    24467877.512 1 100191867.680 3      -939.741          37.000  
C37  22894044.807 1 119215300.541 1      -238.579          43.000                                                                  
C10  40699465.961 4               6      -611.871          31.000    40699453.554 1 163879826.422 2      -472.571          38.000  
R18  22828542.102 1 121860319.418 1      2388.163          44.000    22828537.126 8  94780218.78324      1857.249          38.000  
R08  23419667.075 1 125411256.864 2      3469.476          43.000    23419679.377 8  97542136.70635      2698.831          33.000  
R06  22347533.012 2 119250714.824 3     -3623.654          36.000                                                                  
R10  24233842.024 2 129179995.565 3      3428.265          36.000                                                                  
E03  24926410.334 1 130989156.613 1      -358.681          44.000    24926406.481 1 100368307.772 1      -274.895          45.000  
E05  26794176.476 1 140804329.663 2     -2632.735          38.000    26794174.402 1 107889023.931 1     -2017.396          42.000  
G20  24800431.099 1 130327143.778 3     -1450.348          37.000                                                                  
E12  26873945.435 8 141223514.60315      1989.545          28.000    26873931.401 1 108210185.067 2      1524.253          41.000  
G24  21356203.061 1 112227606.498 1      1466.038          44.000    21356196.333 1  87450054.879 2      1142.512          42.000  
E25  24394201.469 1 128192407.590 2       513.772          43.000    24394197.351 1  98225329.523 1       393.682          44.000  
E08  25202132.280 1 132438089.919 2      2315.938          40.000    25202128.010 1 101478533.514 1      1774.406          42.000  
E02  26865940.906 1 141181492.145 1      2489.916          43.000    26865937.770 1 108177997.243 1      1907.724          43.000  
G12  23218094.239 1 122011915.924 1      3357.270          46.000    23218086.093 1  95074182.159 4      2616.360          35.000  
E33                                                                  29262452.614 1               7      -155.010          29.000  
> 2021 03 11 09 58 05.0030000  0 37                     
G13  23053193.412 1 121145334.267 1     -2895.833          43.000                                                                  
G14  24951551.328 1 131121314.565 4     -3118.431          35.000    24951544.224 1 102172414.490 4     -2429.688          35.000  
G15  21898196.101 1 115075798.410 1     -1634.798          45.000    21898188.189 1  89669407.000 2     -1273.723          37.000  
G10  25053194.529 1 131655439.442 1       721.568          42.000    25053187.879 2 102588629.952 5       561.868          33.000  
G28  24592829.315 1 129236193.247 2     -2783.557          40.000                                                                  
S36  38978871.272 1 204835347.425 2       247.364          40.000  
C20  24962490.490 1 129986232.304 1     -2123.713          45.000                                                                  
C23  25707565.368 1 133866045.937 2     -2239.809          40.000                                                                  
C28  25303077.854 1 131759773.204 2      2529.296          38.000                                                                  
C19  24661806.092 1 128420501.886 1       600.708          43.000                                                                  
C11  27057311.710 1 140894518.693 4     -1313.114          35.000    27057301.401 1 108948531.430 2     -1015.308          41.000  
R15  25280026.014 2 135088739.204 2     -3133.073          42.000    25280033.934 9               9     -2436.741          28.000  
R09  20895520.368 1 111580910.073 1      1546.787          47.000    20895518.154 4  86785144.82534      1202.833          42.000  
R17  23501686.120 1 125762280.154 1     -1033.149          45.000    23501685.386 8  97815105.59723      -803.193          39.000  
R07  21066526.582 1 112770767.987 1       -16.417          49.000    21066519.703 4  87710566.30034       -13.136          38.000  
R16  21088024.164 2 112648447.693 2     -1656.198          42.000    21088020.597 4  87615442.81523     -1288.109          38.000  
G17  23107861.141 1 121432648.112 2      -223.589          41.000    23107854.842 1  94622805.183 2      -174.009          40.000  
G19  22670879.572 1 119136281.515 2      1897.594          42.000                                                                  
E24  26286782.257 1 138137951.809 2     -1830.167          42.000    26286777.711 1 105845960.326 1     -1402.375          47.000  
S23  39166127.517 1 205819389.716 2       246.376          40.000  
G23  24468113.757 1 128580809.654 2     -1205.924          41.000    24468107.049 1 100192807.456 3      -940.133          37.000  
C37  22894090.584 1 119215539.197 1      -238.611          43.000                                                                  
C10  40699582.510 4               6      -610.365          31.000    40699570.883 1 163880298.886 2      -472.740          38.000  
R18  22828094.672 1 121857931.473 1      2387.767          46.000    22828089.978 8  94778361.48734      1857.034          37.000  
R08  23419019.208 1 125407787.482 2      3469.241          44.000    23419026.605 8  97539438.27825      2698.564          33.000  
R06  22348212.154 2 119254338.728 3     -3623.837          36.000                                                                  
R10  24233199.013 2 129176567.478 3      3428.713          37.000                                                                  
E03  24926478.749 1 130989515.489 1      -358.986          44.000    24926474.890 1 100368582.750 1      -275.100          45.000  
E05  26794677.431 1 140806962.373 3     -2632.822          38.000    26794675.331 1 107891041.176 2     -2016.968          42.000  
G20  24800707.206 1 130328594.558 3     -1450.922          37.000                                                                  
E12  26873564.200 8               7      1989.498          29.000    26873552.974 1 108208660.988 2      1523.996          41.000  
G24  21355924.039 1 112226140.471 1      1466.029          44.000    21355917.450 1  87448912.531 2      1142.069          42.000  
E25  24394103.717 1 128191893.776 2       513.916          43.000    24394099.495 1  98224935.812 1       393.964          44.000  
E08  25201691.662 1 132435774.095 2      2315.867          40.000    25201687.275 1 101476759.054 2      1774.353          41.000  
E02  26865467.222 1 141179002.364 1      2489.864          44.000    26865463.987 1 108176089.481 1      1907.796          43.000  
G12  23217455.393 1 122008558.751 1      3357.256          45.000    23217447.305 1  95071566.181 3      2615.763          35.000  
E33                                                                  29262491.201 1 117827928.135 5      -155.765          29.000  
> 2021 03 11 09 58 06.0030000  0 37                     
G13  23053744.502 1 121148230.459 1     -2896.268          43.000                                                                  
G14  24952144.784 1 131124432.877 4     -3118.357          35.000    24952137.673 1 102174844.377 3     -2430.171          35.000  
G15  21898507.279 1 115077433.545 1     -1635.298          45.000    21898499.340 1  89670681.151 3     -1274.599          37.000  
G10  25053057.341 1 131654718.281 1       720.841          43.000    25053050.597 1 102588067.969 4       561.743          33.000  
G28  24593359.039 1 129238977.079 2     -2783.899          40.000                                                                  
S36  38978824.102 1 204835099.903 2       247.500          40.000  
C20  24962898.345 1 129988356.410 1     -2124.225          45.000                                                                  
C23  25707995.527 1 133868286.054 2     -2240.312          40.000                                                                  
C28  25302592.206 1 131757244.200 3      2528.975          38.000                                                                  
C19  24661690.758 1 128419901.521 2       600.403          43.000                                                                  
C11  27057564.074 1 140895832.391 4     -1314.443          35.000    27057553.630 1 108949547.249 2     -1015.936          41.000  
R15  25280612.394 1 135091872.352 2     -3132.725          42.000    25280620.512 8               8     -2436.981          28.000  
R09  20895230.845 1 111579363.635 1      1546.289          47.000    20895226.917 4  86783942.04522      1202.510          43.000  
R17  23501879.187 1 125763313.632 1     -1033.992          45.000    23501878.462 4  97815909.42723      -804.092          41.000  
R07  21066529.836 1 112770785.039 1       -17.502          49.000    21066520.879 4  87710579.53623       -13.392          40.000  
R16  21088334.352 1 112650104.277 2     -1656.691          41.000    21088330.768 4  87616731.27823     -1288.547          38.000  
G17  23107903.667 1 121432871.920 2      -224.003          41.000    23107897.434 1  94622979.593 2      -175.005          40.000  
G19  22670518.469 1 119134384.119 2      1897.173          42.000                                                                  
E24  26287130.748 1 138139782.243 2     -1830.519          42.000    26287126.066 1 105847362.852 1     -1402.445          47.000  
S23  39166080.749 1 205819143.554 2       245.961          40.000  
G23  24468343.353 1 128582016.185 2     -1206.812          41.000    24468336.726 1 100193747.593 3      -940.418          37.000  
C37  22894136.359 1 119215778.064 2      -238.837          43.000                                                                  
C10  40699700.953 4               7      -610.506          31.000    40699688.208 1 163880771.282 2      -472.494          38.000  
R18  22827647.350 1 121855544.189 1      2386.959          46.000    22827643.631 8  94776504.73124      1856.025          37.000  
R08  23418371.478 1 125404318.594 2      3468.811          44.000    23418375.110 8  97536705.28035      2697.381          34.000  
R06  22348891.280 2 119257962.992 3     -3624.546          37.000                                                                  
R10  24232556.027 2 129173139.524 3      3427.983          36.000                                                                  
E03  24926547.105 1 130989874.762 1      -359.468          44.000    24926543.315 1 100368858.036 1      -275.367          45.000  
E05  26795178.744 1 140809595.201 2     -2632.866          38.000    26795176.220 1 107893058.557 2     -2017.503          42.000  
G20  24800983.518 1 130330045.721 2     -1451.105          37.000                                                                  
E12  26873183.426 8               7      1988.620          29.000    26873174.430 1 108207137.141 2      1523.659          41.000  
G24  21355645.116 1 112224674.774 1      1465.557          44.000    21355638.549 1  87447770.427 2      1141.807          42.000  
E25  24394006.009 1 128191380.183 1       513.357          43.000    24394001.763 1  98224542.290 1       393.279          44.000  
E08  25201251.017 1 132433458.519 2      2315.506          40.000    25201246.598 1 101474984.782 1      1774.202          42.000  
E02  26864993.332 1 141176512.684 1      2489.487          43.000    26864990.302 1 108174181.795 1      1907.620          43.000  
G12  23216816.615 1 122005201.846 1      3356.858          46.000    23216808.519 1  95068950.438 3      2615.375          35.000  
E33                                                                  29262529.949 1 117828083.914 5      -155.883          29.000  
> 2021 03 11 09 58 07.0030000  0 37                     
G13  23054295.742 1 121151126.931 2     -2896.557          43.000                                                                  
G14  24952738.375 1 131127551.156 4     -3117.385          35.000    24952731.127 1 102177274.245 4     -2430.269          35.000  
G15  21898818.536 1 115079069.189 1     -1635.693          45.000    21898810.546 1  89671955.695 3     -1275.203          37.000  
G10  25052920.236 1 131653997.656 1       720.616          43.000    25052913.479 2 102587506.455 4       561.918          33.000  
G28  24593888.745 1 129241760.925 2     -2783.643          40.000                                                                  
S36  38978776.994 1 204834852.391 2       247.629          40.000  
C20  24963306.349 1 129990480.818 1     -2124.369          45.000                                                                  
C23  25708425.705 1 133870526.187 2     -2240.165          40.000                                                                  
C28  25302106.513 1 131754715.509 2      2528.928          38.000                                                                  
C19  24661575.411 1 128419301.679 2       599.658          42.000                                                                  
C11  27057816.448 1 140897146.478 4     -1314.447          35.000    27057805.975 1 108950563.401 2     -1016.528          41.000  
R15  25281198.751 1 135095005.414 2     -3132.607          42.000    25281203.233 9               9     -2436.920          30.000  
R09  20894941.315 1 111577817.518 1      1546.056          47.000    20894937.689 8  86782734.49832      1202.310          44.000  
R17  23502072.367 1 125764347.904 1     -1034.637          45.000    23502071.519 2  97816713.36813      -804.686          42.000  
R07  21066533.212 1 112770802.955 1       -18.225          49.000    21066523.389 4  87710593.484 3       -13.993          41.000  
R16  21088644.559 1 112651761.125 2     -1656.878          41.000    21088641.441 2  87618019.438 3     -1289.026          40.000  
G17  23107946.320 1 121433096.297 2      -224.645          41.000    23107940.170 1  94623154.401 2      -174.743          40.000  
G19  22670157.554 1 119132487.299 2      1896.842          42.000                                                                  
E24  26287479.100 1 138141612.711 2     -1830.233          41.000    26287474.449 1 105848765.424 1     -1402.433          47.000  
S23  39166033.863 1 205818897.361 2       246.255          40.000  
G23  24468572.950 1 128583223.166 2     -1207.085          41.000    24468566.340 1 100194688.095 3      -940.779          37.000  
C37  22894182.219 1 119216017.132 2      -238.979          43.000                                                                  
C10  40699817.567 4 211934630.03235      -610.794          31.000    40699805.593 1 163881243.633 3      -472.103          38.000  
R18  22827200.327 1 121853157.585 1      2386.476          46.000    22827196.089 8  94774650.94935      1856.338          40.000  
R08  23417723.743 1 125400850.197 2      3468.298          44.000    23417706.267 9               6      2697.857          35.000  
R06  22349570.513 2 119261587.646 3     -3624.596          37.000                                                                  
R10  24231913.135 2 129169711.629 3      3428.101          36.000                                                                  
E03  24926615.713 1 130990234.428 1      -359.769          44.000    24926611.717 1 100369133.625 1      -275.588          45.000  
E05  26795679.643 1 140812228.163 2     -2632.646          38.000    26795677.322 1 107895076.025 1     -2017.310          42.000  
G20  24801259.795 1 130331497.309 3     -1451.624          37.000                                                                  
E12  26872807.046 8               7      1988.854          29.000    26872796.042 1 108205613.512 2      1523.403          41.000  
G24  21355366.235 1 112223209.407 1      1465.246          44.000    21355359.731 1  87446628.582 2      1141.575          41.000  
E25  24393908.240 1 128190866.783 1       513.570          43.000    24393904.207 1  98224148.904 1       393.518          44.000  
E08  25200810.519 1 132431143.209 2      2315.269          40.000    25200806.050 1 101473210.707 2      1774.200          42.000  
E02  26864519.525 1 141174023.094 2      2489.738          44.000    26864516.471 1 108172274.195 1      1907.664          43.000  
G12  23216177.926 1 122001845.211 1      3356.696          46.000    23216169.727 1  95066334.845 3      2615.737          35.000  
E33                                                                  29262568.748 1               6      -156.317          29.000  
> 2021 03 11 09 58 08.0030000  0 37                     
G13  23054847.050 1 121154023.699 1     -2896.846          43.000                                                                  
G14  24953331.652 1 131130669.565 3     -3118.283          35.000    24953324.644 2 102179704.136 4     -2429.997          35.000  
G15  21899129.852 1 115080705.353 1     -1636.457          45.000    21899121.850 1  89673230.606 3     -1275.181          37.000  
G10  25052783.181 1 131653277.626 1       719.917          43.000    25052776.466 2 102586945.382 5       560.910          33.000  
G28  24594418.487 1 129244544.824 2     -2783.825          40.000                                                                  
S36  38978729.826 1 204834604.774 2       247.808          40.000  
C20  24963714.533 1 129992605.557 1     -2124.789          45.000                                                                  
C23  25708855.799 1 133872766.380 2     -2240.446          39.000                                                                  
C28  25301621.088 1 131752187.137 2      2528.269          38.000                                                                  
C19  24661460.291 1 128418702.350 2       599.200          43.000                                                                  
C11  27058068.971 1 140898461.039 4     -1314.669          35.000    27058058.446 1 108951579.892 2     -1016.751          42.000  
R15  25281785.160 2 135098138.399 2     -3132.751          40.000                                                                  
R09  20894651.823 1 111576271.745 1      1545.683          46.000    20894648.500 4  86781532.22322      1202.210          43.000  
R17  23502265.806 1 125765382.951 1     -1035.330          44.000    23502264.855 2  97817518.393 3      -805.110          41.000  
R07  21066536.738 1 112770821.736 1       -19.097          47.000    21066525.591 4  87710608.088 3       -14.752          39.000  
R16  21088954.751 2 112653418.269 2     -1657.281          40.000    21088952.967 4  87619311.32134     -1288.865          38.000  
G17  23107989.084 1 121433321.237 2      -225.296          41.000    23107982.908 1  94623329.688 2      -175.352          40.000  
G19  22669796.660 1 119130591.086 2      1895.972          42.000                                                                  
E24  26287827.429 1 138143443.247 2     -1830.444          42.000    26287822.734 1 105850168.052 1     -1402.602          47.000  
S23  39165987.059 1 205818651.072 2       246.475          40.000  
G23  24468802.593 1 128584430.633 2     -1207.679          41.000    24468796.074 1 100195628.987 3      -941.206          37.000  
C37  22894228.120 1 119216256.443 1      -239.356          43.000                                                                  
C10  40699935.945 4               6      -610.225          31.000    40699922.942 1 163881715.947 2      -472.256          38.000  
R18  22826753.396 1 121850771.685 1      2385.633          44.000    22826747.343 8  94772795.25024      1855.835          37.000  
R08  23417076.023 1 125397382.333 2      3467.580          42.000    23417058.029 9  97531219.37035      2697.560          34.000  
R06  22350249.924 2 119265212.701 4     -3624.855          35.000                                                                  
R10  24231269.953 2 129166283.828 3      3427.877          35.000                                                                  
E03  24926684.115 1 130990594.504 1      -360.152          44.000    24926680.127 1 100369409.537 1      -275.989          45.000  
E05  26796180.654 1 140814861.301 2     -2633.226          38.000    26796178.427 1 107897093.619 1     -2017.645          42.000  
G20  24801536.053 1 130332949.280 2     -1451.831          37.000                                                                  
E12  26872425.253 8               7      1988.166          29.000    26872417.582 1 108204090.116 2      1523.175          41.000  
G24  21355087.413 1 112221744.384 1      1464.987          44.000    21355080.996 1  87445486.997 2      1141.671          41.000  
E25  24393810.699 1 128190353.620 2       513.354          43.000    24393806.592 1  98223755.708 1       393.267          44.000  
E08  25200370.245 1 132428828.162 2      2315.110          40.000    25200365.475 1 101471436.842 2      1773.959          42.000  
E02  26864045.951 1 141171533.630 1      2489.512          44.000    26864042.904 1 108170366.685 1      1907.616          43.000  
G12  23215539.206 1 121998488.852 1      3356.241          46.000    23215530.943 1  95063719.526 4      2614.840          35.000  
E33                                                                  29262607.473 1               6      -156.860          29.000  
> 2021 03 11 09 58 09.0030000  0 37                     
G13  23055398.360 1 121156920.982 1     -2897.517          43.000                                                                  
G14  24953925.017 1 131133788.158 3     -3117.988          35.000    24953918.136 1 102182134.216 3     -2430.205          35.000  
G15  21899441.402 1 115082342.229 1     -1637.123          45.000    21899433.281 1  89674506.087 3     -1275.510          37.000  
G10  25052646.254 1 131652558.376 2       718.868          43.000    25052639.580 1 102586384.956 4       559.533          33.000  
G28  24594948.278 1 129247328.947 2     -2784.210          40.000                                                                  
S36  38978682.718 1 204834357.360 2       247.498          40.000  
C20  24964122.619 1 129994730.828 1     -2125.585          45.000                                                                  
C23  25709286.114 1 133875006.805 2     -2240.568          39.000                                                                  
C28  25301135.616 1 131749659.245 2      2528.109          38.000                                                                  
C19  24661345.296 1 128418103.739 2       598.438          42.000                                                                  
C11  27058321.689 1 140899776.225 4     -1315.166          35.000    27058311.070 1 108952596.879 2     -1017.114          42.000  
R15  25282371.486 2 135101271.510 2     -3133.165          40.000                                                                  
R09  20894362.350 1 111574726.519 1      1545.101          46.000    20894359.690 4  86780329.88812      1201.729          42.000  
R17  23502459.384 1 125766418.985 1     -1036.561          44.000    23502494.649 9               6      -805.783          40.000  
R07  21066540.500 1 112770841.634 1       -20.312          47.000    21066530.298 4  87710623.603 3       -16.151          38.000  
R16  21089265.068 2 112655075.905 2     -1657.777          40.000    21089262.647 4  87620598.58724     -1289.210          38.000  
G17  23108032.029 1 121433546.955 2      -225.882          41.000    23108025.863 1  94623505.602 2      -176.605          40.000  
G19  22669435.947 1 119128695.646 1      1895.203          42.000                                                                  
E24  26288175.954 1 138145274.063 2     -1830.818          42.000    26288171.010 1 105851570.883 1     -1402.872          47.000  
S23  39165940.204 1 205818404.978 2       246.270          40.000  
G23  24469032.431 1 128585638.790 2     -1208.399          41.000    24469026.009 1 100196570.380 3      -941.479          37.000  
C37  22894274.109 1 119216496.164 1      -239.813          43.000                                                                  
C10  40700051.877 4               6      -610.773          31.000    40700040.344 1 163882188.377 2      -472.658          38.000  
R18  22826306.697 1 121848386.707 1      2384.453          44.000    22826299.183 4  94770927.27334      1854.571          37.000  
R08  23416428.630 1 125393915.184 2      3466.960          43.000    23416410.379 9  97528522.76525      2695.795          34.000  
R06  22350929.463 2 119268838.360 4     -3625.281          36.000                                                                  
R10  24230626.994 2 129162856.340 3      3427.409          36.000                                                                  
E03  24926752.818 1 130990955.199 1      -360.815          44.000    24926748.764 1 100369685.911 1      -276.474          45.000  
E05  26796681.979 1 140817494.773 2     -2633.473          38.000    26796679.620 1 107899111.466 2     -2017.941          42.000  
G20  24801812.441 1 130334401.893 3     -1452.985          38.000                                                                  
E12  26872048.205 8               6      1986.971          30.000    26872039.379 1 108202567.090 1      1522.870          41.000  
G24  21354808.745 1 112220279.886 1      1464.380          44.000    21354802.366 1  87444345.843 2      1140.856          41.000  
E25  24393713.089 1 128189840.903 2       512.586          43.000    24393709.061 1  98223362.839 1       392.751          44.000  
E08  25199929.679 1 132426513.588 2      2314.269          40.000    25199925.044 1 101469663.332 2      1773.324          42.000  
E02  26863572.240 1 141169044.491 1      2489.182          44.000    26863569.066 1 108168459.426 2      1907.345          43.000  
G12  23214900.632 1 121995132.972 1      3355.760          45.000    23214892.346 1  95061104.536 4      2614.994          35.000  
E33                                                                  29262646.414 1               6      -157.402          29.000  
> 2021 03 11 09 58 10.0030000  0 37                     
G13  23055949.735 1 121159818.610 1     -2897.545          43.000                                                                  
G14  24954518.748 1 131136906.880 3     -3118.359          34.000    24954511.634 1 102184564.376 3     -2430.153          35.000  
G15  21899753.072 1 115083979.691 1     -1637.498          45.000    21899744.888 1  89675782.030 3     -1276.213          37.000  
G10  25052509.561 1 131651839.758 2       718.512          43.000    25052502.731 2 102585824.985 5       559.197          33.000  
G28  24595478.086 1 129250113.162 2     -2783.948          40.000                                                                  
S36  38978635.611 1 204834110.037 2       247.278          40.000  
C20  24964530.671 1 129996856.472 1     -2125.696          45.000                                                                  
C23  25709716.288 1 133877247.323 2     -2240.089          39.000                                                                  
C28  25300650.196 1 131747131.753 3      2527.573          38.000                                                                  
C19  24661230.397 1 128417505.723 1       597.937          42.000                                                                  
C11  27058574.446 1 140901091.960 4     -1316.176          35.000    27058563.722 1 108953614.278 2     -1017.537          42.000  
R15  25282957.852 2 135104404.568 2     -3132.793          40.000                                                                  
R09  20894073.074 1 111573181.707 1      1544.762          46.000    20894069.198 4  86779128.363 2      1201.586          41.000  
R17  23502653.274 1 125767455.901 1     -1037.450          44.000    23502638.620 9  97819062.17935      -806.245          40.000  
R07  21066544.510 1 112770862.532 1       -21.240          47.000    21066534.811 4  87710639.844 4       -16.636          37.000  
R16  21089575.332 2 112656733.877 3     -1657.877          39.000    21089571.704 4  87621888.09824     -1289.345          37.000  
G17  23108075.148 1 121433773.326 2      -226.415          41.000    23108068.899 1  94623681.981 2      -176.576          40.000  
G19  22669075.240 1 119126800.859 2      1894.641          42.000                                                                  
E24  26288524.580 1 138147105.015 2     -1830.921          42.000    26288519.645 1 105852973.817 1     -1402.925          47.000  
S23  39165893.346 1 205818158.894 2       246.352          40.000  
G23  24469262.389 1 128586847.515 2     -1209.153          41.000    24469256.060 1 100197512.235 3      -942.143          37.000  
C37  22894320.196 1 119216736.185 1      -240.078          43.000                                                                  
C10  40700168.764 4               6      -610.684          31.000    40700157.675 1 163882660.812 2      -472.419          38.000  
R18  22825860.109 1 121846002.500 1      2383.947          44.000    22825852.370 8  94769071.86235      1854.999          35.000  
R08  23415781.210 1 125390448.627 2      3466.467          42.000    23415763.862 8               6      2696.417          34.000  
R06  22351608.980 2 119272464.497 4     -3626.357          36.000                                                                  
R10  24229984.136 2 129159429.019 3      3427.682          36.000                                                                  
E03  24926821.482 1 130991316.374 1      -361.209          44.000    24926817.399 1 100369962.650 1      -276.762          45.000  
E05  26797183.230 1 140820128.454 2     -2633.680          39.000    26797180.731 1 107901129.472 2     -2017.843          42.000  
G20  24802088.769 1 130335854.960 3     -1453.308          37.000                                                                  
E12  26871671.000 4               6      1986.977          30.000    26871661.203 1 108201044.366 2      1522.563          41.000  
G24  21354530.036 1 112218815.796 1      1463.987          44.000    21354523.823 1  87443204.987 2      1140.944          41.000  
E25  24393615.477 1 128189328.470 2       512.456          43.000    24393611.451 1  98222970.200 1       392.555          44.000  
E08  25199489.293 1 132424199.315 2      2314.403          40.000    25199484.667 1 101467890.062 2      1773.417          41.000  
E02  26863098.656 1 141166555.539 1      2489.006          44.000    26863095.283 1 108166552.321 1      1906.981          43.000  
G12  23214262.024 1 121991777.440 1      3355.333          45.000    23214253.772 1  95058489.843 4      2614.596          35.000  
E33                                                                  29262685.661 1               6      -157.193          29.000  
> 2021 03 11 09 58 11.0030000  0 37                     
G13  23056501.204 1 121162716.612 1     -2897.924          43.000                                                                  
G14  24955112.346 1 131140025.702 3     -3118.924          35.000    24955105.075 1 102186994.614 3     -2430.115          36.000  
G15  21900064.778 1 115085617.731 1     -1638.185          45.000    21900056.562 1  89677058.431 3     -1276.674          37.000  
G10  25052372.991 1 131651121.782 2       717.673          43.000    25052366.133 2 102585265.526 4       559.080          33.000  
G28  24596007.943 1 129252897.507 2     -2784.222          40.000                                                                  
S36  38978588.535 1 204833862.691 2       247.253          40.000  
C20  24964939.060 1 129998982.502 1     -2126.093          45.000                                                                  
C23  25710146.541 1 133879487.974 2     -2240.514          39.000                                                                  
C28  25300164.911 1 131744604.622 3      2527.068          38.000                                                                  
C19  24661115.678 1 128416908.282 2       597.345          42.000                                                                  
C11  27058827.265 1 140902408.148 4     -1315.983          35.000    27058816.489 1 108954632.066 2     -1018.011          42.000  
R15  25283544.244 2 135107537.569 2     -3132.678          40.000                                                                  
R09  20893783.836 1 111571637.308 1      1544.452          46.000    20893780.994 4  86777930.16934      1201.086          41.000  
R17  23502847.275 1 125768493.688 1     -1038.154          44.000    23502832.851 9  97819870.87535      -807.514          39.000  
R07  21066548.672 1 112770884.380 1       -22.327          47.000    21066539.227 4  87710647.83733       -17.374          38.000  
R16  21089885.851 2 112658392.132 2     -1658.221          39.000    21089882.803 4  87623174.88334     -1289.996          38.000  
G17  23108118.448 1 121434000.322 2      -226.924          41.000    23108112.037 1  94623858.860 2      -177.059          40.000  
G19  22668714.757 1 119124906.709 2      1894.109          42.000                                                                  
E24  26288873.094 1 138148936.081 2     -1830.874          42.000    26288868.035 1 105854376.844 1     -1402.879          47.000  
S23  39165846.491 1 205817912.828 2       246.221          40.000  
G23  24469492.589 1 128588056.748 2     -1209.136          41.000    24469486.296 1 100198454.510 3      -942.279          37.000  
C37  22894366.337 1 119216976.477 2      -240.337          43.000                                                                  
C10  40700286.090 4               6      -611.106          31.000    40700275.032 1 163883133.266 3      -472.532          38.000  
R18  22825413.675 1 121843619.031 1      2383.136          45.000    22825405.730 8  94767217.08524      1853.636          36.000  
R08  23415134.009 1 125386982.677 1      3465.891          42.000    23415116.229 8  97523131.30235      2695.285          34.000  
R06  22352288.681 2 119276091.074 3     -3626.445          36.000                                                                  
R10  24229341.128 2 129156001.862 3      3427.325          36.000                                                                  
E03  24926890.287 1 130991678.018 1      -361.700          44.000    24926886.186 1 100370239.752 1      -277.104          45.000  
E05  26797684.530 1 140822762.347 3     -2633.943          39.000    26797682.104 1 107903147.663 2     -2018.316          42.000  
G20  24802365.459 1 130337308.506 3     -1453.497          37.000                                                                  
E12  26871294.092 4 141209598.299 5      1986.692          30.000    26871283.072 1 108199521.903 2      1522.616          41.000  
G24  21354251.497 1 112217352.127 1      1463.658          44.000    21354245.427 1  87442064.469 2      1140.422          41.000  
E25  24393518.059 1 128188816.315 2       512.274          43.000    24393513.968 1  98222577.767 1       392.611          44.000  
E08  25199049.066 1 132421885.397 2      2313.932          40.000    25199044.323 1 101466117.064 2      1773.029          42.000  
E02  26862625.218 1 141164066.763 1      2488.895          44.000    26862621.882 1 108164645.328 1      1906.978          43.000  
G12  23213623.526 1 121988422.228 1      3355.292          45.000    23213615.225 2  95055875.410 4      2614.338          35.000  
E33                                                                  29262724.716 1               6      -157.280          28.000  
> 2021 03 11 09 58 12.0030000  0 37                     
G13  23057052.792 1 121165615.000 1     -2898.553          43.000                                                                  
G14  24955705.939 2 131143144.629 4     -3119.294          35.000    24955698.686 1 102189424.934 3     -2430.126          36.000  
G15  21900376.691 1 115087256.372 1     -1638.994          45.000    21900368.349 1  89678335.290 3     -1277.065          37.000  
G10  25052236.522 1 131650404.484 2       717.021          42.000    25052229.517 2 102584706.548 5       558.940          33.000  
G28  24596537.804 1 129255681.972 2     -2784.711          40.000                                                                  
S36  38978541.501 1 204833615.361 2       247.128          40.000  
C20  24965347.310 1 130001108.942 1     -2126.744          45.000                                                                  
C23  25710576.923 1 133881728.744 3     -2240.750          39.000                                                                  
C28  25299679.576 1 131742077.869 2      2526.547          38.000                                                                  
C19  24661000.904 1 128416311.452 2       596.448          43.000                                                                  
C11  27059080.188 1 140903724.928 4     -1317.334          35.000    27059069.340 1 108955650.252 2     -1018.367          42.000  
R15  25284130.654 2 135110670.590 2     -3133.124          39.000    25284130.480 8               8     -2437.463          29.000  
R09  20893494.598 1 111570093.339 1      1543.728          46.000    20893491.747 4  86776729.28723      1200.781          42.000  
R17  23503041.425 1 125769532.388 1     -1039.273          44.000    23503028.067 9  97820683.74324      -808.321          40.000  
R07  21066552.869 1 112770907.198 1       -23.381          48.000    21066543.577 2  87710665.58423       -18.190          39.000  
R16  21090196.388 2 112660050.685 2     -1658.412          40.000    21090186.100 9               7     -1290.180          39.000  
G17  23108161.855 1 121434228.003 2      -228.059          41.000    23108155.320 1  94624036.262 2      -177.673          41.000  
G19  22668354.440 1 119123013.250 2      1893.135          41.000                                                                  
E24  26289221.712 1 138150767.310 2     -1831.367          42.000    26289216.573 1 105855779.987 1     -1403.221          47.000  
S23  39165799.620 1 205817666.810 2       245.727          40.000  
G23  24469722.792 1 128589266.576 2     -1210.244          41.000    24469716.583 1 100199397.230 3      -943.206          37.000  
C37  22894412.530 1 119217217.090 2      -240.959          43.000                                                                  
C10  40700403.946 4 211937683.79535      -611.654          31.000    40700392.401 1 163883605.731 2      -472.646          38.000  
R18  22824967.270 1 121841236.347 1      2382.227          44.000    22824959.303 8               6      1852.876          36.000  
R08  23414487.069 1 125383517.318 1      3464.924          42.000    23414469.323 8  97520436.99725      2695.138          35.000  
R06  22352968.490 2 119279718.152 3     -3627.203          36.000                                                                  
R10  24228698.164 2 129152574.878 3      3427.301          36.000                                                                  
E03  24926959.247 1 130992040.167 1      -362.528          44.000    24926955.178 1 100370517.225 1      -277.614          45.000  
E05  26798185.813 1 140825396.464 2     -2634.252          39.000    26798183.270 1 107905166.010 2     -2018.652          42.000  
G20  24802642.155 1 130338762.542 3     -1454.260          38.000                                                                  
E12  26870914.993 4               6      1986.373          30.000    26870904.937 1 108197999.763 2      1521.882          41.000  
G24  21353973.121 1 112215888.877 1      1462.926          44.000    21353966.915 1  87440924.278 2      1139.630          41.000  
E25  24393420.692 1 128188304.495 2       511.609          43.000    24393416.630 1  98222185.581 1       392.131          44.000  
E08  25198608.789 1 132419571.812 2      2313.352          40.000    25198604.120 1 101464344.315 1      1772.612          42.000  
E02  26862151.774 1 141161578.195 1      2488.426          44.000    26862148.255 1 108162738.505 1      1906.568          43.000  
G12  23212985.164 1 121985067.402 1      3354.518          45.000    23212976.779 1  95053261.243 4      2614.635          35.000  
E33                                                                  29262763.868 1               7      -158.186          28.000  
> 2021 03 11 09 58 13.0030000  0 37                     
G13  23057604.351 1 121168513.678 2     -2898.639          43.000                                                                  
G14  24956299.632 2 131146263.604 4     -3119.042          34.000    24956292.316 1 102191855.291 3     -2430.034          36.000  
G15  21900688.650 1 115088895.549 1     -1639.479          45.000    21900680.251 1  89679612.569 3     -1277.572          37.000  
G10  25052100.172 1 131649687.747 2       716.547          43.000    25052093.251 2 102584148.090 4       557.670          33.000  
G28  24597067.732 1 129258466.462 2     -2784.668          40.000                                                                  
S36  38978494.483 1 204833367.951 2       247.739          40.000  
C20  24965755.622 1 130003235.727 1     -2126.976          45.000                                                                  
C23  25711007.178 1 133883969.566 2     -2240.596          39.000                                                                  
C28  25299194.435 1 131739551.452 3      2526.301          38.000                                                                  
C19  24660886.388 1 128415715.154 1       596.112          42.000                                                                  
C11  27059333.167 1 140905042.110 4     -1317.275          35.000    27059322.300 1 108956668.805 2     -1018.750          42.000  
R15  25284716.831 2 135113803.498 2     -3132.708          40.000    25284716.211 8               7     -2437.207          29.000  
R09  20893205.524 1 111568549.728 1      1543.475          46.000    20893204.018 4  86775528.697 2      1200.563          44.000  
R17  23503235.689 1 125770571.898 1     -1039.877          44.000    23503226.544 9  97821492.24623      -808.699          41.000  
R07  21066557.376 1 112770930.899 1       -24.156          48.000    21066546.935 4  87710680.01734       -18.837          40.000  
R16  21090506.781 2 112661709.493 2     -1658.952          40.000    21090496.579 9  87625725.04334     -1290.318          39.000  
G17  23108205.277 1 121434456.254 2      -228.437          41.000    23108198.760 1  94624214.122 2      -178.010          40.000  
G19  22667994.289 1 119121120.379 2      1892.520          41.000                                                                  
E24  26289570.299 1 138152598.631 1     -1831.606          42.000    26289565.021 1 105857183.199 1     -1403.154          47.000  
S23  39165752.909 1 205817420.728 2       246.160          40.000  
G23  24469953.052 1 128590476.891 2     -1210.714          40.000    24469946.921 1 100200340.306 3      -943.033          37.000  
C37  22894458.742 1 119217457.918 1      -240.865          43.000                                                                  
C10  40700520.714 4               6      -610.468          31.000    40700509.710 1 163884078.188 2      -472.434          38.000  
R18  22824520.982 1 121838854.370 1      2381.539          44.000    22824511.534 8  94763505.23335      1852.408          36.000  
R08  23413840.045 1 125380052.479 2      3464.640          42.000    23413855.920 9               6      2694.654          37.000  
R06  22353648.206 2 119283345.642 3     -3627.555          36.000                                                                  
R10  24228055.342 2 129149148.037 3      3426.453          36.000                                                                  
E03  24927028.319 1 130992402.730 1      -362.684          44.000    24927024.032 1 100370795.050 1      -277.954          45.000  
E05  26798687.228 1 140828030.762 2     -2634.448          39.000    26798684.616 1 107907184.480 1     -2018.582          42.000  
G20  24802918.928 1 130340217.015 3     -1454.510          38.000                                                                  
E12  26870536.775 4               6      1986.123          31.000    26870527.023 1 108196477.866 2      1521.754          41.000  
G24  21353694.778 1 112214425.988 1      1462.842          44.000    21353688.566 1  87439784.357 2      1139.880          42.000  
E25  24393323.132 1 128187792.899 2       511.493          42.000    24393319.338 1  98221793.588 1       391.993          44.000  
E08  25198168.586 1 132417258.524 2      2313.192          40.000    25198163.975 1 101462571.786 2      1772.565          42.000  
E02  26861678.228 1 141159089.764 1      2488.157          44.000    26861674.830 1 108160831.778 2      1906.693          43.000  
G12  23212346.800 1 121981712.849 1      3354.516          45.000    23212338.399 2  95050647.308 4      2614.030          35.000  
E33                                                                  29262803.206 1               7      -158.772          28.000  
> 2021 03 11 09 58 14.0030000  0 37                     
G13  23058155.991 1 121171412.639 1     -2898.796          43.000                                                                  
G14  24956893.307 1 131149382.582 4     -3118.892          34.000    24956885.826 1 102194285.675 3     -2430.244          36.000  
G15  21901000.712 1 115090535.185 1     -1639.701          45.000    21900992.290 1  89680890.182 3     -1277.417          37.000  
G10  25051963.815 1 131648971.546 2       716.135          43.000    25051956.938 1 102583590.034 4       557.352          33.000  
G28  24597597.550 1 129261250.952 2     -2784.460          40.000                                                                  
S36  38978447.388 1 204833120.470 2       247.590          40.000  
C20  24966164.123 1 130005362.776 1     -2126.935          45.000                                                                  
C23  25711437.516 1 133886210.423 2     -2240.598          39.000                                                                  
C28  25298709.252 1 131737025.296 3      2526.327          38.000                                                                  
C19  24660772.080 1 128415119.337 1       595.673          42.000                                                                  
C11  27059586.198 1 140906359.686 4     -1317.372          35.000    27059575.288 1 108957687.648 2     -1018.828          42.000  
R15  25285303.088 2 135116936.264 2     -3132.309          39.000                                                                  
R09  20892916.584 1 111567006.429 1      1543.239          45.000    20892915.521 4  86774328.370 2      1200.010          42.000  
R17  23503430.075 1 125771612.141 1     -1040.434          44.000    23503422.762 8  97822301.32823      -809.060          39.000  
R07  21066561.979 1 112770955.428 1       -24.711          48.000    21066552.310 4  87710702.08234       -19.168          38.000  
R16  21090817.312 2 112663368.516 2     -1658.990          40.000    21090807.528 9  87627015.41123     -1290.753          39.000  
G17  23108248.866 1 121434685.052 2      -228.812          42.000    23108242.252 1  94624392.416 2      -178.446          40.000  
G19  22667634.296 1 119119228.053 2      1892.306          41.000                                                                  
E24  26289918.864 1 138154429.953 2     -1831.179          42.000    26289913.516 1 105858586.433 1     -1403.230          47.000  
S23  39165705.995 1 205817174.578 2       246.365          40.000  
G23  24470183.399 1 128591687.646 2     -1210.939          41.000    24470177.362 1 100201283.766 3      -943.580          37.000  
C37  22894504.983 1 119217698.941 1      -241.005          43.000                                                                  
C10  40700638.973 4               7      -611.201          31.000    40700627.049 1 163884550.554 2      -472.252          38.000  
R18  22824074.862 1 121836473.047 1      2381.115          44.000    22824062.528 8  94761640.60524      1852.235          36.000  
R08  23413193.106 1 125376588.132 1      3464.240          42.000    23413202.619 9               6      2694.108          34.000  
R06  22354327.989 2 119286973.434 3     -3627.521          36.000                                                                  
R10  24227412.553 2 129145721.237 3      3426.651          36.000                                                                  
E03  24927097.375 1 130992765.671 1      -362.977          44.000    24927093.143 1 100371073.153 1      -278.227          45.000  
E05  26799188.542 1 140830665.141 3     -2634.099          39.000    26799185.830 1 107909203.034 1     -2018.524          42.000  
G20  24803195.730 1 130341671.852 2     -1454.980          38.000                                                                  
E12  26870158.318 4               6      1986.499          31.000    26870149.132 1 108194956.156 2      1521.746          41.000  
G24  21353416.452 1 112212963.415 1      1462.653          44.000    21353410.194 1  87438644.690 2      1139.760          41.000  
E25  24393225.758 1 128187281.498 2       511.383          42.000    24393222.012 1  98221401.731 1       391.910          44.000  
E08  25197728.420 1 132414945.456 2      2312.871          41.000    25197723.818 1 101460799.443 1      1772.280          42.000  
E02  26861204.533 1 141156601.407 1      2488.452          44.000    26861201.229 1 108158925.117 1      1906.772          43.000  
G12  23211708.460 1 121978358.556 1      3354.369          45.000    23211700.135 1  95048033.563 4      2614.180          35.000  
E33                                                                  29262842.831 1               6      -159.371          29.000  
> 2021 03 11 09 58 15.0030000  0 37                     
G13  23058707.704 1 121174311.953 1     -2899.758          43.000                                                                  
G14  24957486.980 1 131152501.659 4     -3119.496          34.000    24957479.366 1 102196716.116 3     -2430.411          35.000  
G15  21901312.903 1 115092175.409 1     -1640.690          45.000    21901304.415 1  89682168.276 3     -1278.220          37.000  
G10  25051827.660 1 131648255.992 2       715.224          43.000    25051820.740 2 102583032.415 5       557.464          33.000  
G28  24598127.455 1 129264035.537 2     -2784.692          41.000                                                                  
S36  38978400.294 1 204832872.941 2       247.550          40.000  
C20  24966572.718 1 130007490.221 1     -2127.688          45.000                                                                  
C23  25711867.821 1 133888451.348 2     -2241.105          39.000                                                                  
C28  25298224.082 1 131734499.519 3      2525.229          38.000                                                                  
C19  24660657.758 1 128414524.086 1       594.952          43.000                                                                  
C11  27059839.314 1 140907677.808 4     -1318.100          35.000    27059828.416 1 108958706.883 2     -1019.207          42.000  
R15  25285889.301 2 135120068.969 2     -3132.925          39.000                                                                  
R09  20892627.660 1 111565463.525 1      1542.668          46.000    20892625.472 4  86773128.327 2      1199.835          41.000  
R17  23503624.592 1 125772653.238 1     -1041.605          44.000    23503616.972 4  97823111.07723      -810.281          38.000  
R07  21066566.819 1 112770980.877 1       -26.086          48.000    21066555.933 4  87710717.86323       -20.052          38.000  
R16  21091128.030 2 112665027.867 2     -1659.491          40.000    21091118.027 8  87628305.99423     -1290.591          37.000  
G17  23108292.482 1 121434914.490 2      -229.880          42.000    23108285.884 1  94624571.193 2      -179.080          40.000  
G19  22667274.328 1 119117336.374 2      1891.088          41.000                                                                  
E24  26290267.368 1 138156261.427 2     -1831.732          43.000    26290262.033 1 105859989.754 1     -1403.456          47.000  
S23  39165659.215 1 205816928.393 2       245.988          40.000  
G23  24470413.918 1 128592898.949 2     -1211.708          41.000    24470407.906 1 100202227.632 3      -944.187          37.000  
C37  22894551.350 1 119217940.237 2      -241.477          43.000                                                                  
C10  40700754.541 4               7      -610.933          31.000    40700744.391 1 163885022.936 2      -472.336          38.000  
R18  22823628.894 1 121834092.479 1      2380.140          44.000    22823616.191 4  94759787.05734      1851.351          34.000  
R08  23412546.220 1 125373124.394 2      3463.120          43.000    23412552.254 9  97512493.60835      2693.835          34.000  
R06  22355007.906 2 119290601.713 3     -3628.547          35.000                                                                  
R10  24226767.725 4 129142304.09035      3426.645          36.000                                                                  
E03  24927166.382 1 130993129.081 1      -363.745          44.000    24927162.404 1 100371351.606 1      -278.816          45.000  
E05  26799690.047 1 140833299.731 2     -2634.720          39.000    26799687.129 1 107911221.748 2     -2018.839          42.000  
G20  24803472.739 1 130343127.152 2     -1455.475          38.000                                                                  
E12  26869780.256 4               6      1985.238          31.000    26869771.235 1 108193434.728 2      1521.341          41.000  
G24  21353138.078 1 112211501.220 1      1461.819          44.000    21353131.971 1  87437505.318 2      1139.165          42.000  
E25  24393128.696 1 128186770.375 2       510.886          43.000    24393124.753 1  98221010.101 1       391.409          44.000  
E08  25197288.075 1 132412632.692 2      2312.431          40.000    25197283.670 1 101459027.336 2      1771.859          42.000  
E02  26860731.016 1 141154113.223 1      2488.042          44.000    26860727.777 1 108157018.600 1      1906.365          43.000  
G12  23211070.187 1 121975004.590 1      3353.660          45.000    23211061.917 1  95045420.084 4      2613.619          35.000  
E33                                                                  29262882.358 1               6      -159.615          29.000  
> 2021 03 11 09 58 16.0030000  0 37                     
G13  23059259.495 1 121177211.642 2     -2899.917          43.000                                                                  
G14  24958080.546 2 131155620.817 4     -3119.158          35.000    24958072.917 1 102199146.654 3     -2430.918          35.000  
G15  21901625.184 1 115093816.210 1     -1641.207          45.000    21901616.646 1  89683446.843 3     -1278.962          37.000  
G10  25051691.625 1 131647541.089 1       714.569          43.000    25051684.666 2 102582475.355 5       556.692          33.000  
G28  24598657.358 1 129266820.231 2     -2784.643          41.000                                                                  
S36  38978353.158 1 204832625.427 2       247.725          40.000  
C20  24966981.271 1 130009618.058 1     -2128.058          45.000                                                                  
C23  25712298.056 1 133890692.401 2     -2241.059          39.000                                                                  
C28  25297738.997 1 131731974.117 2      2525.145          39.000                                                                  
C19  24660543.523 1 128413929.436 1       594.452          42.000                                                                  
C11  27060092.579 1 140908996.447 4     -1318.999          34.000    27060081.607 1 108959726.546 2     -1019.813          42.000  
R15  25286475.651 2 135123201.631 2     -3132.490          41.000    25286479.037 9               7     -2436.051          28.000  
R09  20892338.825 1 111563921.015 1      1542.265          47.000    20892336.985 2  86771928.591 2      1199.684          41.000  
R17  23503819.336 1 125773695.218 1     -1042.434          46.000    23503811.933 4  97823921.49023      -810.551          39.000  
R07  21066571.727 1 112771007.277 1       -26.887          49.000    21066561.824 4  87710738.42523       -21.141          39.000  
R16  21091438.716 2 112666687.577 2     -1659.912          41.000    21091428.794 8  87629597.88134     -1290.991          37.000  
G17  23108336.233 1 121435144.569 2      -230.474          42.000    23108329.727 1  94624750.482 2      -179.552          40.000  
G19  22666914.539 1 119115445.342 2      1890.714          41.000                                                                  
E24  26290616.059 1 138158093.020 2     -1831.853          43.000    26290610.566 1 105861393.186 1     -1403.469          47.000  
S23  39165612.375 1 205816682.224 2       246.261          40.000  
G23  24470644.574 1 128594110.787 2     -1212.074          41.000    24470638.461 1 100203171.925 3      -944.614          37.000  
C37  22894597.705 1 119218181.838 2      -241.633          43.000                                                                  
C10  40700872.764 4               6      -611.038          31.000    40700861.705 1 163885495.335 2      -472.059          37.000  
R18  22823182.981 1 121831712.669 1      2379.480          45.000    22823169.831 8  94757934.08025      1850.975          35.000  
R08  23411899.442 1 125369661.253 2      3462.874          45.000    23411890.861 9               6      2692.982          33.000  
R06  22355687.892 2 119294230.413 3     -3628.944          36.000                                                                  
R10  24226124.969 4 129138877.65723      3426.322          36.000                                                                  
E03  24927235.497 1 130993492.970 1      -364.102          44.000    24927231.587 1 100371630.427 1      -278.984          45.000  
E05  26800191.517 1 140835934.539 2     -2634.782          39.000    26800188.615 1 107913240.623 1     -2018.789          42.000  
G20  24803749.787 1 130344582.939 2     -1456.030          38.000                                                                  
E12  26869402.113 4               6      1984.952          31.000    26869393.473 1 108191913.608 2      1520.969          41.000  
G24  21352859.842 1 112210039.438 1      1461.745          44.000    21352853.795 1  87436366.280 1      1138.880          42.000  
E25  24393031.366 1 128186259.558 2       510.465          42.000    24393027.423 1  98220618.684 1       391.353          44.000  
E08  25196848.100 1 132410320.279 2      2312.147          41.000    25196843.650 1 101457255.484 2      1771.771          42.000  
E02  26860257.654 1 141151625.235 1      2487.861          44.000    26860254.292 1 108155112.217 1      1906.367          43.000  
G12  23210432.000 1 121971650.978 1      3353.253          46.000    23210423.741 1  95042806.912 4      2612.927          35.000  
E33                                                                  29262921.777 1               6      -159.670          29.000  
> 2021 03 11 09 58 17.0030000  0 37                     
G13  23059811.305 1 121180111.603 2     -2900.299          43.000                                                                  
G14  24958674.139 2 131158739.998 4     -3119.042          34.000    24958666.467 2 102201577.169 4     -2430.791          35.000  
G15  21901937.631 1 115095457.510 1     -1641.473          45.000    21901928.937 1  89684725.793 3     -1279.597          37.000  
G10  25051555.551 1 131646826.740 1       713.777          43.000    25051548.675 2 102581918.737 5       556.295          33.000  
G28  24599187.286 1 129269604.956 2     -2784.790          41.000                                                                  
S36  38978306.005 1 204832377.896 2       247.483          40.000  
C20  24967389.948 1 130011746.187 1     -2128.424          45.000                                                                  
C23  25712728.363 1 133892933.471 2     -2240.863          39.000                                                                  
C28  25297254.093 1 131729448.986 2      2524.580          39.000                                                                  
C19  24660429.577 1 128413335.301 2       593.439          42.000                                                                  
C11  27060345.774 1 140910315.469 4     -1319.154          34.000    27060334.867 1 108960746.514 2     -1020.280          41.000  
R15  25287061.830 2 135126334.212 2     -3132.754          41.000    25287067.545 9               7     -2436.270          29.000  
R09  20892049.985 1 111562378.839 1      1541.807          47.000    20892048.033 4  86770729.12022      1199.301          42.000  
R17  23504014.254 1 125774737.958 1     -1043.367          46.000    23504007.008 4  97824732.51323      -811.251          39.000  
R07  21066576.765 1 112771034.557 1       -27.856          49.000    21066566.788 4  87710762.63933       -21.673          39.000  
R16  21091749.437 1 112668347.534 2     -1660.154          42.000    21091740.379 4  87630888.96023     -1291.316          37.000  
G17  23108380.136 1 121435375.189 1      -230.719          42.000    23108373.707 1  94624930.198 2      -180.045          40.000  
G19  22666554.837 1 119113554.877 2      1890.290          41.000                                                                  
E24  26290964.632 1 138159924.649 1     -1831.574          43.000    26290959.141 1 105862796.647 1     -1403.437          47.000  
S23  39165565.468 1 205816436.022 2       246.303          40.000  
G23  24470875.253 1 128595323.113 2     -1212.698          41.000    24470869.146 1 100204116.599 3      -945.011          37.000  
C37  22894644.138 1 119218423.638 1      -242.088          43.000                                                                  
C10  40700990.460 4               6      -611.081          31.000    40700979.009 1 163885967.692 3      -472.210          38.000  
R18  22822737.197 1 121829333.542 1      2378.792          45.000    22822724.327 8  94756084.67724      1850.076          35.000  
R08  23411252.729 1 125366198.630 1      3462.241          44.000    23411243.761 9  97507004.92235      2692.689          34.000  
R06  22356368.032 2 119297859.487 3     -3629.800          37.000                                                                  
R10  24225482.472 8 129135450.78313      3426.229          36.000                                                                  
E03  24927304.864 1 130993857.254 1      -364.661          44.000    24927300.922 1 100371909.553 1      -279.441          45.000  
E05  26800693.086 1 140838569.474 2     -2635.009          39.000    26800690.027 1 107915259.614 2     -2019.082          42.000  
G20  24804026.899 1 130346039.107 2     -1456.439          38.000                                                                  
E12  26869024.191 2 141197683.839 5      1984.486          32.000    26869015.718 1 108190392.689 2      1520.659          41.000  
G24  21352581.701 1 112208578.013 1      1461.168          44.000    21352575.735 1  87435227.496 2      1138.400          41.000  
E25  24392934.405 1 128185748.951 2       510.155          42.000    24392930.353 1  98220227.438 1       391.176          44.000  
E08  25196408.043 1 132408008.098 2      2312.119          40.000    25196403.673 1 101455483.809 2      1771.681          42.000  
E02  26859784.112 1 141149137.342 1      2487.798          44.000    26859780.803 1 108153205.915 1      1906.219          43.000  
G12  23209793.850 1 121968297.611 1      3353.099          45.000    23209785.552 1  95040193.900 4      2612.575          35.000  
E33                                                                  29262961.425 1               6      -160.166          28.000  
